time,p1,p2,p3,p4,p5,termite,ax,ay,az,rx,ry,rz,roll,pitch,yaw,q1,q2,q3,q4,calibration,temperature,humidity,pressure,flag_rm,lat,lacoord,lon,locoord,capacitive,o_lat,o_lon,used_lat,used_lon,altitude,flag_lm
0.0,28.0,31.0,98.0,125.0,67.0,nan,-0.52,-7.95,1.16,7.89,-81.87,45.64,-3.58,0.16,-1.06,-0.33,0.21,-0.62,0.68,1.0,28.21,26.31,0.0747183,0.0,19.25606217391304,nan,-99.59845282258063,nan,0.0,0.0,9935.9072,1.0,1.0,2606.7,0.0
23.0,17.0,18.0,67.0,138.0,103.0,nan,-0.32,-8.16,1.34,7.82,-81.89,45.64,-1.55,-0.19,-0.78,-0.33,0.21,-0.62,0.68,1.0,28.21,26.31,0.0747183,0.0,19.25606217391304,nan,-99.59845282258063,nan,0.0,0.0,9935.9072,0.0,0.0,0.0,0.0
42.0,31.0,31.0,56.0,134.0,111.0,nan,-0.31,-8.05,1.22,7.75,-81.95,45.64,-3.16,-0.05,-0.43,-0.33,0.21,-0.62,0.68,1.0,28.21,26.31,0.0747183,0.0,19.25606217391304,nan,-99.59845282258063,nan,0.0,0.0,9935.9072,0.0,0.0,0.0,0.0
65.0,31.0,31.0,135.0,155.0,105.0,nan,-0.06,-7.83,1.1,7.67,-82.01,45.64,-3.09,-0.05,-0.29,-0.33,0.21,-0.62,0.68,1.0,28.21,26.31,0.0747183,0.0,19.25606217391304,nan,-99.59845282258063,nan,0.0,0.0,9935.9072,0.0,0.0,0.0,0.0
85.0,31.0,30.0,87.0,138.0,75.0,nan,0.08,-7.9,1.03,7.58,-82.04,45.64,-1.34,-0.12,-0.5,-0.33,0.21,-0.62,0.68,1.0,28.21,26.31,0.0747183,0.0,19.25606217391304,nan,-99.59845282258063,nan,0.0,0.0,9935.9072,0.0,0.0,0.0,0.0
107.0,17.0,30.0,66.0,154.0,103.0,nan,0.19,-7.8,1.02,7.48,-82.12,45.64,-3.86,0.23,-0.5,-0.33,0.21,-0.62,0.68,1.0,28.21,26.31,0.0747183,0.0,19.25606217391304,nan,-99.59845282258063,nan,0.0,0.0,9935.9072,0.0,0.0,0.0,0.0
127.0,26.0,30.0,68.0,138.0,125.0,nan,0.45,-7.9,1.05,7.37,-82.14,45.63,-0.43,0.02,-0.43,-0.33,0.21,-0.62,0.68,1.0,28.21,26.31,0.0747183,0.0,19.25606217391304,nan,-99.59845282258063,nan,0.0,0.0,9935.9072,0.0,0.0,0.0,0.0
149.0,22.0,31.0,108.0,153.0,110.0,nan,-0.15,-7.75,1.05,7.24,-82.06,45.63,2.72,0.02,-0.15,-0.33,0.21,-0.62,0.68,1.0,28.22,26.27,0.0747175,0.0,19.25606217391304,nan,-99.59845282258063,nan,0.0,0.0,9935.9072,0.0,0.0,0.0,0.0
182.0,26.0,30.0,67.0,138.0,82.0,nan,-0.73,-7.85,1.11,7.22,-82.0,45.63,3.21,-0.05,0.13,-0.33,0.21,-0.62,0.68,1.0,28.22,26.27,0.0747175,0.0,19.25606217391304,nan,-99.59845282258063,nan,0.0,0.0,9935.9072,0.0,0.0,0.0,0.0
201.0,27.0,30.0,78.0,155.0,125.0,nan,-0.87,-7.8,1.13,7.22,-81.93,45.64,3.14,-0.12,0.34,-0.33,0.21,-0.62,0.68,1.0,28.22,26.27,0.0747175,0.0,19.25606217391304,nan,-99.59845282258063,nan,0.0,0.0,9935.9072,0.0,0.0,0.0,0.0
224.0,27.0,30.0,77.0,136.0,111.0,nan,-1.11,-7.86,1.14,7.23,-81.84,45.64,4.68,-0.33,-0.08,-0.33,0.21,-0.62,0.68,1.0,28.22,26.27,0.0747175,0.0,19.256059347826085,nan,-99.59845231182796,nan,0.0,0.0,9935.9072,0.0,0.0,2606.7,0.0
244.0,26.0,30.0,107.0,136.0,110.0,nan,-1.16,-7.93,1.35,7.23,-81.79,45.65,1.74,-0.05,-0.22,-0.33,0.21,-0.62,0.68,1.0,28.22,26.27,0.0747175,0.0,19.256059347826085,nan,-99.59845231182796,nan,0.0,0.0,9935.9072,0.0,0.0,0.0,0.0
266.0,26.0,30.0,77.0,139.0,104.0,nan,-1.17,-7.83,1.25,7.24,-81.79,45.64,-0.64,0.23,-0.15,-0.33,0.21,-0.62,0.68,1.0,28.22,26.27,0.0747175,0.0,19.256059347826085,nan,-99.59845231182796,nan,0.0,0.0,9935.9072,0.0,0.0,0.0,0.0
286.0,28.0,31.0,119.0,154.0,118.0,nan,-1.07,-7.98,1.28,7.24,-81.79,45.64,-0.64,-0.05,-0.22,-0.33,0.21,-0.62,0.68,1.0,28.22,26.27,0.0747175,0.0,19.256059347826085,nan,-99.59845231182796,nan,0.0,0.0,9935.9072,0.0,0.0,0.0,0.0
309.0,38.0,30.0,99.0,135.0,76.0,nan,-0.79,-8.02,1.35,7.21,-81.83,45.64,-2.25,0.09,-0.71,-0.33,0.21,-0.62,0.68,1.0,28.22,26.27,0.0747175,0.0,19.256059347826085,nan,-99.59845231182796,nan,0.0,0.0,9935.9072,0.0,0.0,0.0,0.0
329.0,18.0,30.0,108.0,130.0,103.0,nan,-0.56,-7.84,1.09,7.16,-81.91,45.64,-4.21,0.23,-0.78,-0.33,0.21,-0.62,0.68,1.0,28.22,26.27,0.0747175,0.0,19.256059347826085,nan,-99.59845231182796,nan,0.0,0.0,9935.9072,0.0,0.0,0.0,0.0
351.0,26.0,30.0,77.0,156.0,110.0,nan,-0.32,-8.07,1.11,7.05,-81.99,45.63,-2.18,0.09,-0.29,-0.33,0.21,-0.62,0.68,1.0,28.22,26.27,0.0747175,0.0,19.256059347826085,nan,-99.59845231182796,nan,0.0,0.0,9935.9072,0.0,0.0,0.0,0.0
378.0,19.0,31.0,52.0,125.0,75.0,nan,-0.06,-7.83,1.09,6.98,-81.99,45.63,-0.29,0.09,-0.43,-0.33,0.21,-0.62,0.68,1.0,28.22,26.27,0.0747175,0.0,19.256059347826085,nan,-99.59845231182796,nan,0.0,0.0,9935.9072,0.0,0.0,0.0,0.0
401.0,17.0,31.0,67.0,138.0,101.0,nan,-0.16,-7.94,1.22,6.92,-81.96,45.63,1.25,-0.19,-0.08,-0.33,0.21,-0.62,0.68,1.0,28.22,26.27,0.0747175,0.0,19.256059347826085,nan,-99.59845231182796,nan,0.0,0.0,9935.9072,0.0,0.0,0.0,0.0
421.0,31.0,18.0,157.0,145.0,109.0,nan,-0.15,-7.77,1.17,6.86,-81.97,45.63,-0.64,0.16,-0.01,-0.33,0.21,-0.62,0.68,1.0,28.22,26.27,0.0747175,0.0,19.256059347826085,nan,-99.59845231182796,nan,0.0,0.0,9935.9072,0.0,0.0,0.0,0.0
443.0,28.0,30.0,93.0,137.0,110.0,nan,-0.43,-7.8,1.07,6.83,-81.94,45.63,1.67,0.02,0.13,-0.33,0.21,-0.62,0.68,1.0,28.22,26.27,0.0747175,0.0,19.25605652173913,nan,-99.59845180107526,nan,0.0,0.0,9935.9072,0.0,0.0,2606.7,0.0
462.0,30.0,17.0,77.0,154.0,111.0,nan,-0.58,-7.97,1.26,6.8,-81.9,45.63,1.39,-0.05,-0.08,-0.33,0.21,-0.62,0.68,1.0,28.22,26.27,0.0747175,0.0,19.25605652173913,nan,-99.59845180107526,nan,0.0,0.0,9935.9072,0.0,0.0,0.0,0.0
485.0,30.0,30.0,67.0,139.0,103.0,nan,-0.74,-7.73,0.97,6.78,-81.93,45.62,-0.99,0.37,-0.22,-0.33,0.21,-0.62,0.68,1.0,28.22,26.27,0.0747175,0.0,19.25605652173913,nan,-99.59845180107526,nan,0.0,0.0,9935.9072,0.0,0.0,0.0,0.0
506.0,16.0,30.0,87.0,137.0,76.0,nan,-0.75,-7.83,1.11,6.77,-81.89,45.62,2.02,0.02,0.2,-0.33,0.21,-0.62,0.68,1.0,28.22,26.27,0.0747175,0.0,19.25605652173913,nan,-99.59845180107526,nan,0.0,0.0,9935.9072,0.0,0.0,0.0,0.0
527.0,31.0,26.0,99.0,132.0,103.0,nan,-0.99,-7.96,1.22,6.77,-81.84,45.63,2.02,-0.19,-0.01,-0.33,0.21,-0.62,0.68,1.0,28.22,26.27,0.0747175,0.0,19.25605652173913,nan,-99.59845180107526,nan,0.0,0.0,9935.9072,0.0,0.0,0.0,0.0
547.0,27.0,30.0,82.0,156.0,110.0,nan,-0.79,-7.73,1.12,6.75,-81.86,45.62,-0.78,0.09,-0.5,-0.33,0.21,-0.62,0.68,1.0,28.22,26.27,0.0747175,0.0,19.25605652173913,nan,-99.59845180107526,nan,0.0,0.0,9935.9072,0.0,0.0,0.0,0.0
570.0,29.0,17.0,136.0,140.0,103.0,nan,-0.67,-8.0,1.22,6.7,-81.88,45.62,-3.51,0.37,-0.5,-0.33,0.21,-0.62,0.68,1.0,28.22,26.27,0.0747175,0.0,19.25605652173913,nan,-99.59845180107526,nan,0.0,0.0,9935.9072,0.0,0.0,0.0,0.0
599.0,28.0,31.0,88.0,139.0,76.0,nan,-0.41,-7.88,1.04,6.65,-81.92,45.61,-1.34,0.16,-0.5,-0.33,0.21,-0.62,0.68,1.0,28.22,26.27,0.0747175,0.0,19.25605652173913,nan,-99.59845180107526,nan,0.0,0.0,9935.9072,0.0,0.0,0.0,0.0
619.0,17.0,27.0,124.0,138.0,116.0,nan,-0.49,-8.09,1.24,6.62,-81.9,45.62,0.34,-0.26,-0.15,-0.33,0.21,-0.62,0.68,1.0,28.21,26.27,0.0747183,0.0,19.25605652173913,nan,-99.59845180107526,nan,0.0,0.0,9935.9072,0.0,0.0,0.0,0.0
641.0,26.0,31.0,136.0,150.0,110.0,nan,-0.33,-7.82,1.05,6.57,-81.95,45.61,-1.9,0.16,-0.36,-0.33,0.21,-0.62,0.68,1.0,28.21,26.27,0.0747183,0.0,19.25605652173913,nan,-99.59845180107526,nan,0.0,0.0,9935.9072,0.0,0.0,0.0,0.0
664.0,26.0,30.0,77.0,138.0,125.0,nan,-0.42,-7.89,1.1,6.53,-81.91,45.62,1.67,-0.19,-0.08,-0.33,0.21,-0.62,0.68,1.0,28.21,26.27,0.0747183,0.0,19.256053695652174,nan,-99.59845129032259,nan,0.0,0.0,9935.9072,0.0,0.0,2606.7,0.0
686.0,30.0,30.0,68.0,156.0,111.0,nan,-0.44,-7.96,1.23,6.49,-81.9,45.62,0.48,-0.05,-0.08,-0.33,0.21,-0.62,0.68,1.0,28.21,26.27,0.0747183,0.0,19.256050869565218,nan,-99.59845077956989,nan,0.0,0.0,9935.9072,0.0,0.0,2606.7,0.0
706.0,27.0,31.0,77.0,138.0,112.0,nan,-0.56,-7.7,1.02,6.47,-81.89,45.62,0.69,0.09,0.13,-0.33,0.21,-0.62,0.68,1.0,28.21,26.27,0.0747183,0.0,19.256050869565218,nan,-99.59845077956989,nan,0.0,0.0,9935.9072,0.0,0.0,0.0,0.0
725.0,19.0,21.0,82.0,154.0,104.0,nan,-0.61,-7.99,1.36,6.45,-81.82,45.63,2.79,-0.33,0.06,-0.33,0.21,-0.62,0.68,1.0,28.21,26.27,0.0747183,0.0,19.25604804347826,nan,-99.59845026881722,nan,0.0,0.0,9935.9072,0.0,0.0,2606.7,0.0
749.0,17.0,30.0,98.0,138.0,75.0,nan,-0.57,-7.77,1.14,6.41,-81.85,45.62,0.48,0.09,-0.08,-0.33,0.21,-0.62,0.68,1.0,28.21,26.27,0.0747183,0.0,19.256045217391307,nan,-99.59844975806452,nan,0.0,0.0,9935.9072,0.0,0.0,2606.7,0.0
775.0,17.0,30.0,66.0,140.0,103.0,nan,-0.72,-8.01,1.29,6.4,-81.83,45.62,0.13,-0.05,-0.22,-0.33,0.21,-0.62,0.68,1.0,28.21,26.27,0.0747183,0.0,19.256042391304348,nan,-99.5984492473118,nan,0.0,0.0,9935.9072,0.0,0.0,2606.7,0.0
798.0,25.0,20.0,52.0,138.0,111.0,nan,-0.55,-7.8,1.02,6.36,-81.9,45.61,-2.95,0.23,-0.36,-0.33,0.22,-0.62,0.68,1.0,28.21,26.27,0.0747183,0.0,19.256039565217392,nan,-99.59844873655915,nan,0.0,0.0,9935.9072,0.0,0.0,2606.7,0.0
818.0,26.0,31.0,108.0,159.0,111.0,nan,-0.52,-7.96,1.16,6.33,-81.85,45.62,2.3,-0.26,-0.29,-0.33,0.22,-0.62,0.68,1.0,28.21,26.27,0.0747183,0.0,19.256036739130437,nan,-99.59844822580644,nan,0.0,0.0,9935.9072,0.0,0.0,2606.7,0.0
840.0,26.0,31.0,77.0,148.0,96.0,nan,-0.54,-8.0,1.21,6.3,-81.88,45.62,-1.48,0.09,-0.43,-0.33,0.22,-0.62,0.68,1.0,28.21,26.27,0.0747183,0.0,19.256036739130437,nan,-99.59844822580644,nan,0.0,0.0,9935.9072,0.0,0.0,0.0,0.0
860.0,31.0,30.0,67.0,124.0,125.0,nan,-0.39,-7.79,1.05,6.26,-81.88,45.61,-0.08,0.02,-0.15,-0.33,0.22,-0.62,0.68,1.0,28.21,26.27,0.0747183,0.0,19.25603391304348,nan,-99.59844771505378,nan,0.0,0.0,9935.9072,0.0,0.0,2606.7,0.0
883.0,19.0,30.0,108.0,139.0,110.0,nan,-0.65,-8.08,1.25,6.24,-81.84,45.62,1.95,-0.4,0.06,-0.33,0.22,-0.62,0.68,1.0,28.21,26.27,0.0747183,0.0,19.256031086956526,nan,-99.59844720430107,nan,0.0,0.0,9935.9072,0.0,0.0,2606.7,0.0
902.0,27.0,31.0,78.0,154.0,125.0,nan,-0.53,-7.8,1.13,6.21,-81.88,45.62,-2.25,0.23,-0.5,-0.33,0.22,-0.62,0.68,1.0,28.21,26.27,0.0747183,0.0,19.25602826086957,nan,-99.59844669354838,nan,0.0,0.0,9935.9072,0.0,0.0,2606.7,0.0
925.0,26.0,31.0,87.0,138.0,112.0,nan,-0.51,-7.66,1.04,6.18,-81.86,45.62,1.04,-0.19,-0.36,-0.33,0.22,-0.62,0.68,1.0,28.21,26.27,0.0747183,0.0,19.256025434782607,nan,-99.5984461827957,nan,0.0,0.0,9935.9072,0.0,0.0,2606.7,0.0
945.0,25.0,31.0,119.0,134.0,110.0,nan,-0.46,-7.82,1.25,6.15,-81.84,45.62,0.62,-0.12,-0.08,-0.32,0.22,-0.62,0.68,1.0,28.21,26.27,0.0747183,0.0,19.256022608695652,nan,-99.59844567204301,nan,0.0,0.0,9935.9072,0.0,0.0,2606.7,0.0
967.0,27.0,30.0,62.0,139.0,110.0,nan,-0.4,-8.0,1.3,6.07,-81.84,45.62,-0.22,0.02,-0.78,-0.32,0.22,-0.62,0.68,1.0,28.21,26.27,0.0747183,0.0,19.256022608695652,nan,-99.59844567204301,nan,0.0,0.0,9935.9072,0.0,0.0,0.0,0.0
994.0,25.0,30.0,67.0,138.0,110.0,nan,-0.41,-7.84,1.1,6.03,-81.88,45.62,-1.76,0.09,-0.78,-0.32,0.22,-0.62,0.68,1.0,28.21,26.27,0.0747183,0.0,19.256019782608696,nan,-99.59844516129033,nan,0.0,0.0,9935.9072,0.0,0.0,2606.7,0.0
1017.0,26.0,30.0,88.0,152.0,111.0,nan,-0.23,-7.82,1.19,5.98,-81.86,45.62,0.62,-0.12,-0.15,-0.32,0.22,-0.62,0.68,1.0,28.21,26.27,0.0747183,0.0,19.25601695652174,nan,-99.59844465053762,nan,0.0,0.0,9935.9072,0.0,0.0,2606.7,0.0
1036.0,27.0,30.0,67.0,133.0,112.0,nan,-0.42,-8.06,1.31,5.94,-81.85,45.62,0.13,-0.05,-0.43,-0.32,0.22,-0.62,0.68,1.0,28.21,26.27,0.0747183,0.0,19.256014130434785,nan,-99.59844413978496,nan,0.0,0.0,9935.9072,0.0,0.0,2606.7,0.0
1059.0,31.0,31.0,112.0,136.0,111.0,nan,-0.19,-7.86,1.17,5.88,-81.9,45.61,-2.95,0.3,-0.92,-0.32,0.22,-0.62,0.68,1.0,28.21,26.27,0.0747183,0.0,19.256011304347822,nan,-99.59844362903225,nan,0.0,0.0,9935.9072,0.0,0.0,2606.7,0.0
1079.0,18.0,30.0,67.0,137.0,111.0,nan,-0.13,-7.88,1.11,5.82,-81.9,45.61,0.06,-0.05,-0.57,-0.32,0.22,-0.62,0.68,1.0,28.21,26.27,0.0747242,0.0,19.256008478260867,nan,-99.59844311827956,nan,0.0,0.0,9935.9072,0.0,0.0,2606.7,0.0
1104.0,37.0,26.0,88.0,137.0,111.0,nan,-0.14,-8.09,1.23,5.76,-81.9,45.61,-0.15,-0.05,-0.29,-0.32,0.22,-0.62,0.68,1.0,28.21,26.27,0.0747242,0.0,19.25600565217391,nan,-99.59844260752688,nan,0.0,0.0,9935.9072,0.0,0.0,2606.7,0.0
1123.0,27.0,30.0,120.0,148.0,125.0,nan,-0.13,-8.05,1.09,5.7,-81.93,45.61,-1.2,0.16,-0.57,-0.32,0.22,-0.62,0.68,1.0,28.21,26.27,0.0747242,0.0,19.25600565217391,nan,-99.59844260752688,nan,0.0,0.0,9935.9072,0.0,0.0,0.0,0.0
1146.0,31.0,29.0,93.0,137.0,112.0,nan,-0.21,-7.86,1.19,5.61,-81.89,45.61,1.67,-0.19,-0.08,-0.32,0.22,-0.62,0.68,1.0,28.21,26.27,0.0747242,0.0,19.256002826086956,nan,-99.59844209677419,nan,0.0,0.0,9935.9072,0.0,0.0,2606.7,0.0
1172.0,26.0,30.0,77.0,140.0,111.0,nan,-0.41,-8.01,1.18,5.58,-81.87,45.61,0.62,0.02,0.13,-0.32,0.22,-0.62,0.68,1.0,28.21,26.27,0.0747242,0.0,19.255994791666662,nan,-99.59844158602151,nan,0.0,0.0,9935.9072,1.0,0.0,2606.7,0.0
1195.0,18.0,30.0,67.0,139.0,112.0,nan,-0.37,-8.02,1.25,5.55,-81.86,45.61,0.27,-0.05,-0.15,-0.32,0.22,-0.62,0.68,1.0,28.21,26.27,0.0747242,0.0,19.25598958333333,nan,-99.59844107526882,nan,0.0,0.0,9935.9072,0.0,0.0,2606.7,0.0
1215.0,31.0,28.0,135.0,135.0,111.0,nan,-0.46,-7.84,1.04,5.52,-81.88,45.61,-0.78,0.02,-0.22,-0.32,0.22,-0.62,0.68,1.0,28.21,26.27,0.0747242,0.0,19.255984375,nan,-99.59844056451612,nan,0.0,0.0,9935.9072,0.0,0.0,2606.7,0.0
1238.0,26.0,20.0,109.0,139.0,111.0,nan,-0.3,-7.92,1.29,5.49,-81.85,45.61,0.83,-0.05,-0.01,-0.32,0.22,-0.62,0.68,1.0,28.21,26.27,0.0747242,0.0,19.255979166666666,nan,-99.59844005376344,nan,0.0,0.0,9935.9072,0.0,0.0,2606.7,0.0
1257.0,26.0,30.0,78.0,133.0,111.0,nan,-0.47,-8.02,1.21,5.47,-81.86,45.61,-0.5,-0.12,-0.01,-0.32,0.22,-0.62,0.68,1.0,28.21,26.27,0.0747242,0.0,19.255973958333335,nan,-99.59843954301076,nan,0.0,0.0,9935.9072,0.0,0.0,2606.7,0.0
1280.0,26.0,27.0,147.0,133.0,110.0,nan,-0.2,-7.76,1.05,5.42,-81.9,45.61,-1.97,0.23,-0.29,-0.32,0.22,-0.62,0.68,1.0,28.21,26.27,0.0747242,0.0,19.255973958333335,nan,-99.59843954301076,nan,0.0,0.0,9935.9072,0.0,0.0,0.0,0.0
1300.0,21.0,30.0,77.0,160.0,111.0,nan,-0.38,-7.92,1.19,5.4,-81.85,45.61,2.44,-0.26,0.06,-0.32,0.22,-0.62,0.68,1.0,28.21,26.27,0.0747242,0.0,19.255968749999997,nan,-99.59843903225807,nan,0.0,0.0,9935.9072,0.0,0.0,2606.7,0.0
1322.0,26.0,31.0,67.0,139.0,110.0,nan,-0.28,-7.86,1.23,5.36,-81.88,45.61,-1.69,0.16,-0.29,-0.32,0.22,-0.62,0.68,1.0,28.21,26.27,0.0747242,0.0,19.255963541666667,nan,-99.59843852150539,nan,0.0,0.0,9935.9072,0.0,0.0,2606.7,0.0
1342.0,26.0,20.0,67.0,138.0,125.0,nan,-0.34,-7.8,1.01,5.32,-81.89,45.61,-0.29,0.16,-0.22,-0.32,0.22,-0.62,0.68,1.0,28.21,26.27,0.0747242,0.0,19.255958333333332,nan,-99.5984380107527,nan,0.0,0.0,9935.9072,0.0,0.0,2606.7,0.0
1365.0,27.0,26.0,89.0,153.0,111.0,nan,-0.42,-7.81,1.11,5.26,-81.88,45.61,-1.06,0.23,-0.43,-0.32,0.22,-0.62,0.68,1.0,28.21,26.27,0.0747242,0.0,19.255953125,nan,-99.59843750000002,nan,0.0,0.0,9935.9072,0.0,0.0,2606.7,0.0
1391.0,26.0,31.0,67.0,154.0,74.0,nan,-0.29,-7.8,1.11,5.23,-81.86,45.61,0.62,-0.05,-0.22,-0.32,0.22,-0.62,0.68,1.0,28.21,26.27,0.0747242,0.0,19.25594791666667,nan,-99.5984369892473,nan,0.0,0.0,9935.9072,0.0,0.0,2606.7,0.0
1414.0,27.0,31.0,52.0,126.0,102.0,nan,-0.37,-7.98,1.3,5.19,-81.85,45.61,0.27,-0.12,-0.43,-0.32,0.22,-0.62,0.68,1.0,28.21,26.27,0.0747242,0.0,19.255942708333333,nan,-99.59843647849465,nan,0.0,0.0,9935.9072,0.0,0.0,2606.7,0.0
1434.0,25.0,30.0,68.0,126.0,116.0,nan,-0.14,-7.84,1.05,5.14,-81.9,45.6,-2.25,0.3,-0.43,-0.32,0.22,-0.62,0.68,1.0,28.21,26.27,0.0747242,0.0,19.255942708333333,nan,-99.59843647849465,nan,0.0,0.0,9935.9072,0.0,0.0,0.0,0.0
1456.0,26.0,30.0,108.0,139.0,111.0,nan,-0.1,-7.99,1.22,5.09,-81.87,45.6,1.18,-0.19,-0.36,-0.32,0.22,-0.62,0.68,1.0,28.21,26.27,0.0747242,0.0,19.255937499999998,nan,-99.59843596774193,nan,0.0,0.0,9935.9072,0.0,0.0,2606.7,0.0
1476.0,27.0,30.0,68.0,137.0,120.0,nan,-0.18,-8.06,1.16,5.05,-81.89,45.6,-0.99,0.16,-0.22,-0.32,0.22,-0.62,0.68,1.0,28.21,26.27,0.0747242,0.0,19.255932291666667,nan,-99.59843545698925,nan,0.0,0.0,9935.9072,0.0,0.0,2606.7,0.0
1499.0,19.0,30.0,78.0,138.0,97.0,nan,-0.08,-7.92,1.12,5.0,-81.89,45.6,0.06,0.09,-0.29,-0.32,0.22,-0.62,0.68,1.0,28.21,26.27,0.0747242,0.0,19.255927083333336,nan,-99.59843494623657,nan,0.0,0.0,9935.9072,0.0,0.0,2606.7,0.0
1518.0,27.0,30.0,88.0,154.0,125.0,nan,-0.23,-7.94,1.21,4.96,-81.84,45.6,2.16,-0.33,-0.08,-0.32,0.22,-0.62,0.68,1.0,28.21,26.27,0.0747242,0.0,19.255921875,nan,-99.59843443548388,nan,0.0,0.0,9935.9072,0.0,0.0,2606.7,0.0
1541.0,22.0,30.0,68.0,125.0,111.0,nan,-0.33,-8.02,1.17,4.9,-81.82,45.6,0.62,-0.05,-0.08,-0.32,0.22,-0.62,0.69,1.0,28.2,26.29,0.0747257,0.0,19.255916666666664,nan,-99.5984339247312,nan,0.0,0.0,9935.9072,0.0,0.0,2606.7,0.0
1573.0,26.0,31.0,67.0,137.0,118.0,nan,-0.21,-7.89,1.3,4.86,-81.81,45.6,-0.22,-0.05,-0.36,-0.32,0.22,-0.62,0.69,1.0,28.2,26.29,0.0747257,0.0,19.255911458333333,nan,-99.59843341397848,nan,0.0,0.0,9935.9072,0.0,0.0,2606.7,0.0
1593.0,37.0,26.0,52.0,138.0,111.0,nan,-0.22,-7.91,1.1,4.82,-81.83,45.6,-0.78,0.23,-0.29,-0.32,0.22,-0.62,0.69,1.0,28.2,26.29,0.0747257,0.0,19.255911458333333,nan,-99.59843341397848,nan,0.0,0.0,9935.9072,0.0,0.0,0.0,0.0
1615.0,37.0,26.0,78.0,153.0,111.0,nan,-0.16,-7.89,1.28,4.78,-81.81,45.6,0.55,-0.12,-0.15,-0.32,0.22,-0.62,0.69,1.0,28.2,26.29,0.0747257,0.0,19.255906250000002,nan,-99.59843290322583,nan,0.0,0.0,9935.9072,0.0,0.0,2606.7,0.0
1635.0,26.0,31.0,67.0,154.0,111.0,nan,-0.32,-7.93,1.1,4.75,-81.83,45.6,-0.85,0.09,-0.29,-0.32,0.22,-0.62,0.69,1.0,28.2,26.29,0.0747257,0.0,19.255901041666668,nan,-99.59843239247311,nan,0.0,0.0,9935.9072,0.0,0.0,2606.7,0.0
1658.0,27.0,30.0,147.0,155.0,124.0,nan,-0.2,-7.82,1.06,4.71,-81.83,45.6,0.41,-0.05,-0.15,-0.32,0.22,-0.62,0.69,1.0,28.2,26.29,0.0747257,0.0,19.25589583333333,nan,-99.59843188172046,nan,0.0,0.0,9935.9072,0.0,0.0,2606.7,0.0
1677.0,32.0,30.0,88.0,137.0,125.0,nan,-0.33,-7.97,1.34,4.68,-81.77,45.6,2.02,-0.33,-0.36,-0.32,0.22,-0.61,0.69,1.0,28.2,26.29,0.0747257,0.0,19.255890625,nan,-99.59843137096775,nan,0.0,0.0,9935.9072,0.0,0.0,2606.7,0.0
1700.0,26.0,30.0,51.0,159.0,111.0,nan,-0.21,-7.87,1.15,4.64,-81.8,45.6,-1.55,0.09,-0.36,-0.32,0.23,-0.61,0.69,1.0,28.2,26.29,0.0747257,0.0,19.25588541666667,nan,-99.59843086021505,nan,0.0,0.0,9935.9072,0.0,0.0,2606.7,0.0
1719.0,26.0,30.0,108.0,139.0,125.0,nan,-0.08,-7.82,1.25,4.6,-81.78,45.61,0.69,-0.19,-0.29,-0.32,0.23,-0.61,0.69,1.0,28.2,26.29,0.0747257,0.0,19.25588541666667,nan,-99.59843086021505,nan,0.0,0.0,9935.9072,0.0,0.0,0.0,0.0
1743.0,26.0,26.0,88.0,154.0,111.0,nan,-0.04,-7.86,1.18,4.5,-81.8,45.61,-1.62,0.09,-0.71,-0.32,0.23,-0.61,0.69,1.0,28.2,26.29,0.0747257,0.0,19.255880208333334,nan,-99.59843034946238,nan,0.0,0.0,9935.9072,0.0,0.0,2606.7,0.0
1769.0,26.0,30.0,67.0,165.0,125.0,nan,0.0,-7.92,1.14,4.45,-81.8,45.61,-0.01,-0.12,-0.5,-0.32,0.23,-0.61,0.69,1.0,28.2,26.29,0.0747257,0.0,19.255874999999996,nan,-99.59842983870968,nan,0.0,0.0,9935.9072,0.0,0.0,2606.7,0.0
1792.0,30.0,24.0,53.0,150.0,81.0,nan,-0.04,-7.83,1.16,4.4,-81.79,45.61,0.2,-0.26,-0.22,-0.32,0.23,-0.61,0.69,1.0,28.2,26.29,0.0747257,0.0,19.255869791666672,nan,-99.598429327957,nan,0.0,0.0,9935.9072,0.0,0.0,2606.7,0.0
1811.0,31.0,30.0,56.0,154.0,119.0,nan,-0.09,-8.04,1.17,4.35,-81.79,45.62,0.27,-0.33,-0.43,-0.32,0.23,-0.61,0.69,1.0,28.2,26.29,0.0747257,0.0,19.255864583333334,nan,-99.59842881720431,nan,0.0,0.0,9935.9072,0.0,0.0,2606.7,0.0
1834.0,27.0,27.0,157.0,162.0,124.0,nan,-0.14,-7.92,1.21,4.31,-81.78,45.62,0.2,-0.19,-0.43,-0.32,0.23,-0.61,0.69,1.0,28.2,26.29,0.0747257,0.0,19.255859375,nan,-99.59842830645164,nan,0.0,0.0,9935.9072,0.0,0.0,2606.7,0.0
1853.0,27.0,31.0,139.0,163.0,111.0,nan,-0.03,-7.82,1.19,4.26,-81.76,45.63,0.48,-0.33,-0.5,-0.32,0.23,-0.61,0.69,1.0,28.2,26.29,0.0747257,0.0,19.255859375,nan,-99.59842830645164,nan,0.0,0.0,9935.9072,0.0,0.0,0.0,0.0
1876.0,26.0,30.0,109.0,138.0,111.0,nan,-0.09,-8.0,1.32,4.22,-81.74,45.63,0.34,-0.33,-0.29,-0.32,0.23,-0.61,0.69,1.0,28.2,26.29,0.0747257,0.0,19.25585416666667,nan,-99.59842779569894,nan,0.0,0.0,9935.9072,0.0,0.0,2606.7,0.0
1896.0,31.0,28.0,53.0,125.0,110.0,nan,-0.05,-7.92,1.18,4.17,-81.77,45.63,-1.62,-0.05,-0.57,-0.31,0.23,-0.61,0.69,1.0,28.2,26.29,0.0747257,0.0,19.25584895833334,nan,-99.59842728494623,nan,0.0,0.0,9935.9072,0.0,0.0,2606.7,0.0
1919.0,25.0,30.0,67.0,153.0,110.0,nan,0.03,-7.91,1.25,4.06,-81.76,45.65,0.13,-0.47,-0.5,-0.31,0.23,-0.61,0.69,1.0,28.2,26.29,0.0747257,0.0,19.25584375,nan,-99.59842677419357,nan,0.0,0.0,9935.9072,0.0,0.0,2606.7,0.0
1945.0,26.0,30.0,125.0,133.0,110.0,nan,0.03,-7.91,1.25,4.06,-81.76,45.65,0.0,0.0,0.0,-0.31,0.23,-0.61,0.69,1.0,28.2,26.29,0.0747257,0.0,19.255838541666666,nan,-99.59842626344086,nan,0.0,0.0,9935.9072,0.0,0.0,2606.7,0.0
1962.0,27.0,31.0,77.0,140.0,125.0,nan,0.18,-7.83,1.2,3.93,-81.76,45.66,-0.15,-0.4,-0.43,-0.31,0.23,-0.61,0.69,1.0,28.2,26.29,0.0747257,0.0,19.255833333333335,nan,-99.5984257526882,nan,0.0,0.0,9935.9072,0.0,0.0,2606.7,0.0
1987.0,27.0,31.0,77.0,138.0,110.0,nan,0.24,-7.87,1.25,3.86,-81.74,45.67,0.41,-0.54,-0.78,-0.31,0.23,-0.61,0.69,1.0,28.2,26.29,0.0747257,0.0,19.255828125000004,nan,-99.59842524193549,nan,0.0,0.0,9935.9072,0.0,0.0,2606.7,0.0
2010.0,26.0,20.0,77.0,139.0,97.0,nan,0.37,-7.87,1.26,3.77,-81.74,45.68,-0.57,-0.54,-0.99,-0.31,0.23,-0.61,0.69,1.0,28.2,26.32,0.07471,0.0,19.255828125000004,nan,-99.59842524193549,nan,0.0,0.0,9935.9072,0.0,0.0,0.0,0.0
2032.0,29.0,30.0,67.0,117.0,109.0,nan,0.44,-7.94,1.25,3.69,-81.75,45.68,-0.78,-0.54,-0.92,-0.31,0.23,-0.61,0.69,1.0,28.2,26.32,0.07471,0.0,19.255822916666666,nan,-99.59842473118277,nan,0.0,0.0,9935.9072,0.0,0.0,2606.7,0.0
2055.0,17.0,30.0,68.0,124.0,74.0,nan,0.46,-7.9,1.16,3.6,-81.76,45.7,-0.64,-0.75,-0.85,-0.31,0.23,-0.61,0.69,1.0,28.2,26.32,0.07471,0.0,19.255817708333332,nan,-99.59842422043012,nan,0.0,0.0,9935.9072,0.0,0.0,2606.7,0.0
2074.0,17.0,31.0,56.0,144.0,102.0,nan,0.51,-7.99,1.23,3.5,-81.74,45.71,0.69,-0.96,-0.92,-0.31,0.23,-0.61,0.69,1.0,28.2,26.32,0.07471,0.0,19.2558125,nan,-99.5984237096774,nan,0.0,0.0,9935.9072,0.0,0.0,2606.7,0.0
2097.0,26.0,31.0,124.0,155.0,111.0,nan,0.51,-7.84,1.25,3.41,-81.73,45.73,0.13,-0.89,-0.99,-0.31,0.23,-0.61,0.69,1.0,28.2,26.32,0.07471,0.0,19.25580729166667,nan,-99.59842319892475,nan,0.0,0.0,9935.9072,0.0,0.0,2606.7,0.0
2117.0,26.0,26.0,108.0,125.0,124.0,nan,0.48,-8.02,1.24,3.32,-81.74,45.74,-0.64,-0.75,-0.92,-0.31,0.23,-0.61,0.69,1.0,28.2,26.32,0.07471,0.0,19.255802083333332,nan,-99.59842268817204,nan,0.0,0.0,9935.9072,0.0,0.0,2606.7,0.0
2139.0,27.0,30.0,77.0,140.0,112.0,nan,0.49,-8.1,1.22,3.15,-81.73,45.77,-0.36,-0.96,-0.85,-0.31,0.24,-0.61,0.69,1.0,28.2,26.32,0.07471,0.0,19.255796875000005,nan,-99.59842217741938,nan,0.0,0.0,9935.9072,0.0,0.0,2606.7,0.0
2166.0,32.0,18.0,68.0,139.0,111.0,nan,0.54,-8.11,1.28,3.07,-81.72,45.79,0.06,-1.1,-0.71,-0.31,0.24,-0.61,0.69,1.0,28.2,26.32,0.07471,0.0,19.25579153846154,nan,-99.59842161290324,nan,0.0,0.0,9935.9053,1.0,1.0,2606.7,0.0
2188.0,27.0,30.0,52.0,140.0,111.0,nan,0.58,-8.03,1.28,2.98,-81.71,45.82,0.13,-1.17,-0.64,-0.31,0.24,-0.61,0.69,1.0,28.2,26.32,0.07471,0.0,19.25579153846154,nan,-99.59842161290324,nan,0.0,0.0,9935.9053,0.0,0.0,0.0,0.0
2208.0,26.0,30.0,108.0,138.0,108.0,nan,0.67,-7.92,1.21,2.89,-81.73,45.83,-1.13,-1.03,-0.57,-0.31,0.24,-0.61,0.69,1.0,28.2,26.32,0.07471,0.0,19.255791410256414,nan,-99.5984215591398,nan,0.0,0.0,9935.9053,0.0,0.0,2606.7,0.0
2231.0,26.0,30.0,72.0,134.0,97.0,nan,0.66,-7.97,1.3,2.8,-81.71,45.86,0.34,-1.31,-0.5,-0.31,0.24,-0.61,0.69,1.0,28.2,26.32,0.07471,0.0,19.25579128205128,nan,-99.59842150537634,nan,0.0,0.0,9935.9053,0.0,0.0,2606.7,0.0
2250.0,27.0,30.0,40.0,154.0,125.0,nan,0.65,-8.03,1.38,2.71,-81.7,45.88,-0.22,-1.24,-0.64,-0.31,0.24,-0.61,0.69,1.0,28.2,26.32,0.07471,0.0,19.255791153846154,nan,-99.59842145161294,nan,0.0,0.0,9935.9053,0.0,0.0,2606.7,0.0
2274.0,29.0,21.0,120.0,138.0,111.0,nan,0.69,-7.99,1.29,2.62,-81.71,45.9,-0.92,-1.17,-0.57,-0.31,0.24,-0.61,0.69,1.0,28.2,26.32,0.07471,0.0,19.255791025641027,nan,-99.59842139784948,nan,0.0,0.0,9935.9053,0.0,0.0,2606.7,0.0
2293.0,18.0,31.0,52.0,137.0,125.0,nan,0.7,-7.97,1.26,2.53,-81.7,45.93,-0.01,-1.31,-0.5,-0.31,0.24,-0.61,0.69,1.0,28.2,26.32,0.07471,0.0,19.255791025641027,nan,-99.59842139784948,nan,0.0,0.0,9935.9053,0.0,0.0,0.0,0.0
2316.0,21.0,31.0,108.0,137.0,110.0,nan,0.7,-8.04,1.24,2.44,-81.7,45.96,-0.29,-1.38,-0.36,-0.31,0.24,-0.61,0.69,1.0,28.2,26.32,0.07471,0.0,19.2557908974359,nan,-99.59842134408602,nan,0.0,0.0,9935.9053,0.0,0.0,2606.7,0.0
2335.0,30.0,21.0,82.0,154.0,111.0,nan,0.66,-8.03,1.2,2.36,-81.72,45.98,-0.85,-1.31,-0.29,-0.31,0.24,-0.61,0.69,1.0,28.2,26.32,0.07471,0.0,19.25579076923077,nan,-99.59842129032259,nan,0.0,0.0,9935.9053,0.0,0.0,2608.9,0.0
2358.0,26.0,30.0,98.0,155.0,110.0,nan,0.57,-8.03,1.26,2.22,-81.69,46.04,0.62,-1.66,0.06,-0.31,0.24,-0.61,0.69,1.0,28.2,26.32,0.07471,0.0,19.255790641025644,nan,-99.59842123655915,nan,0.0,0.0,9935.9053,0.0,0.0,2608.9,0.0
2384.0,30.0,21.0,125.0,154.0,110.0,nan,0.54,-7.95,1.17,2.16,-81.71,46.07,-1.13,-1.52,0.06,-0.31,0.24,-0.61,0.69,1.0,28.2,26.32,0.07471,0.0,19.255790512820518,nan,-99.59842118279569,nan,0.0,0.0,9935.9053,0.0,0.0,2608.9,0.0
2407.0,27.0,31.0,88.0,139.0,110.0,nan,0.63,-7.96,1.22,2.09,-81.7,46.11,0.41,-1.94,-0.01,-0.31,0.24,-0.61,0.69,1.0,28.2,26.32,0.07471,0.0,19.255790384615384,nan,-99.59842112903226,nan,0.0,0.0,9935.9053,0.0,0.0,2608.9,0.0
2427.0,26.0,30.0,77.0,154.0,111.0,nan,0.63,-7.91,1.25,2.02,-81.71,46.15,-1.06,-1.73,0.2,-0.31,0.24,-0.61,0.69,1.0,28.2,26.32,0.07471,0.0,19.255790256410258,nan,-99.59842107526883,nan,0.0,0.0,9935.9053,0.0,0.0,2608.9,0.0
2450.0,26.0,30.0,77.0,138.0,76.0,nan,0.63,-7.84,1.23,1.96,-81.7,46.19,0.27,-1.94,0.41,-0.31,0.24,-0.61,0.69,1.0,28.2,26.32,0.07471,0.0,19.255790256410258,nan,-99.59842107526883,nan,0.0,0.0,9935.9053,0.0,0.0,0.0,0.0
2469.0,19.0,19.0,67.0,130.0,101.0,nan,0.63,-7.88,1.29,1.89,-81.66,46.23,1.6,-2.36,0.13,-0.31,0.25,-0.61,0.69,1.0,28.2,26.34,0.0747249,0.0,19.25579012820513,nan,-99.5984210215054,nan,0.0,0.0,9935.9053,0.0,0.0,2608.9,0.0
2494.0,31.0,30.0,72.0,133.0,111.0,nan,0.65,-7.9,1.3,1.82,-81.64,46.28,0.13,-2.15,-0.01,-0.31,0.25,-0.61,0.69,1.0,28.2,26.34,0.0747249,0.0,19.255790000000005,nan,-99.59842096774194,nan,0.0,0.0,9935.9053,0.0,0.0,2608.9,0.0
2514.0,26.0,30.0,40.0,155.0,111.0,nan,0.59,-7.81,1.27,1.75,-81.63,46.32,0.34,-2.22,0.2,-0.31,0.25,-0.61,0.69,1.0,28.2,26.34,0.0747249,0.0,19.25578987179487,nan,-99.5984209139785,nan,0.0,0.0,9935.9053,0.0,0.0,2608.9,0.0
2536.0,32.0,28.0,72.0,138.0,112.0,nan,0.49,-8.03,1.4,1.64,-81.57,46.43,1.53,-2.85,0.06,-0.31,0.25,-0.6,0.69,1.0,28.2,26.34,0.0747249,0.0,19.255789743589744,nan,-99.59842086021507,nan,0.0,0.0,9935.9053,0.0,0.0,2608.9,0.0
2563.0,27.0,26.0,63.0,134.0,112.0,nan,0.47,-8.03,1.31,1.58,-81.6,46.47,-1.97,-2.36,-0.15,-0.31,0.25,-0.6,0.69,1.0,28.2,26.34,0.0747249,0.0,19.255789615384618,nan,-99.59842080645161,nan,0.0,0.0,9935.9053,0.0,0.0,2608.9,0.0
2586.0,37.0,30.0,40.0,136.0,112.0,nan,0.44,-8.03,1.16,1.53,-81.61,46.53,-0.85,-2.71,0.2,-0.31,0.25,-0.6,0.69,1.0,28.2,26.34,0.0747249,0.0,19.25578948717949,nan,-99.59842075268818,nan,0.0,0.0,9935.9053,0.0,0.0,2608.9,0.0
2605.0,27.0,30.0,136.0,155.0,125.0,nan,0.35,-8.03,1.3,1.49,-81.59,46.59,0.69,-3.06,0.41,-0.31,0.25,-0.6,0.69,1.0,28.2,26.34,0.0747249,0.0,19.25578948717949,nan,-99.59842075268818,nan,0.0,0.0,9935.9053,0.0,0.0,0.0,0.0
2628.0,30.0,28.0,157.0,154.0,104.0,nan,0.46,-7.89,1.27,1.44,-81.56,46.65,0.97,-3.06,0.34,-0.31,0.25,-0.6,0.69,1.0,28.2,26.34,0.0747249,0.0,19.25578935897436,nan,-99.59842069892476,nan,0.0,0.0,9935.9053,0.0,0.0,2608.9,0.0
2648.0,22.0,31.0,78.0,137.0,126.0,nan,0.34,-8.01,1.45,1.4,-81.51,46.72,1.74,-3.34,0.55,-0.31,0.25,-0.6,0.69,1.0,28.2,26.34,0.0747249,0.0,19.255789230769235,nan,-99.5984206451613,nan,0.0,0.0,9935.9053,0.0,0.0,2608.9,0.0
2670.0,27.0,26.0,147.0,155.0,111.0,nan,0.47,-7.94,1.4,1.35,-81.51,46.78,-1.2,-2.92,0.48,-0.31,0.25,-0.6,0.69,1.0,28.2,26.34,0.0747249,0.0,19.2557891025641,nan,-99.59842059139785,nan,0.0,0.0,9935.9053,0.0,0.0,2608.9,0.0
2690.0,26.0,30.0,88.0,139.0,110.0,nan,0.51,-7.97,1.39,1.31,-81.48,46.85,0.76,-3.41,0.69,-0.31,0.25,-0.6,0.69,1.0,28.2,26.34,0.0747249,0.0,19.255788974358975,nan,-99.59842053763442,nan,0.0,0.0,9935.9053,0.0,0.0,2608.9,0.0
2712.0,27.0,27.0,125.0,154.0,112.0,nan,0.44,-8.04,1.47,1.27,-81.47,46.92,-0.57,-3.27,0.62,-0.31,0.25,-0.6,0.69,1.0,28.2,26.34,0.0747249,0.0,19.255788974358975,nan,-99.59842053763442,nan,0.0,0.0,9935.9053,0.0,0.0,0.0,0.0
2733.0,21.0,30.0,87.0,139.0,111.0,nan,0.42,-8.01,1.46,1.23,-81.48,46.98,-1.2,-3.2,0.62,-0.31,0.25,-0.6,0.69,1.0,28.2,26.34,0.0747249,0.0,19.25578884615384,nan,-99.59842048387097,nan,0.0,0.0,9935.9053,0.0,0.0,2608.9,0.0
2755.0,27.0,30.0,67.0,133.0,111.0,nan,0.36,-7.96,1.48,1.16,-81.47,47.13,-0.78,-3.62,1.04,-0.31,0.25,-0.6,0.69,1.0,28.2,26.34,0.0747249,0.0,19.255788717948715,nan,-99.59842043010751,nan,0.0,0.0,9935.9053,0.0,0.0,2608.9,0.0
2782.0,26.0,30.0,88.0,139.0,110.0,nan,0.36,-7.98,1.57,1.14,-81.47,47.2,-1.48,-3.55,0.97,-0.31,0.25,-0.6,0.69,1.0,28.2,26.34,0.0747249,0.0,19.255788589743588,nan,-99.59842037634411,nan,0.0,0.0,9935.9053,0.0,0.0,2608.9,0.0
2805.0,27.0,30.0,78.0,139.0,110.0,nan,0.18,-8.04,1.41,1.12,-81.53,47.27,-3.58,-3.34,0.76,-0.31,0.25,-0.6,0.69,1.0,28.2,26.34,0.0747249,0.0,19.25578846153846,nan,-99.59842032258065,nan,0.0,0.0,9935.9053,0.0,0.0,2608.9,0.0
2826.0,31.0,30.0,87.0,125.0,110.0,nan,0.19,-8.07,1.3,1.1,-81.55,47.35,-1.76,-3.97,0.76,-0.31,0.26,-0.6,0.69,1.0,28.2,26.34,0.0747249,0.0,19.25578833333333,nan,-99.59842026881722,nan,0.0,0.0,9935.9053,0.0,0.0,2608.9,0.0
2847.0,17.0,30.0,108.0,139.0,75.0,nan,0.13,-7.93,1.31,1.09,-81.6,47.43,-3.16,-3.69,1.04,-0.31,0.26,-0.6,0.69,1.0,28.2,26.34,0.0747249,0.0,19.255788205128205,nan,-99.59842021505378,nan,0.0,0.0,9935.9053,0.0,0.0,2608.9,0.0
2866.0,16.0,29.0,107.0,139.0,90.0,nan,0.19,-7.77,1.21,1.07,-81.64,47.51,-2.18,-3.83,1.18,-0.31,0.26,-0.6,0.69,1.0,28.2,26.34,0.0747249,0.0,19.255788205128205,nan,-99.59842021505378,nan,0.0,0.0,9935.9053,0.0,0.0,0.0,0.0
2889.0,27.0,31.0,78.0,140.0,110.0,nan,0.09,-7.88,1.21,1.06,-81.66,47.59,-1.27,-4.04,0.83,-0.31,0.26,-0.6,0.69,1.0,28.2,26.34,0.0747249,0.0,19.25578807692308,nan,-99.59842016129032,nan,0.0,0.0,9935.9053,0.0,0.0,2608.9,0.0
2909.0,26.0,31.0,88.0,139.0,110.0,nan,0.16,-7.86,1.12,1.03,-81.72,47.67,-2.81,-3.83,0.34,-0.31,0.26,-0.6,0.69,1.0,28.2,26.34,0.0747249,0.0,19.255787948717952,nan,-99.59842010752689,nan,0.0,0.0,9935.9053,0.0,0.0,2608.9,0.0
2932.0,26.0,26.0,82.0,154.0,112.0,nan,0.32,-7.7,1.05,0.98,-81.76,47.83,0.2,-4.18,0.9,-0.31,0.26,-0.6,0.69,1.0,28.21,26.25,0.0747216,0.0,19.25578782051282,nan,-99.59842005376343,nan,0.0,0.0,9935.9053,0.0,0.0,2608.9,0.0
2963.0,38.0,31.0,136.0,134.0,76.0,nan,0.37,-7.86,1.3,0.94,-81.73,47.92,0.9,-4.46,0.48,-0.31,0.26,-0.6,0.69,1.0,28.21,26.25,0.0747216,0.0,19.255787692307692,nan,-99.59842000000003,nan,0.0,0.0,9935.9053,0.0,0.0,2608.9,0.0
2983.0,17.0,30.0,157.0,124.0,101.0,nan,0.36,-7.56,1.19,0.9,-81.77,47.99,-2.39,-3.69,0.27,-0.31,0.26,-0.6,0.69,1.0,28.21,26.25,0.0747216,0.0,19.255787564102565,nan,-99.59841994623658,nan,0.0,0.0,9935.9053,0.0,0.0,2608.9,0.0
3006.0,26.0,30.0,150.0,154.0,98.0,nan,0.2,-7.75,1.11,0.86,-81.81,48.07,-1.83,-3.9,-0.01,-0.31,0.26,-0.6,0.69,1.0,28.21,26.25,0.0747216,0.0,19.25578743589743,nan,-99.59841989247313,nan,0.0,0.0,9935.9053,0.0,0.0,2608.9,0.0
3026.0,27.0,31.0,87.0,137.0,111.0,nan,0.19,-8.11,1.21,0.83,-81.84,48.15,-1.62,-3.9,0.13,-0.31,0.26,-0.6,0.69,1.0,28.21,26.25,0.0747216,0.0,19.255787307692305,nan,-99.59841983870967,nan,0.0,0.0,9935.9053,0.0,0.0,2608.9,0.0
3048.0,26.0,30.0,78.0,137.0,110.0,nan,0.21,-8.24,1.07,0.81,-81.89,48.22,-2.32,-3.69,0.76,-0.31,0.26,-0.6,0.69,1.0,28.21,26.25,0.0747216,0.0,19.255787307692305,nan,-99.59841983870967,nan,0.0,0.0,9935.9053,0.0,0.0,0.0,0.0
3068.0,27.0,30.0,88.0,140.0,109.0,nan,0.26,-8.11,1.09,0.8,-81.89,48.31,0.2,-4.11,1.11,-0.31,0.26,-0.6,0.69,1.0,28.21,26.25,0.0747216,0.0,19.25578717948718,nan,-99.59841978494624,nan,0.0,0.0,9935.9053,0.0,0.0,2608.9,0.0
3090.0,31.0,31.0,67.0,139.0,104.0,nan,0.42,-7.66,1.25,0.75,-81.83,48.48,0.34,-4.04,1.11,-0.31,0.26,-0.6,0.69,1.0,28.21,26.25,0.0747216,0.0,19.255787051282052,nan,-99.59841973118279,nan,0.0,0.0,9935.9053,0.0,0.0,2608.9,0.0
3117.0,28.0,30.0,51.0,124.0,109.0,nan,0.42,-7.66,1.25,0.75,-81.83,48.48,0.0,0.0,0.0,-0.31,0.26,-0.6,0.69,1.0,28.21,26.25,0.0747216,0.0,19.255786923076922,nan,-99.59841967741934,nan,0.0,0.0,9935.9053,0.0,0.0,2608.9,0.0
3134.0,18.0,30.0,108.0,156.0,111.0,nan,0.15,-8.14,0.95,0.74,-81.92,48.63,-2.88,-3.62,0.9,-0.31,0.27,-0.6,0.69,1.0,28.21,26.25,0.0747216,0.0,19.255786794871796,nan,-99.59841962365593,nan,0.0,0.0,9935.9053,0.0,0.0,2608.9,0.0
3159.0,27.0,31.0,89.0,138.0,112.0,nan,0.17,-8.24,1.03,0.73,-81.91,48.72,0.83,-4.11,1.39,-0.32,0.27,-0.6,0.69,1.0,28.21,26.25,0.0747216,0.0,19.2557865,nan,-99.59841956989249,nan,0.0,0.0,9935.9053,1.0,0.0,2608.9,0.0
3182.0,24.0,26.0,87.0,138.0,111.0,nan,0.21,-7.8,1.02,0.73,-81.9,48.8,1.04,-3.83,1.6,-0.32,0.27,-0.6,0.69,1.0,28.21,26.25,0.0747216,0.0,19.255786333333337,nan,-99.59841951612906,nan,0.0,0.0,9935.9053,0.0,0.0,2608.9,0.0
3201.0,24.0,31.0,56.0,134.0,82.0,nan,0.19,-7.9,1.32,0.74,-81.8,48.89,3.98,-4.25,1.81,-0.32,0.27,-0.6,0.69,1.0,28.21,26.25,0.0747216,0.0,19.255786333333337,nan,-99.59841951612906,nan,0.0,0.0,9935.9053,0.0,0.0,0.0,0.0
3224.0,27.0,31.0,125.0,155.0,112.0,nan,0.28,-7.74,1.46,0.72,-81.75,48.97,1.39,-3.76,1.18,-0.32,0.27,-0.6,0.69,1.0,28.21,26.25,0.0747216,0.0,19.255786166666667,nan,-99.5984194623656,nan,0.0,0.0,9935.9053,0.0,0.0,2608.9,0.0
3244.0,25.0,29.0,87.0,124.0,110.0,nan,0.23,-7.87,1.45,0.71,-81.72,49.04,0.13,-3.55,1.32,-0.32,0.27,-0.6,0.69,1.0,28.21,26.25,0.0747216,0.0,19.255786,nan,-99.59841940860214,nan,0.0,0.0,9935.9053,0.0,0.0,2608.9,0.0
3266.0,28.0,30.0,77.0,159.0,117.0,nan,-0.04,-8.04,1.45,0.71,-81.73,49.11,-1.06,-3.62,0.69,-0.32,0.27,-0.6,0.69,1.0,28.21,26.25,0.0747216,0.0,19.255785833333338,nan,-99.59841935483871,nan,0.0,0.0,9935.9053,0.0,0.0,2608.9,0.0
3287.0,25.0,30.0,108.0,134.0,75.0,nan,-0.36,-8.3,1.11,0.73,-81.83,49.18,-4.84,-3.27,0.69,-0.32,0.27,-0.6,0.69,1.0,28.21,26.25,0.0747216,0.0,19.25578566666666,nan,-99.59841930107528,nan,0.0,0.0,9935.9053,0.0,0.0,2608.9,0.0
3309.0,17.0,30.0,77.0,137.0,97.0,nan,-0.62,-7.95,0.27,0.8,-82.09,49.3,-0.78,-3.06,0.55,-0.32,0.27,-0.6,0.68,1.0,28.21,26.25,0.0747216,0.0,19.255785499999998,nan,-99.59841924731185,nan,0.0,0.0,9935.9053,0.0,0.0,2608.9,0.0
3336.0,17.0,29.0,77.0,154.0,117.0,nan,-0.62,-7.95,0.27,0.8,-82.09,49.3,0.0,0.0,0.0,-0.32,0.27,-0.6,0.68,1.0,28.21,26.25,0.0747216,0.0,19.255785499999998,nan,-99.59841924731185,nan,0.0,0.0,9935.9053,0.0,0.0,0.0,0.0
3353.0,26.0,30.0,119.0,135.0,111.0,nan,-0.96,-7.93,0.77,0.88,-81.69,49.48,17.91,-5.3,-0.36,-0.32,0.27,-0.6,0.68,1.0,28.21,26.25,0.0747216,0.0,19.255785333333332,nan,-99.59841919354841,nan,0.0,0.0,9935.9053,0.0,0.0,2608.9,0.0
3378.0,37.0,26.0,147.0,148.0,110.0,nan,-1.31,-8.28,1.57,0.92,-81.34,49.56,16.23,-4.67,-1.69,-0.32,0.27,-0.59,0.69,1.0,28.21,26.25,0.0747216,0.0,19.25578516666667,nan,-99.59841913978495,nan,0.0,0.0,9935.9053,0.0,0.0,2608.9,0.0
3401.0,27.0,26.0,89.0,154.0,110.0,nan,-1.26,-8.16,1.87,0.91,-81.19,49.62,5.17,-3.34,-3.44,-0.32,0.27,-0.59,0.69,1.0,28.22,26.35,0.0747249,0.0,19.255785,nan,-99.59841908602152,nan,0.0,0.0,9935.9053,0.0,0.0,2608.9,0.0
3423.0,38.0,30.0,77.0,143.0,109.0,nan,-1.4,-8.18,1.59,0.9,-81.13,49.68,2.16,-3.48,-4.35,-0.32,0.27,-0.59,0.69,1.0,28.22,26.35,0.0747249,0.0,19.25578483333333,nan,-99.59841903225806,nan,0.0,0.0,9935.9053,0.0,0.0,2608.9,0.0
3446.0,27.0,27.0,88.0,140.0,111.0,nan,-1.63,-8.18,1.05,0.89,-81.06,49.73,3.98,-3.76,-5.47,-0.32,0.27,-0.59,0.69,1.0,28.22,26.35,0.0747249,0.0,19.255784666666667,nan,-99.59841897849462,nan,0.0,0.0,9935.9053,0.0,0.0,2608.9,0.0
3465.0,26.0,26.0,66.0,137.0,125.0,nan,-1.75,-7.81,1.26,0.86,-80.82,49.8,12.17,-4.18,-6.38,-0.32,0.27,-0.59,0.69,1.0,28.22,26.35,0.0747249,0.0,19.255784666666667,nan,-99.59841897849462,nan,0.0,0.0,9935.9053,0.0,0.0,0.0,0.0
3488.0,18.0,31.0,68.0,154.0,109.0,nan,-1.83,-7.94,2.93,0.72,-80.25,49.9,6.5,-4.04,-9.67,-0.33,0.27,-0.59,0.69,1.0,28.22,26.35,0.0747249,0.0,19.2557845,nan,-99.5984189247312,nan,0.0,0.0,9935.9053,0.0,0.0,2608.9,0.0
3515.0,27.0,32.0,88.0,138.0,110.0,nan,-1.83,-7.94,2.93,0.72,-80.25,49.9,0.0,0.0,0.0,-0.33,0.27,-0.59,0.69,1.0,28.22,26.35,0.0747249,0.0,19.255784333333338,nan,-99.59841887096776,nan,0.0,0.0,9935.9053,0.0,0.0,2608.9,0.0
3532.0,26.0,31.0,77.0,125.0,111.0,nan,-1.13,-7.63,2.4,0.46,-80.3,49.96,-5.75,-2.92,-10.16,-0.33,0.27,-0.59,0.69,1.0,28.22,26.35,0.0747249,0.0,19.25578416666666,nan,-99.5984188172043,nan,0.0,0.0,9935.9053,0.0,0.0,2608.9,0.0
3557.0,37.0,30.0,77.0,139.0,111.0,nan,-0.89,-7.84,2.7,0.3,-80.49,49.95,-14.01,-1.52,-10.72,-0.32,0.27,-0.59,0.69,1.0,28.22,26.35,0.0747249,0.0,19.255784,nan,-99.59841876344088,nan,0.0,0.0,9935.9053,0.0,0.0,2608.9,0.0
3580.0,20.0,32.0,52.0,138.0,109.0,nan,-0.44,-7.52,1.83,0.1,-81.03,49.91,-29.13,0.09,-11.98,-0.32,0.27,-0.59,0.69,1.0,28.22,26.35,0.0747249,0.0,19.255783833333332,nan,-99.59841870967742,nan,0.0,0.0,9935.9053,0.0,0.0,2608.9,0.0
3599.0,27.0,32.0,56.0,155.0,111.0,nan,2.49,-7.65,0.88,-0.32,-81.56,49.9,-25.42,-1.38,-11.77,-0.32,0.28,-0.59,0.69,1.0,28.22,26.35,0.0747249,0.0,19.25578366666667,nan,-99.59841865591397,nan,0.0,0.0,9935.9053,0.0,0.0,2608.9,0.0
3622.0,29.0,31.0,60.0,139.0,111.0,nan,3.21,-8.51,0.67,-0.7,-81.81,49.94,-10.3,-2.92,-8.83,-0.32,0.28,-0.59,0.69,1.0,28.22,26.35,0.0747249,0.0,19.25578366666667,nan,-99.59841865591397,nan,0.0,0.0,9935.9053,0.0,0.0,0.0,0.0
3641.0,27.0,31.0,125.0,146.0,111.0,nan,3.15,-7.97,0.66,-1.06,-81.93,49.98,-4.7,-3.06,-7.36,-0.31,0.28,-0.59,0.69,1.0,28.22,26.35,0.0747249,0.0,19.2557835,nan,-99.59841860215055,nan,0.0,0.0,9935.9053,0.0,0.0,2608.9,0.0
3664.0,20.0,31.0,78.0,133.0,125.0,nan,1.07,-7.24,0.34,-1.24,-81.94,50.03,2.58,-3.27,-5.19,-0.31,0.28,-0.59,0.69,1.0,28.22,26.35,0.0747249,0.0,19.25578333333333,nan,-99.59841854838712,nan,0.0,0.0,9935.9053,0.0,0.0,2608.9,0.0
3684.0,26.0,30.0,77.0,161.0,104.0,nan,-0.15,-7.32,0.7,-1.31,-81.88,50.06,4.05,-2.43,-4.14,-0.31,0.29,-0.59,0.69,1.0,28.22,26.35,0.0747249,0.0,19.255783166666667,nan,-99.59841849462369,nan,0.0,0.0,9935.9053,0.0,0.0,2608.9,0.0
3707.0,17.0,31.0,79.0,139.0,75.0,nan,-0.73,-8.05,2.12,-1.25,-81.66,50.14,2.58,-2.43,-2.04,-0.31,0.28,-0.59,0.69,1.0,28.22,26.35,0.0747249,0.0,19.255783,nan,-99.59841844086023,nan,0.0,0.0,9935.9053,0.0,0.0,2608.9,0.0
3733.0,17.0,30.0,78.0,139.0,102.0,nan,-0.73,-8.05,2.12,-1.25,-81.66,50.14,0.0,0.0,0.0,-0.31,0.28,-0.59,0.69,1.0,28.22,26.35,0.0747249,0.0,19.25578283333334,nan,-99.59841838709677,nan,0.0,0.0,9935.9053,0.0,0.0,2608.9,0.0
3751.0,27.0,31.0,77.0,152.0,125.0,nan,1.92,-7.89,1.16,-1.48,-82.25,50.14,-26.19,1.14,-1.34,-0.31,0.29,-0.59,0.69,1.0,28.22,26.35,0.0747249,0.0,19.25578266666667,nan,-99.59841833333334,nan,0.0,0.0,9935.9053,0.0,0.0,2608.9,0.0
3775.0,30.0,29.0,135.0,155.0,76.0,nan,2.44,-7.3,-0.17,-1.64,-82.8,50.12,-23.32,1.0,0.13,-0.31,0.29,-0.59,0.68,1.0,28.22,26.35,0.0747249,0.0,19.25578266666667,nan,-99.59841833333334,nan,0.0,0.0,9935.9053,0.0,0.0,0.0,0.0
3798.0,21.0,26.0,40.0,153.0,102.0,nan,1.6,-7.51,-0.91,-1.71,-83.03,50.15,-4.35,-0.82,2.02,-0.31,0.29,-0.6,0.68,1.0,28.22,26.35,0.0747249,0.0,19.2557825,nan,-99.5984182795699,nan,0.0,0.0,9935.9053,0.0,0.0,2608.9,0.0
3818.0,37.0,25.0,108.0,138.0,110.0,nan,0.46,-8.04,-0.73,-1.65,-83.01,50.18,6.85,-1.1,3.63,-0.31,0.29,-0.6,0.68,1.0,28.22,26.35,0.0747249,0.0,19.255782333333332,nan,-99.59841822580644,nan,0.0,0.0,9935.9053,0.0,0.0,2608.9,0.0
3840.0,26.0,30.0,77.0,139.0,110.0,nan,-0.32,-8.23,-0.22,-1.52,-82.94,50.19,7.83,0.37,4.89,-0.31,0.29,-0.6,0.68,1.0,28.22,26.35,0.0747249,0.0,19.25578216666667,nan,-99.59841817204304,nan,0.0,0.0,9935.9053,0.0,0.0,2608.9,0.0
3860.0,36.0,25.0,89.0,138.0,75.0,nan,-0.4,-8.32,0.58,-1.36,-82.69,50.21,13.99,-0.26,5.66,-0.31,0.29,-0.59,0.68,1.0,28.2,26.32,0.0747257,0.0,19.255782,nan,-99.59841811827958,nan,0.0,0.0,9935.9053,0.0,0.0,2608.9,0.0
3885.0,22.0,27.0,89.0,139.0,102.0,nan,0.12,-8.23,1.87,-1.25,-82.34,50.24,14.69,-0.89,5.45,-0.31,0.29,-0.59,0.68,1.0,28.2,26.32,0.0747257,0.0,19.25578183333333,nan,-99.59841806451612,nan,0.0,0.0,9935.9053,0.0,0.0,2608.9,0.0
3905.0,28.0,37.0,66.0,161.0,125.0,nan,0.79,-8.25,2.36,-1.21,-82.22,50.25,2.09,-0.12,4.12,-0.31,0.29,-0.59,0.69,1.0,28.2,26.32,0.0747257,0.0,19.25578183333333,nan,-99.59841806451612,nan,0.0,0.0,9935.9053,0.0,0.0,0.0,0.0
3927.0,26.0,30.0,77.0,138.0,110.0,nan,0.85,-7.43,-0.08,-1.2,-82.87,50.2,-14.01,1.7,3.21,-0.31,0.29,-0.6,0.68,1.0,28.2,26.32,0.0747257,0.0,19.255781666666667,nan,-99.5984180107527,nan,0.0,0.0,9935.9053,0.0,0.0,2608.9,0.0
3954.0,38.0,31.0,68.0,139.0,111.0,nan,0.24,-7.87,-0.43,-1.14,-82.98,50.2,-0.08,0.37,3.28,-0.31,0.29,-0.6,0.68,1.0,28.2,26.32,0.0747257,0.0,19.2557815,nan,-99.59841795698925,nan,0.0,0.0,9935.9053,0.0,0.0,2608.9,0.0
3977.0,27.0,30.0,77.0,159.0,123.0,nan,-0.17,-8.02,-0.1,-1.04,-82.84,50.21,10.56,-0.12,3.91,-0.31,0.29,-0.6,0.68,1.0,28.2,26.32,0.0747257,0.0,19.25578133333334,nan,-99.5984179032258,nan,0.0,0.0,9935.9053,0.0,0.0,2608.9,0.0
3996.0,26.0,29.0,108.0,133.0,119.0,nan,-0.13,-8.16,0.98,-0.93,-82.45,50.25,19.8,-1.38,4.68,-0.31,0.29,-0.59,0.68,1.0,28.2,26.32,0.0747257,0.0,19.25578116666667,nan,-99.5984178494624,nan,0.0,0.0,9935.9053,0.0,0.0,2608.9,0.0
4019.0,18.0,30.0,120.0,135.0,118.0,nan,0.07,-8.18,2.3,-0.85,-82.03,50.29,16.86,-1.38,3.98,-0.32,0.28,-0.59,0.69,1.0,28.2,26.32,0.0747257,0.0,19.255781,nan,-99.59841779569894,nan,0.0,0.0,9935.9053,0.0,0.0,2608.9,0.0
4039.0,26.0,31.0,98.0,139.0,111.0,nan,0.54,-8.1,2.71,-0.84,-81.86,50.3,3.14,-0.33,1.88,-0.32,0.28,-0.59,0.69,1.0,28.2,26.32,0.0747257,0.0,19.255780833333333,nan,-99.5984177419355,nan,0.0,0.0,9935.9053,0.0,0.0,2608.9,0.0
4061.0,26.0,31.0,66.0,139.0,97.0,nan,0.8,-8.06,2.16,-0.86,-82.01,50.28,-10.79,0.93,1.11,-0.32,0.28,-0.59,0.69,1.0,28.2,26.32,0.0747257,0.0,19.255780833333333,nan,-99.5984177419355,nan,0.0,0.0,9935.9053,0.0,0.0,0.0,0.0
4081.0,38.0,27.0,78.0,154.0,125.0,nan,0.95,-7.57,1.03,-0.9,-82.28,50.27,-13.31,1.14,1.39,-0.32,0.28,-0.59,0.68,1.0,28.2,26.32,0.0747257,0.0,19.25578066666667,nan,-99.59841768817205,nan,0.0,0.0,9935.9053,0.0,0.0,2608.9,0.0
4104.0,22.0,29.0,53.0,137.0,98.0,nan,0.85,-7.61,0.69,-0.88,-82.37,50.28,3.07,0.23,4.26,-0.32,0.28,-0.59,0.68,1.0,28.2,26.32,0.0747257,0.0,19.2557805,nan,-99.5984176344086,nan,0.0,0.0,9935.9053,0.0,0.0,2608.9,0.0
4130.0,27.0,30.0,67.0,138.0,111.0,nan,0.85,-7.61,0.69,-0.88,-82.37,50.28,0.0,0.0,0.0,-0.32,0.28,-0.59,0.68,1.0,28.2,26.32,0.0747257,0.0,19.25578033333333,nan,-99.59841758064518,nan,0.0,0.0,9935.9053,0.0,0.0,2608.9,0.0
4147.0,26.0,30.0,56.0,134.0,111.0,nan,1.1,-7.58,1.9,-0.78,-81.97,50.32,10.63,-0.47,6.5,-0.32,0.28,-0.59,0.69,1.0,28.2,26.32,0.0747257,0.0,19.255780166666668,nan,-99.59841752688172,nan,0.0,0.0,9935.9053,0.0,0.0,2608.9,0.0
4172.0,26.0,31.0,124.0,159.0,104.0,nan,1.25,-7.68,2.15,-0.72,-81.87,50.32,0.76,0.86,6.99,-0.32,0.28,-0.59,0.69,1.0,28.2,26.32,0.0747257,0.0,19.255779625,nan,-99.59841747311832,nan,0.0,0.0,9935.9053,1.0,0.0,2608.9,0.0
4195.0,28.0,30.0,157.0,183.0,109.0,nan,1.15,-7.64,1.57,-0.63,-81.97,50.31,-6.31,1.56,8.25,-0.32,0.28,-0.59,0.68,1.0,28.2,26.32,0.0747257,0.0,19.255779625,nan,-99.59841747311832,nan,0.0,0.0,9935.9053,0.0,0.0,0.0,0.0
4215.0,27.0,31.0,161.0,183.0,110.0,nan,1.04,-7.34,0.97,-0.52,-82.11,50.3,-7.08,1.7,8.95,-0.32,0.28,-0.59,0.68,1.0,28.2,26.32,0.0747257,0.0,19.255779250000003,nan,-99.59841741935486,nan,0.0,0.0,9935.9053,0.0,0.0,2608.9,0.0
4237.0,26.0,30.0,77.0,155.0,110.0,nan,0.97,-7.19,0.54,-0.39,-82.27,50.29,-5.82,1.84,9.86,-0.32,0.28,-0.59,0.68,1.0,28.2,26.32,0.0747257,0.0,19.255778875,nan,-99.5984173655914,nan,0.0,0.0,9935.9053,0.0,0.0,2608.9,0.0
4257.0,30.0,25.0,78.0,138.0,124.0,nan,1.0,-7.28,0.45,-0.24,-82.32,50.29,-0.64,1.63,11.12,-0.32,0.28,-0.6,0.68,1.0,28.2,26.32,0.0747257,0.0,19.2557785,nan,-99.59841731182796,nan,0.0,0.0,9935.9053,0.0,0.0,2608.9,0.0
4280.0,20.0,28.0,76.0,155.0,109.0,nan,0.67,-8.22,0.72,-0.05,-82.32,50.29,1.39,1.42,11.82,-0.32,0.28,-0.6,0.68,1.0,28.2,26.32,0.0747257,0.0,19.255778125,nan,-99.59841725806453,nan,0.0,0.0,9935.9053,0.0,0.0,2608.9,0.0
4300.0,27.0,30.0,108.0,137.0,124.0,nan,0.56,-8.31,1.16,0.15,-82.26,50.3,3.07,1.0,11.61,-0.32,0.28,-0.6,0.68,1.0,28.2,26.32,0.0747257,0.0,19.255777750000004,nan,-99.59841720430107,nan,0.0,0.0,9935.9053,0.0,0.0,2608.9,0.0
4322.0,27.0,26.0,78.0,137.0,109.0,nan,-0.86,-8.22,1.05,0.67,-82.2,50.32,0.2,1.28,10.91,-0.32,0.28,-0.6,0.68,1.0,28.2,26.32,0.074734,0.0,19.255777375,nan,-99.59841715053761,nan,0.0,0.0,9935.9053,0.0,0.0,2609.0,0.0
4355.0,27.0,30.0,67.0,154.0,97.0,nan,-0.89,-7.96,1.24,0.92,-82.1,50.34,4.33,0.3,9.37,-0.33,0.27,-0.6,0.68,1.0,28.2,26.32,0.074734,0.0,19.255777000000002,nan,-99.59841709677421,nan,0.0,0.0,9935.9053,0.0,0.0,2609.0,0.0
4374.0,27.0,29.0,67.0,139.0,112.0,nan,-0.71,-7.77,1.21,1.12,-82.17,50.36,-3.93,0.51,7.83,-0.33,0.27,-0.6,0.68,1.0,28.2,26.32,0.074734,0.0,19.255776625,nan,-99.59841704301076,nan,0.0,0.0,9935.9053,0.0,0.0,2609.0,0.0
4397.0,26.0,26.0,109.0,138.0,111.0,nan,-0.74,-8.02,1.09,1.29,-82.25,50.36,-3.86,0.44,6.5,-0.33,0.27,-0.6,0.68,1.0,28.2,26.32,0.074734,0.0,19.255776625,nan,-99.59841704301076,nan,0.0,0.0,9935.9053,0.0,0.0,0.0,0.0
4417.0,27.0,30.0,52.0,154.0,111.0,nan,-0.83,-8.08,0.8,1.42,-82.3,50.37,-1.41,0.44,4.47,-0.33,0.27,-0.6,0.68,1.0,28.2,26.32,0.074734,0.0,19.255776250000004,nan,-99.59841698924733,nan,0.0,0.0,9935.9053,0.0,0.0,2609.0,0.0
4440.0,26.0,30.0,68.0,124.0,111.0,nan,-0.54,-7.76,0.98,1.49,-82.25,50.38,2.65,-0.47,2.3,-0.33,0.27,-0.6,0.68,1.0,28.2,26.32,0.074734,0.0,19.255775875,nan,-99.59841693548388,nan,0.0,0.0,9935.9053,0.0,0.0,2609.0,0.0
4459.0,26.0,30.0,107.0,136.0,111.0,nan,-0.97,-8.39,1.19,1.56,-82.19,50.4,3.07,-0.68,0.9,-0.33,0.27,-0.6,0.68,1.0,28.2,26.32,0.074734,0.0,19.255775500000002,nan,-99.59841688172042,nan,0.0,0.0,9935.9053,0.0,0.0,2609.0,0.0
4482.0,38.0,26.0,88.0,140.0,125.0,nan,-1.21,-8.39,0.92,1.6,-82.17,50.41,3.42,-0.68,-2.18,-0.33,0.27,-0.6,0.68,1.0,28.2,26.32,0.074734,0.0,19.255775125,nan,-99.598416827957,nan,0.0,0.0,9935.9053,0.0,0.0,2609.0,0.0
4509.0,37.0,25.0,88.0,138.0,76.0,nan,-1.09,-8.15,1.61,1.56,-82.06,50.41,4.12,-0.96,-4.7,-0.33,0.27,-0.6,0.68,1.0,28.2,26.32,0.074734,0.0,19.255774750000004,nan,-99.59841677419357,nan,0.0,0.0,9935.9053,0.0,0.0,2609.0,0.0
4532.0,17.0,31.0,108.0,130.0,103.0,nan,-0.7,-8.71,1.69,1.45,-82.32,50.38,-14.71,0.86,-7.36,-0.33,0.27,-0.6,0.68,1.0,28.2,26.32,0.074734,0.0,19.255774750000004,nan,-99.59841677419357,nan,0.0,0.0,9935.9053,0.0,0.0,0.0,0.0
4551.0,26.0,31.0,52.0,124.0,110.0,nan,-0.91,-10.83,-0.14,1.35,-83.0,50.3,-29.9,2.61,-7.15,-0.33,0.27,-0.6,0.67,1.0,28.2,26.32,0.074734,0.0,19.255774375,nan,-99.59841672043014,nan,0.0,0.0,9935.9053,0.0,0.0,2609.0,0.0
4575.0,31.0,31.0,108.0,139.0,125.0,nan,-0.85,-12.35,-1.66,1.35,-83.16,50.29,-0.5,0.3,-1.34,-0.32,0.27,-0.6,0.67,1.0,28.2,26.32,0.074734,0.0,19.255774000000002,nan,-99.59841666666668,nan,0.0,0.0,9935.9053,0.0,0.0,2609.0,0.0
4594.0,17.0,28.0,77.0,137.0,110.0,nan,-0.82,-14.04,2.59,1.46,-82.57,50.38,27.71,-3.55,4.96,-0.33,0.27,-0.6,0.68,1.0,28.2,26.32,0.074734,0.0,19.255773625,nan,-99.59841661290324,nan,0.0,0.0,9935.9053,0.0,0.0,2609.0,0.0
4617.0,32.0,29.0,52.0,153.0,110.0,nan,-0.78,-11.49,1.67,1.58,-82.49,50.39,3.35,-0.26,4.89,-0.33,0.27,-0.6,0.68,1.0,28.2,26.32,0.074734,0.0,19.255773249999997,nan,-99.5984165591398,nan,0.0,0.0,9935.9053,0.0,0.0,2609.0,0.0
4636.0,20.0,33.0,68.0,140.0,74.0,nan,-1.04,-11.41,2.36,1.7,-82.15,50.42,14.9,-0.61,4.82,-0.33,0.27,-0.6,0.68,1.0,28.2,26.32,0.074734,0.0,19.255772875,nan,-99.59841650537635,nan,0.0,0.0,9935.9053,0.0,0.0,2609.0,0.0
4659.0,27.0,30.0,77.0,136.0,117.0,nan,-0.95,-12.98,4.21,1.86,-82.04,50.43,0.34,0.58,6.64,-0.33,0.27,-0.6,0.68,1.0,28.2,26.32,0.074734,0.0,19.255772875,nan,-99.59841650537635,nan,0.0,0.0,9935.9053,0.0,0.0,0.0,0.0
4678.0,27.0,25.0,88.0,134.0,126.0,nan,-0.01,-9.92,1.0,2.05,-82.4,50.4,-16.88,2.61,10.0,-0.33,0.27,-0.6,0.68,1.0,28.2,26.32,0.074734,0.0,19.255772500000003,nan,-99.59841645161289,nan,0.0,0.0,9935.9053,0.0,0.0,2609.0,0.0
4701.0,32.0,31.0,78.0,161.0,111.0,nan,0.49,-6.62,1.45,2.38,-81.78,50.51,25.96,-2.43,9.72,-0.33,0.27,-0.6,0.68,1.0,28.2,26.32,0.074734,0.0,19.255772125,nan,-99.59841639784949,nan,0.0,0.0,9935.9053,0.0,0.0,2609.0,0.0
4727.0,27.0,32.0,82.0,147.0,125.0,nan,0.43,-6.32,2.34,2.48,-81.41,50.53,12.31,0.3,8.32,-0.34,0.26,-0.6,0.68,1.0,28.2,26.32,0.074734,0.0,19.255771749999997,nan,-99.59841634408603,nan,0.0,0.0,9935.9053,0.0,0.0,2609.0,0.0
4750.0,26.0,18.0,121.0,135.0,111.0,nan,0.04,-5.35,1.92,2.62,-81.43,50.5,-6.31,2.96,7.69,-0.34,0.26,-0.6,0.68,1.0,28.2,26.32,0.074734,0.0,19.255771375000002,nan,-99.59841629032259,nan,0.0,0.0,9935.9053,0.0,0.0,2609.0,0.0
4770.0,32.0,32.0,52.0,154.0,110.0,nan,0.05,-4.56,1.48,2.73,-81.39,50.49,-2.39,1.63,7.13,-0.34,0.26,-0.6,0.68,1.0,28.2,26.32,0.074734,0.0,19.255771000000003,nan,-99.59841623655916,nan,0.0,0.0,9935.9053,0.0,0.0,2609.0,0.0
4792.0,30.0,30.0,67.0,138.0,111.0,nan,-0.41,-4.91,1.52,2.91,-81.39,50.49,-4.7,1.28,7.9,-0.34,0.26,-0.6,0.68,1.0,28.2,26.29,0.0747208,0.0,19.255770625,nan,-99.5984161827957,nan,0.0,0.0,9935.9053,0.0,0.0,2609.0,0.0
4814.0,26.0,30.0,59.0,141.0,75.0,nan,-0.34,-4.03,1.4,3.05,-81.52,50.49,-11.56,1.56,6.22,-0.34,0.26,-0.6,0.68,1.0,28.2,26.29,0.0747208,0.0,19.255770625,nan,-99.5984161827957,nan,0.0,0.0,9935.9053,0.0,0.0,0.0,0.0
4837.0,18.0,31.0,77.0,125.0,96.0,nan,-0.47,-3.7,1.01,3.16,-81.88,50.44,-21.01,2.96,3.0,-0.34,0.26,-0.6,0.68,1.0,28.2,26.29,0.0747208,0.0,19.255770249999998,nan,-99.59841612903224,nan,0.0,0.0,9935.9053,0.0,0.0,2609.0,0.0
4857.0,20.0,30.0,68.0,139.0,118.0,nan,-0.52,-3.39,0.63,3.2,-82.5,50.36,-32.35,4.22,-1.27,-0.34,0.26,-0.61,0.67,1.0,28.2,26.29,0.0747208,0.0,19.255769875000002,nan,-99.59841607526882,nan,0.0,0.0,9935.9053,0.0,0.0,2609.0,0.0
4881.0,30.0,18.0,60.0,157.0,110.0,nan,-0.5,-3.05,0.19,3.14,-84.17,50.13,-41.73,4.85,-6.38,-0.33,0.27,-0.62,0.66,1.0,28.2,26.29,0.0747208,0.0,19.255769500000003,nan,-99.59841602150539,nan,0.0,0.0,9935.9053,0.0,0.0,2609.0,0.0
4907.0,31.0,31.0,147.0,137.0,118.0,nan,-0.31,-2.97,-0.39,3.03,-84.99,50.05,-34.1,3.1,-7.5,-0.33,0.27,-0.62,0.66,1.0,28.2,26.29,0.0747208,0.0,19.255769125,nan,-99.59841596774196,nan,0.0,0.0,9935.9053,0.0,0.0,2609.0,0.0
4930.0,26.0,25.0,111.0,109.0,117.0,nan,-0.18,-4.08,-1.87,2.88,-85.5,50.03,-11.49,-0.33,-7.36,-0.33,0.27,-0.62,0.66,1.0,28.2,26.29,0.0747208,0.0,19.255768749999998,nan,-99.59841591397851,nan,0.0,0.0,9935.9053,0.0,0.0,2609.0,0.0
4950.0,26.0,31.0,83.0,126.0,75.0,nan,0.0,-6.82,-3.5,2.75,-85.17,50.11,31.42,-5.44,-4.91,-0.33,0.27,-0.62,0.66,1.0,28.2,26.29,0.0747208,0.0,19.255768375000002,nan,-99.59841586021506,nan,0.0,0.0,9935.9053,0.0,0.0,2609.0,0.0
4972.0,28.0,24.0,147.0,125.0,90.0,nan,-0.18,-9.27,-1.72,2.7,-83.7,50.31,80.7,-10.13,-0.29,-0.33,0.27,-0.61,0.67,1.0,28.2,26.29,0.0747208,0.0,19.255768375000002,nan,-99.59841586021506,nan,0.0,0.0,9935.9053,0.0,0.0,0.0,0.0
4992.0,21.0,26.0,89.0,156.0,118.0,nan,0.21,-10.44,2.92,2.66,-82.15,50.48,72.58,-8.31,0.55,-0.34,0.26,-0.6,0.68,1.0,28.2,26.29,0.0747208,0.0,19.255768000000003,nan,-99.59841580645163,nan,0.0,0.0,9935.9053,0.0,0.0,2609.0,0.0
5014.0,29.0,25.0,66.0,147.0,125.0,nan,0.23,-9.02,5.52,2.54,-81.36,50.54,27.92,-3.34,-3.51,-0.34,0.26,-0.6,0.68,1.0,28.2,26.29,0.0747208,0.0,19.255767625,nan,-99.59841575268817,nan,0.0,0.0,9935.9053,0.0,0.0,2609.0,0.0
5034.0,25.0,25.0,88.0,124.0,111.0,nan,-0.03,-8.11,4.51,2.41,-81.17,50.54,-0.99,-0.26,-5.47,-0.34,0.26,-0.6,0.68,1.0,28.2,26.29,0.0747208,0.0,19.255767249999998,nan,-99.59841569892473,nan,0.0,0.0,9935.9053,0.0,0.0,2609.0,0.0
5057.0,26.0,27.0,78.0,125.0,76.0,nan,-0.23,-7.92,3.43,2.28,-81.71,50.5,-33.68,1.28,-6.31,-0.33,0.27,-0.6,0.68,1.0,28.2,26.29,0.0747208,0.0,19.255766875000003,nan,-99.59841564516131,nan,0.0,0.0,9935.9053,0.0,0.0,2609.0,0.0
5076.0,37.0,29.0,78.0,137.0,103.0,nan,-0.86,-8.55,-0.13,2.16,-82.88,50.38,-53.7,4.92,-8.69,-0.33,0.27,-0.6,0.67,1.0,28.2,26.29,0.0747208,0.0,19.255766875000003,nan,-99.59841564516131,nan,0.0,0.0,9935.9053,0.0,0.0,0.0,0.0
5099.0,28.0,27.0,89.0,147.0,111.0,nan,0.85,-6.81,-2.33,1.74,-84.11,50.29,0.55,-2.22,-5.61,-0.32,0.27,-0.61,0.67,1.0,28.2,26.29,0.0747208,0.0,19.255766500000004,nan,-99.59841559139787,nan,0.0,0.0,9935.9053,0.0,0.0,2609.0,0.0
5125.0,26.0,25.0,52.0,150.0,111.0,nan,0.45,-5.14,-0.5,1.59,-83.46,50.42,37.93,-7.12,-3.72,-0.33,0.27,-0.61,0.67,1.0,28.2,26.29,0.0747208,0.0,19.255766125,nan,-99.59841553763441,nan,0.0,0.0,9935.9053,0.0,0.0,2609.0,0.0
5149.0,31.0,30.0,78.0,184.0,139.0,nan,0.46,-3.94,1.08,1.31,-82.61,50.55,37.79,-7.19,-8.83,-0.33,0.27,-0.6,0.68,1.0,28.2,26.29,0.0747208,0.0,19.25576575,nan,-99.59841548387098,nan,0.0,0.0,9935.9053,0.0,0.0,2609.0,0.0
5168.0,18.0,30.0,88.0,218.0,139.0,nan,0.33,-3.78,1.62,0.95,-82.22,50.57,11.68,-3.27,-14.92,-0.33,0.28,-0.6,0.68,1.0,28.2,26.29,0.0747208,0.0,19.255765375000003,nan,-99.59841543010752,nan,0.0,0.0,9935.9053,0.0,0.0,2609.0,0.0
5191.0,27.0,33.0,66.0,133.0,96.0,nan,-0.01,-3.34,1.15,0.59,-82.54,50.5,-21.15,1.49,-17.93,-0.32,0.28,-0.6,0.68,1.0,28.2,26.29,0.0747208,0.0,19.25576441666667,nan,-99.59841537634408,nan,0.0,0.0,9935.9053,1.0,0.0,2609.0,0.0
5210.0,31.0,30.0,108.0,111.0,75.0,nan,0.1,-3.54,0.22,0.26,-83.22,50.39,-31.93,3.59,-16.18,-0.32,0.28,-0.6,0.68,1.0,28.2,26.29,0.0747208,0.0,19.255763833333333,nan,-99.59841532258066,nan,0.0,0.0,9935.9053,0.0,0.0,2609.0,0.0
5233.0,7.0,15.0,78.0,65.0,59.0,nan,0.74,-5.56,-1.08,-0.09,-83.66,50.32,-13.45,1.63,-13.87,-0.32,0.28,-0.6,0.67,1.0,28.2,26.29,0.0747208,0.0,19.255763833333333,nan,-99.59841532258066,nan,0.0,0.0,9935.9053,0.0,0.0,0.0,0.0
5253.0,38.0,30.0,55.0,111.0,75.0,nan,0.63,-9.01,-1.61,-0.4,-83.36,50.34,23.02,-2.15,-13.17,-0.32,0.29,-0.6,0.68,1.0,28.18,26.35,0.0747283,0.0,19.25576325,nan,-99.59841526881722,nan,0.0,0.0,9935.9053,0.0,0.0,2609.0,0.0
5278.0,32.0,29.0,136.0,148.0,103.0,nan,0.74,-15.64,4.43,-0.94,-82.23,50.39,7.69,-0.33,-11.98,-0.32,0.29,-0.59,0.68,1.0,28.18,26.35,0.0747283,0.0,19.255762666666666,nan,-99.59841521505379,nan,0.0,0.0,9935.9053,0.0,0.0,2609.0,0.0
5304.0,19.0,19.0,40.0,124.0,117.0,nan,0.46,-13.05,3.26,-0.99,-82.29,50.39,-6.45,-0.75,-1.83,-0.32,0.29,-0.59,0.68,1.0,28.18,26.35,0.0747283,0.0,19.255762083333337,nan,-99.59841516129033,nan,0.0,0.0,9935.9053,0.0,0.0,2609.0,0.0
5327.0,33.0,27.0,109.0,148.0,124.0,nan,-0.43,-10.81,1.63,-1.01,-82.14,50.45,7.34,-3.27,-1.97,-0.32,0.29,-0.59,0.68,1.0,28.18,26.35,0.0747283,0.0,19.255761500000002,nan,-99.59841510752688,nan,0.0,0.0,9935.9053,0.0,0.0,2609.0,0.0
5347.0,15.0,29.0,52.0,140.0,111.0,nan,0.46,-11.56,2.57,-1.24,-82.2,50.42,-5.54,-0.05,-10.86,-0.31,0.29,-0.59,0.68,1.0,28.18,26.35,0.0747283,0.0,19.25576091666667,nan,-99.59841505376345,nan,0.0,0.0,9935.9053,0.0,0.0,2609.0,0.0
5370.0,24.0,20.0,67.0,138.0,110.0,nan,1.32,-13.63,2.33,-1.4,-83.06,50.28,-43.97,6.6,-6.94,-0.31,0.29,-0.6,0.68,1.0,28.18,26.35,0.0747283,0.0,19.255760333333335,nan,-99.598415,nan,0.0,0.0,9935.9053,0.0,0.0,2608.5,0.0
5389.0,24.0,7.0,108.0,154.0,111.0,nan,1.56,-15.04,-1.3,-1.36,-83.2,50.28,-0.92,0.65,3.98,-0.31,0.29,-0.6,0.68,1.0,28.18,26.35,0.0747283,0.0,19.255760333333335,nan,-99.598415,nan,0.0,0.0,9935.9053,0.0,0.0,0.0,0.0
5412.0,21.0,25.0,67.0,184.0,140.0,nan,1.66,-11.42,2.24,-1.26,-82.28,50.41,43.81,-5.86,9.37,-0.31,0.29,-0.59,0.68,1.0,28.18,26.35,0.0747283,0.0,19.25575975,nan,-99.59841494623659,nan,0.0,0.0,9935.9053,0.0,0.0,2608.5,0.0
5432.0,15.0,20.0,66.0,154.0,138.0,nan,0.52,-9.56,2.78,-1.18,-81.81,50.47,19.31,-2.22,5.1,-0.32,0.29,-0.59,0.69,1.0,28.18,26.35,0.0747283,0.0,19.255759166666667,nan,-99.59841489247314,nan,0.0,0.0,9935.9053,0.0,0.0,2608.5,0.0
5454.0,26.0,26.0,53.0,124.0,120.0,nan,0.93,-7.9,2.59,-1.13,-81.77,50.46,-3.09,0.86,4.96,-0.32,0.29,-0.59,0.69,1.0,28.18,26.35,0.0747283,0.0,19.255758583333332,nan,-99.59841483870969,nan,0.0,0.0,9935.9053,0.0,0.0,2608.5,0.0
5474.0,27.0,31.0,108.0,138.0,75.0,nan,-0.06,-8.83,1.84,-1.01,-81.92,50.46,-8.97,0.86,5.1,-0.32,0.29,-0.59,0.69,1.0,28.18,26.35,0.0747283,0.0,19.255757999999997,nan,-99.59841478494623,nan,0.0,0.0,9935.9053,0.0,0.0,2608.5,0.0
5496.0,17.0,31.0,78.0,154.0,100.0,nan,0.63,-8.25,0.73,-0.85,-82.16,50.51,-6.94,-0.19,6.99,-0.32,0.29,-0.59,0.68,1.0,28.18,26.35,0.0747283,0.0,19.255757416666665,nan,-99.5984147311828,nan,0.0,0.0,9935.9053,0.0,0.0,2608.5,0.0
5523.0,17.0,16.0,52.0,118.0,75.0,nan,0.59,-7.14,0.07,-0.76,-82.37,50.52,-7.29,0.58,6.92,-0.32,0.29,-0.59,0.68,1.0,28.18,26.35,0.0747283,0.0,19.255756833333336,nan,-99.59841467741936,nan,0.0,0.0,9935.9053,0.0,0.0,2608.5,0.0
5546.0,18.0,31.0,77.0,140.0,103.0,nan,0.32,-6.94,0.3,-0.67,-82.27,50.55,7.69,-1.03,5.59,-0.32,0.28,-0.59,0.68,1.0,28.18,26.35,0.0747283,0.0,19.255756833333336,nan,-99.59841467741936,nan,0.0,0.0,9935.9053,0.0,0.0,0.0,0.0
5565.0,27.0,31.0,68.0,138.0,110.0,nan,0.19,-6.86,0.97,-0.59,-82.09,50.59,9.02,-1.31,4.47,-0.32,0.28,-0.59,0.68,1.0,28.18,26.35,0.0747283,0.0,19.25575625,nan,-99.5984146236559,nan,0.0,0.0,9935.9053,0.0,0.0,2608.5,0.0
5589.0,26.0,31.0,108.0,138.0,111.0,nan,-0.18,-6.3,0.98,-0.49,-82.06,50.61,1.04,-0.33,3.98,-0.32,0.28,-0.59,0.68,1.0,28.18,26.35,0.0747283,0.0,19.255755666666666,nan,-99.5984145698925,nan,0.0,0.0,9935.9053,0.0,0.0,2608.5,0.0
5608.0,26.0,31.0,108.0,137.0,97.0,nan,-0.36,-6.5,0.9,-0.38,-82.14,50.61,-3.86,0.44,3.84,-0.32,0.28,-0.59,0.68,1.0,28.18,26.35,0.0747283,0.0,19.255755083333334,nan,-99.59841451612904,nan,0.0,0.0,9935.9053,0.0,0.0,2608.5,0.0
5630.0,27.0,31.0,52.0,137.0,113.0,nan,-0.18,-5.88,0.69,-0.3,-82.2,50.62,-2.67,-0.26,3.0,-0.32,0.28,-0.59,0.68,1.0,28.18,26.35,0.0747283,0.0,19.2557545,nan,-99.59841446236561,nan,0.0,0.0,9935.9053,0.0,0.0,2608.5,0.0
5650.0,30.0,30.0,108.0,137.0,111.0,nan,-0.2,-5.54,0.57,-0.23,-82.19,50.64,1.32,-0.82,2.09,-0.32,0.28,-0.59,0.68,1.0,28.18,26.35,0.0747283,0.0,19.25575391666667,nan,-99.59841440860215,nan,0.0,0.0,9935.9053,0.0,0.0,2608.5,0.0
5679.0,38.0,26.0,52.0,137.0,110.0,nan,0.09,-5.34,0.65,-0.24,-82.1,50.67,2.65,-0.54,-0.92,-0.32,0.28,-0.59,0.68,1.0,28.18,26.35,0.0747283,0.0,19.255753333333335,nan,-99.59841435483871,nan,0.0,0.0,9935.9053,0.0,0.0,2608.5,0.0
5700.0,26.0,30.0,108.0,137.0,111.0,nan,0.09,-5.34,0.65,-0.24,-82.1,50.67,0.0,0.0,0.0,-0.32,0.28,-0.59,0.68,1.0,28.18,26.35,0.0747283,0.0,19.255753333333335,nan,-99.59841435483871,nan,0.0,0.0,9935.9053,0.0,0.0,0.0,0.0
5717.0,28.0,29.0,88.0,125.0,111.0,nan,0.31,-7.24,0.77,-0.32,-82.12,50.65,1.81,0.37,-1.13,-0.32,0.28,-0.59,0.68,1.0,28.21,26.35,0.0747291,0.0,19.255752750000003,nan,-99.59841430107528,nan,0.0,0.0,9935.9053,0.0,0.0,2608.5,0.0
5747.0,26.0,30.0,78.0,139.0,75.0,nan,0.24,-7.89,1.33,-0.37,-81.91,50.66,9.93,-0.68,-1.62,-0.32,0.28,-0.59,0.68,1.0,28.21,26.35,0.0747291,0.0,19.255752166666667,nan,-99.59841424731182,nan,0.0,0.0,9935.9053,0.0,0.0,2608.5,0.0
5769.0,26.0,31.0,67.0,136.0,102.0,nan,0.08,-8.03,2.02,-0.42,-81.62,50.67,11.05,-1.1,-2.25,-0.32,0.28,-0.59,0.69,1.0,28.21,26.35,0.0747291,0.0,19.255751583333332,nan,-99.59841419354842,nan,0.0,0.0,9935.9053,0.0,0.0,2608.5,0.0
5790.0,18.0,25.0,136.0,132.0,110.0,nan,-0.07,-8.08,2.53,-0.44,-81.46,50.68,3.77,-0.75,-1.41,-0.32,0.28,-0.59,0.69,1.0,28.21,26.35,0.0747291,0.0,19.255751,nan,-99.59841413978496,nan,0.0,0.0,9935.9053,0.0,0.0,2608.5,0.0
5809.0,26.0,30.0,136.0,156.0,111.0,nan,-0.03,-8.25,2.18,-0.47,-81.61,50.66,-10.93,1.0,-1.97,-0.32,0.28,-0.59,0.69,1.0,28.21,26.35,0.0747291,0.0,19.25575041666667,nan,-99.5984140860215,nan,0.0,0.0,9935.9053,0.0,0.0,2608.5,0.0
5832.0,26.0,30.0,157.0,149.0,109.0,nan,0.37,-8.41,0.96,-0.57,-81.96,50.63,-2.25,-0.33,-1.41,-0.32,0.28,-0.59,0.68,1.0,28.21,26.35,0.0747291,0.0,19.255749833333336,nan,-99.59841403225808,nan,0.0,0.0,9935.9053,0.0,0.0,2608.5,0.0
5860.0,31.0,37.0,162.0,133.0,110.0,nan,0.72,-8.22,1.03,-0.63,-81.98,50.63,-0.36,-0.19,-0.78,-0.32,0.28,-0.59,0.68,1.0,28.21,26.35,0.0747291,0.0,19.25574925,nan,-99.59841397849463,nan,0.0,0.0,9935.9053,0.0,0.0,2608.5,0.0
5882.0,31.0,17.0,99.0,161.0,105.0,nan,0.59,-8.68,1.27,-0.66,-81.97,50.63,0.06,-0.05,0.2,-0.32,0.28,-0.59,0.68,1.0,28.21,26.35,0.0747291,0.0,19.25574925,nan,-99.59841397849463,nan,0.0,0.0,9935.9053,0.0,0.0,0.0,0.0
5901.0,17.0,30.0,78.0,137.0,75.0,nan,0.29,-8.98,1.6,-0.63,-81.93,50.64,1.11,-0.26,1.74,-0.32,0.28,-0.59,0.68,1.0,28.21,26.35,0.0747291,0.0,19.25574866666667,nan,-99.59841392473118,nan,0.0,0.0,9935.9053,0.0,0.0,2608.5,0.0
5924.0,17.0,30.0,87.0,139.0,102.0,nan,-0.08,-8.84,1.85,-0.59,-81.86,50.66,1.46,-0.82,1.74,-0.32,0.28,-0.59,0.68,1.0,28.21,26.35,0.0747291,0.0,19.255748083333334,nan,-99.59841387096778,nan,0.0,0.0,9935.9053,0.0,0.0,2608.5,0.0
5946.0,38.0,27.0,53.0,155.0,111.0,nan,0.15,-8.34,1.43,-0.58,-82.01,50.66,-8.34,0.37,0.62,-0.32,0.28,-0.59,0.68,1.0,28.21,26.35,0.0747291,0.0,19.2557475,nan,-99.59841381720432,nan,0.0,0.0,9935.9053,0.0,0.0,2608.5,0.0
5966.0,26.0,30.0,108.0,138.0,116.0,nan,0.35,-8.23,1.05,-0.58,-82.17,50.66,-7.64,0.23,1.11,-0.32,0.28,-0.59,0.68,1.0,28.21,26.35,0.0747291,0.0,19.255746916666666,nan,-99.59841376344086,nan,0.0,0.0,9935.9053,0.0,0.0,2608.5,0.0
