time,p1,p2,p3,p4,p5,termite,ax,ay,az,rx,ry,rz,roll,pitch,yaw,q1,q2,q3,q4,calibration,temperature,humidity,pressure,flag_rm,lat,lacoord,lon,locoord,capacitive,o_lat,o_lon,used_lat,used_lon,altitude,flag_lm
0.0,17.0,26.0,108.0,137.0,102.0,nan,-0.73,-8.0,1.24,4.3,-81.62,146.88,1.74,-0.26,0.2,-0.73,0.62,-0.21,0.19,1.0,28.36,26.77,0.0747204,0.0,19.256823333333333,nan,-99.60139980842915,nan,0.0,0.0,9936.084,1.0,1.0,2612.7,0.0
16.0,26.0,26.0,82.0,134.0,111.0,nan,-0.6,-7.83,1.13,4.29,-81.64,146.87,-0.85,0.16,-0.29,-0.73,0.62,-0.21,0.19,1.0,28.36,26.77,0.0747204,0.0,19.256823333333333,nan,-99.60139980842915,nan,0.0,0.0,9936.084,0.0,0.0,0.0,0.0
39.0,19.0,30.0,135.0,154.0,123.0,nan,-0.66,-7.85,1.16,4.29,-81.63,146.87,0.48,-0.05,-0.22,-0.73,0.62,-0.21,0.19,1.0,28.36,26.77,0.0747204,0.0,19.256823333333333,nan,-99.60139980842915,nan,0.0,0.0,9936.084,0.0,0.0,0.0,0.0
59.0,17.0,29.0,77.0,137.0,118.0,nan,-0.61,-7.91,1.18,4.29,-81.63,146.87,-0.36,0.09,-0.22,-0.73,0.62,-0.21,0.19,1.0,28.36,26.77,0.0747204,0.0,19.256823333333333,nan,-99.60139980842915,nan,0.0,0.0,9936.084,0.0,0.0,0.0,0.0
82.0,26.0,17.0,119.0,134.0,111.0,nan,-0.6,-7.97,1.2,4.29,-81.63,146.87,0.69,0.02,-0.01,-0.73,0.62,-0.21,0.19,1.0,28.36,26.77,0.0747204,0.0,19.256823333333333,nan,-99.60139980842915,nan,0.0,0.0,9936.084,0.0,0.0,0.0,0.0
108.0,26.0,18.0,135.0,133.0,104.0,nan,-0.73,-7.88,1.13,4.3,-81.64,146.87,-0.78,0.02,-0.36,-0.73,0.62,-0.21,0.19,1.0,28.36,26.77,0.0747204,0.0,19.256823333333333,nan,-99.60139980842915,nan,0.0,0.0,9936.084,0.0,0.0,0.0,0.0
131.0,17.0,29.0,63.0,125.0,117.0,nan,-0.55,-7.78,1.12,4.29,-81.64,146.86,0.2,0.09,-0.15,-0.73,0.62,-0.21,0.19,1.0,28.36,26.77,0.0747204,0.0,19.256823333333333,nan,-99.60139980842915,nan,0.0,0.0,9936.084,0.0,0.0,0.0,0.0
150.0,26.0,30.0,56.0,154.0,110.0,nan,-0.74,-8.03,1.23,4.3,-81.63,146.87,0.34,-0.19,-0.08,-0.73,0.62,-0.21,0.19,1.0,28.36,26.77,0.0747204,0.0,19.256823333333333,nan,-99.60139980842915,nan,0.0,0.0,9936.084,0.0,0.0,0.0,0.0
173.0,26.0,31.0,124.0,155.0,96.0,nan,-0.61,-7.8,1.05,4.3,-81.66,146.86,-1.13,0.3,-0.15,-0.73,0.62,-0.21,0.19,1.0,28.36,26.77,0.0747204,0.0,19.256823333333333,nan,-99.60139980842915,nan,0.0,0.0,9936.084,0.0,0.0,0.0,0.0
193.0,27.0,37.0,121.0,156.0,118.0,nan,-0.67,-7.89,1.16,4.3,-81.63,146.86,1.74,-0.19,-0.22,-0.73,0.62,-0.21,0.19,1.0,28.36,26.77,0.0747204,0.0,19.256823333333333,nan,-99.60139980842915,nan,0.0,0.0,9936.084,0.0,0.0,0.0,0.0
216.0,31.0,29.0,109.0,139.0,116.0,nan,-0.67,-7.94,1.28,4.3,-81.63,146.86,-0.36,0.02,-0.15,-0.73,0.62,-0.21,0.19,1.0,28.36,26.77,0.0747204,0.0,19.256823333333333,nan,-99.60139980842915,nan,0.0,0.0,9936.084,0.0,0.0,0.0,0.0
235.0,20.0,18.0,147.0,182.0,139.0,nan,-0.59,-7.73,1.02,4.29,-81.65,146.86,-1.06,0.23,-0.36,-0.73,0.62,-0.21,0.19,1.0,28.36,26.77,0.0747204,0.0,19.25682350877193,nan,-99.60139961685825,nan,0.0,0.0,9936.084,0.0,0.0,2612.7,0.0
258.0,27.0,30.0,87.0,183.0,137.0,nan,-0.7,-8.05,1.27,4.3,-81.62,146.86,1.6,-0.19,0.06,-0.73,0.62,-0.21,0.19,1.0,28.36,26.77,0.0747204,0.0,19.25682350877193,nan,-99.60139961685825,nan,0.0,0.0,9936.084,0.0,0.0,0.0,0.0
277.0,27.0,30.0,52.0,147.0,119.0,nan,-0.64,-7.87,1.08,4.3,-81.66,146.85,-1.97,0.3,-0.36,-0.73,0.62,-0.21,0.19,1.0,28.36,26.77,0.0747204,0.0,19.25682350877193,nan,-99.60139961685825,nan,0.0,0.0,9936.084,0.0,0.0,0.0,0.0
300.0,25.0,30.0,77.0,154.0,110.0,nan,-0.63,-8.02,1.29,4.29,-81.62,146.86,0.2,-0.05,-0.22,-0.73,0.62,-0.21,0.19,1.0,28.36,26.77,0.0747204,0.0,19.25682350877193,nan,-99.60139961685825,nan,0.0,0.0,9936.084,0.0,0.0,0.0,0.0
327.0,18.0,30.0,82.0,137.0,109.0,nan,-0.71,-7.82,1.03,4.3,-81.67,146.85,-1.62,0.16,-0.15,-0.73,0.62,-0.21,0.19,1.0,28.36,26.77,0.0747204,0.0,19.25682350877193,nan,-99.60139961685825,nan,0.0,0.0,9936.084,0.0,0.0,0.0,0.0
350.0,31.0,18.0,60.0,137.0,109.0,nan,-0.58,-7.89,1.16,4.3,-81.63,146.85,1.95,-0.12,-0.01,-0.73,0.62,-0.21,0.19,1.0,28.36,26.77,0.0747204,0.0,19.25682350877193,nan,-99.60139961685825,nan,0.0,0.0,9936.084,0.0,0.0,0.0,0.0
369.0,28.0,31.0,53.0,138.0,110.0,nan,-0.74,-7.96,1.27,4.3,-81.63,146.85,-0.36,0.02,-0.29,-0.73,0.62,-0.21,0.19,1.0,28.36,26.77,0.0747204,0.0,19.25682350877193,nan,-99.60139961685825,nan,0.0,0.0,9936.084,0.0,0.0,0.0,0.0
392.0,20.0,30.0,108.0,153.0,111.0,nan,-0.51,-7.67,1.05,4.29,-81.65,146.85,-0.92,0.16,-0.29,-0.73,0.62,-0.21,0.19,1.0,28.36,26.77,0.0747204,0.0,19.25682350877193,nan,-99.60139961685825,nan,0.0,0.0,9936.084,0.0,0.0,0.0,0.0
412.0,37.0,26.0,99.0,138.0,111.0,nan,-0.75,-8.06,1.24,4.3,-81.62,146.85,1.18,-0.19,-0.08,-0.73,0.62,-0.21,0.19,1.0,28.38,26.83,0.0747154,0.0,19.25682350877193,nan,-99.60139961685825,nan,0.0,0.0,9936.084,0.0,0.0,0.0,0.0
437.0,24.0,29.0,157.0,162.0,126.0,nan,-0.63,-7.89,1.08,4.3,-81.67,146.84,-1.97,0.37,-0.22,-0.73,0.62,-0.21,0.19,1.0,28.38,26.83,0.0747154,0.0,19.25682350877193,nan,-99.60139961685825,nan,0.0,0.0,9936.084,0.0,0.0,0.0,0.0
456.0,20.0,31.0,150.0,148.0,104.0,nan,-0.64,-7.77,1.09,4.3,-81.64,146.85,1.6,-0.19,-0.15,-0.73,0.62,-0.21,0.19,1.0,28.38,26.83,0.0747154,0.0,19.256823596491234,nan,-99.60139942528738,nan,0.0,0.0,9936.084,0.0,0.0,2612.7,0.0
479.0,31.0,17.0,89.0,138.0,105.0,nan,-0.64,-7.8,1.03,4.29,-81.66,146.84,-1.97,0.23,-0.29,-0.73,0.62,-0.21,0.19,1.0,28.38,26.83,0.0747154,0.0,19.256823596491234,nan,-99.60139942528738,nan,0.0,0.0,9936.084,0.0,0.0,0.0,0.0
505.0,20.0,17.0,78.0,143.0,116.0,nan,-0.66,-7.95,1.16,4.3,-81.64,146.84,1.32,-0.05,-0.01,-0.73,0.62,-0.21,0.19,1.0,28.38,26.83,0.0747154,0.0,19.256823596491234,nan,-99.60139942528738,nan,0.0,0.0,9936.084,0.0,0.0,0.0,0.0
528.0,18.0,29.0,52.0,138.0,110.0,nan,-0.69,-7.96,1.18,4.3,-81.64,146.84,-0.36,0.02,-0.36,-0.73,0.62,-0.21,0.19,1.0,28.38,26.83,0.0747154,0.0,19.256823596491234,nan,-99.60139942528738,nan,0.0,0.0,9936.084,0.0,0.0,0.0,0.0
548.0,32.0,30.0,55.0,155.0,111.0,nan,-0.59,-7.73,1.14,4.29,-81.64,146.84,-0.01,0.09,-0.15,-0.73,0.62,-0.21,0.19,1.0,28.38,26.83,0.0747154,0.0,19.256823596491234,nan,-99.60139942528738,nan,0.0,0.0,9936.084,0.0,0.0,0.0,0.0
571.0,27.0,25.0,52.0,137.0,110.0,nan,-0.65,-8.0,1.18,4.29,-81.64,146.84,-0.01,0.02,-0.15,-0.73,0.62,-0.21,0.19,1.0,28.38,26.83,0.0747154,0.0,19.256823596491234,nan,-99.60139942528738,nan,0.0,0.0,9936.084,0.0,0.0,0.0,0.0
590.0,18.0,16.0,67.0,132.0,110.0,nan,-0.7,-7.93,1.08,4.3,-81.67,146.84,-0.99,0.09,-0.15,-0.73,0.62,-0.21,0.19,1.0,28.38,26.83,0.0747154,0.0,19.256823596491234,nan,-99.60139942528738,nan,0.0,0.0,9936.084,0.0,0.0,0.0,0.0
613.0,31.0,29.0,52.0,139.0,110.0,nan,-0.59,-7.77,1.08,4.29,-81.64,146.84,1.46,0.02,-0.22,-0.73,0.62,-0.21,0.19,1.0,28.38,26.83,0.0747154,0.0,19.256823596491234,nan,-99.60139942528738,nan,0.0,0.0,9936.084,0.0,0.0,0.0,0.0
632.0,18.0,25.0,98.0,133.0,111.0,nan,-0.71,-8.02,1.36,4.3,-81.61,146.84,0.9,-0.19,-0.22,-0.73,0.62,-0.21,0.19,1.0,28.38,26.83,0.0747154,0.0,19.256823596491234,nan,-99.60139942528738,nan,0.0,0.0,9936.084,0.0,0.0,0.0,0.0
655.0,19.0,29.0,157.0,155.0,109.0,nan,-0.58,-7.76,1.02,4.29,-81.66,146.83,-1.97,0.23,-0.29,-0.73,0.62,-0.21,0.19,1.0,28.38,26.83,0.0747154,0.0,19.256823596491234,nan,-99.60139942528738,nan,0.0,0.0,9936.084,0.0,0.0,0.0,0.0
675.0,17.0,30.0,151.0,155.0,122.0,nan,-0.71,-7.96,1.21,4.3,-81.62,146.84,2.09,-0.19,0.06,-0.73,0.62,-0.21,0.19,1.0,28.38,26.83,0.0747154,0.0,19.256823684210527,nan,-99.6013992337165,nan,0.0,0.0,9936.084,0.0,0.0,2612.7,0.0
698.0,29.0,30.0,77.0,139.0,125.0,nan,-0.66,-7.71,1.08,4.29,-81.65,146.83,-1.13,0.23,-0.36,-0.73,0.62,-0.21,0.19,1.0,28.38,26.83,0.0747154,0.0,19.256823771929824,nan,-99.60139904214562,nan,0.0,0.0,9936.084,0.0,0.0,2612.7,0.0
724.0,24.0,31.0,77.0,156.0,75.0,nan,-0.6,-7.89,1.17,4.29,-81.64,146.83,0.62,0.02,-0.08,-0.73,0.62,-0.21,0.19,1.0,28.38,26.83,0.0747154,0.0,19.256823859649124,nan,-99.60139885057474,nan,0.0,0.0,9936.084,0.0,0.0,2612.7,0.0
747.0,16.0,30.0,77.0,138.0,103.0,nan,-0.74,-7.99,1.16,4.3,-81.66,146.83,-0.99,0.02,-0.15,-0.73,0.62,-0.21,0.19,1.0,28.38,26.83,0.0747154,0.0,19.25682394736842,nan,-99.60139865900386,nan,0.0,0.0,9936.084,0.0,0.0,2612.7,0.0
767.0,27.0,26.0,78.0,160.0,106.0,nan,-0.58,-7.75,1.03,4.29,-81.68,146.82,-0.5,0.23,-0.29,-0.73,0.62,-0.21,0.19,1.0,28.38,26.83,0.0747154,0.0,19.25682403508772,nan,-99.60139846743294,nan,0.0,0.0,9936.084,0.0,0.0,2612.7,0.0
789.0,27.0,30.0,78.0,147.0,112.0,nan,-0.69,-7.97,1.23,4.3,-81.64,146.82,1.53,-0.19,-0.22,-0.73,0.62,-0.21,0.19,1.0,28.38,26.83,0.0747154,0.0,19.256824122807018,nan,-99.60139827586208,nan,0.0,0.0,9936.084,0.0,0.0,2612.7,0.0
809.0,17.0,29.0,146.0,134.0,105.0,nan,-0.6,-7.83,1.14,4.3,-81.66,146.82,-0.78,0.09,-0.01,-0.73,0.62,-0.21,0.19,1.0,28.38,26.83,0.0747154,0.0,19.256824122807018,nan,-99.60139827586208,nan,0.0,0.0,9936.084,0.0,0.0,0.0,0.0
832.0,18.0,31.0,158.0,137.0,110.0,nan,-0.64,-7.86,1.1,4.3,-81.65,146.82,0.76,0.09,-0.15,-0.73,0.62,-0.21,0.19,1.0,28.38,26.83,0.0747154,0.0,19.256824210526315,nan,-99.60139808429123,nan,0.0,0.0,9936.084,0.0,0.0,2612.7,0.0
851.0,27.0,30.0,135.0,155.0,111.0,nan,-0.66,-8.03,1.3,4.3,-81.63,146.82,0.62,-0.05,-0.08,-0.73,0.62,-0.21,0.19,1.0,28.38,26.83,0.0747154,0.0,19.256824298245615,nan,-99.60139789272031,nan,0.0,0.0,9936.084,0.0,0.0,2612.7,0.0
874.0,26.0,31.0,108.0,159.0,110.0,nan,-0.64,-7.91,1.19,4.3,-81.64,146.82,1.32,-0.12,0.06,-0.73,0.62,-0.21,0.19,1.0,28.36,26.81,0.0747278,0.0,19.256824385964915,nan,-99.60139770114944,nan,0.0,0.0,9936.084,0.0,0.0,2612.7,0.0
906.0,29.0,30.0,77.0,139.0,96.0,nan,-0.65,-7.96,1.19,4.29,-81.64,146.82,-0.36,0.02,-0.22,-0.73,0.62,-0.21,0.19,1.0,28.36,26.81,0.0747278,0.0,19.256824473684212,nan,-99.60139750957856,nan,0.0,0.0,9936.084,0.0,0.0,2612.7,0.0
926.0,30.0,21.0,82.0,155.0,111.0,nan,-0.65,-7.76,1.08,4.3,-81.65,146.81,-0.22,0.09,-0.15,-0.73,0.62,-0.21,0.19,1.0,28.36,26.81,0.0747278,0.0,19.25682456140351,nan,-99.60139731800767,nan,0.0,0.0,9936.084,0.0,0.0,2612.7,0.0
949.0,27.0,30.0,60.0,140.0,110.0,nan,-0.61,-7.93,1.23,4.29,-81.63,146.82,0.97,-0.12,-0.22,-0.73,0.62,-0.21,0.19,1.0,28.36,26.81,0.0747278,0.0,19.25682464912281,nan,-99.6013971264368,nan,0.0,0.0,9936.084,0.0,0.0,2612.7,0.0
968.0,38.0,30.0,124.0,140.0,112.0,nan,-0.75,-7.85,1.12,4.3,-81.65,146.81,-0.99,0.09,-0.15,-0.73,0.62,-0.21,0.19,1.0,28.36,26.81,0.0747278,0.0,19.25682464912281,nan,-99.6013971264368,nan,0.0,0.0,9936.084,0.0,0.0,0.0,0.0
991.0,29.0,21.0,39.0,138.0,109.0,nan,-0.56,-7.75,1.14,4.3,-81.63,146.81,0.97,0.09,-0.08,-0.73,0.62,-0.21,0.19,1.0,28.36,26.81,0.0747278,0.0,19.256824736842105,nan,-99.6013969348659,nan,0.0,0.0,9936.084,0.0,0.0,2612.7,0.0
1010.0,17.0,30.0,67.0,138.0,109.0,nan,-0.77,-8.01,1.31,4.3,-81.62,146.81,0.27,-0.05,-0.29,-0.73,0.62,-0.21,0.19,1.0,28.36,26.81,0.0747278,0.0,19.256824824561406,nan,-99.60139674329503,nan,0.0,0.0,9936.084,0.0,0.0,2612.7,0.0
1033.0,26.0,20.0,77.0,137.0,111.0,nan,-0.57,-7.75,1.03,4.29,-81.67,146.8,-2.32,0.37,-0.36,-0.73,0.62,-0.21,0.19,1.0,28.36,26.81,0.0747278,0.0,19.256825000000003,nan,-99.60139655172416,nan,0.0,0.0,9936.084,0.0,0.0,2612.7,0.0
1053.0,31.0,17.0,67.0,138.0,125.0,nan,-0.72,-7.96,1.17,4.3,-81.63,146.81,2.02,-0.26,-0.01,-0.73,0.62,-0.21,0.19,1.0,28.36,26.81,0.0747278,0.0,19.256825000000003,nan,-99.60139636015326,nan,0.0,0.0,9936.084,1.0,0.0,2612.7,0.0
1076.0,21.0,18.0,136.0,159.0,125.0,nan,-0.61,-7.74,1.09,4.29,-81.64,146.81,-0.15,0.02,-0.29,-0.73,0.62,-0.21,0.19,1.0,28.36,26.81,0.0747278,0.0,19.25682639784946,nan,-99.6013961685824,nan,0.0,0.0,9936.084,0.0,0.0,2612.7,0.0
1102.0,29.0,30.0,87.0,134.0,75.0,nan,-0.61,-8.05,1.29,4.29,-81.63,146.81,0.34,0.02,-0.01,-0.73,0.62,-0.21,0.19,1.0,28.36,26.81,0.0747278,0.0,19.256827096774195,nan,-99.60139597701152,nan,0.0,0.0,9936.084,0.0,0.0,2612.7,0.0
1125.0,18.0,30.0,108.0,137.0,103.0,nan,-0.65,-7.91,1.05,4.29,-81.68,146.8,-2.25,0.23,-0.36,-0.73,0.62,-0.21,0.19,1.0,28.36,26.81,0.0747278,0.0,19.256827096774195,nan,-99.60139597701152,nan,0.0,0.0,9936.084,0.0,0.0,0.0,0.0
1145.0,18.0,30.0,67.0,166.0,123.0,nan,-0.56,-7.86,1.09,4.28,-81.67,146.8,0.76,0.02,-0.22,-0.73,0.62,-0.21,0.19,1.0,28.36,26.81,0.0747278,0.0,19.25682779569892,nan,-99.60139578544063,nan,0.0,0.0,9936.084,0.0,0.0,2612.7,0.0
1167.0,26.0,18.0,67.0,150.0,75.0,nan,-0.64,-8.07,1.22,4.28,-81.67,146.8,-0.01,0.02,-0.22,-0.73,0.62,-0.21,0.19,1.0,28.36,26.81,0.0747278,0.0,19.256828494623658,nan,-99.60139559386975,nan,0.0,0.0,9936.084,0.0,0.0,2612.7,0.0
1187.0,17.0,30.0,108.0,137.0,102.0,nan,-0.64,-7.76,0.94,4.28,-81.71,146.79,-1.2,0.16,-0.08,-0.73,0.62,-0.21,0.19,1.0,28.36,26.81,0.0747278,0.0,19.256829193548384,nan,-99.60139540229888,nan,0.0,0.0,9936.084,0.0,0.0,2612.7,0.0
1210.0,21.0,30.0,52.0,140.0,76.0,nan,-0.7,-7.85,1.16,4.29,-81.64,146.8,3.35,-0.33,0.06,-0.73,0.62,-0.21,0.19,1.0,28.36,26.81,0.0747278,0.0,19.25682989247312,nan,-99.60139521072796,nan,0.0,0.0,9936.084,0.0,0.0,2612.7,0.0
1229.0,17.0,30.0,119.0,155.0,102.0,nan,-0.77,-7.88,1.27,4.3,-81.63,146.8,0.2,-0.12,-0.08,-0.73,0.62,-0.21,0.19,1.0,28.36,26.81,0.0747278,0.0,19.25682989247312,nan,-99.60139521072796,nan,0.0,0.0,9936.084,0.0,0.0,0.0,0.0
1252.0,19.0,30.0,98.0,139.0,109.0,nan,-0.64,-7.58,1.05,4.3,-81.63,146.8,-0.08,0.09,-0.29,-0.73,0.62,-0.21,0.19,1.0,28.36,26.81,0.0747278,0.0,19.256830591397847,nan,-99.6013950191571,nan,0.0,0.0,9936.084,0.0,0.0,2612.0,0.0
1272.0,31.0,29.0,53.0,139.0,110.0,nan,-0.8,-8.02,1.34,4.31,-81.59,146.8,1.74,-0.19,-0.01,-0.73,0.62,-0.21,0.19,1.0,28.36,26.81,0.0747278,0.0,19.256831290322584,nan,-99.60139482758625,nan,0.0,0.0,9936.084,0.0,0.0,2612.0,0.0
1294.0,29.0,32.0,52.0,137.0,108.0,nan,-0.65,-7.8,1.13,4.31,-81.63,146.8,0.13,0.09,-0.29,-0.73,0.62,-0.21,0.19,1.0,28.36,26.81,0.0747278,0.0,19.25683198924731,nan,-99.60139463601533,nan,0.0,0.0,9936.084,0.0,0.0,2612.0,0.0
1321.0,26.0,26.0,77.0,139.0,111.0,nan,-0.55,-8.03,1.28,4.3,-81.64,146.79,-0.57,0.09,-0.22,-0.73,0.62,-0.21,0.19,1.0,28.36,26.81,0.0747278,0.0,19.256832688172047,nan,-99.60139444444445,nan,0.0,0.0,9936.084,0.0,0.0,2612.0,0.0
1344.0,26.0,31.0,108.0,137.0,112.0,nan,-0.59,-7.88,1.01,4.3,-81.69,146.79,-2.18,0.23,-0.22,-0.73,0.62,-0.21,0.19,1.0,28.38,26.83,0.0747105,0.0,19.25683338709678,nan,-99.60139425287358,nan,0.0,0.0,9936.084,0.0,0.0,2612.0,0.0
1365.0,26.0,30.0,52.0,138.0,110.0,nan,-0.49,-7.94,1.11,4.29,-81.67,146.79,1.39,-0.05,-0.15,-0.73,0.62,-0.21,0.19,1.0,28.38,26.83,0.0747105,0.0,19.25683408602151,nan,-99.60139406130268,nan,0.0,0.0,9936.084,0.0,0.0,2612.0,0.0
1388.0,21.0,29.0,51.0,138.0,74.0,nan,-0.62,-8.01,1.21,4.28,-81.66,146.79,0.13,-0.05,-0.22,-0.73,0.62,-0.21,0.19,1.0,28.38,26.83,0.0747105,0.0,19.256834784946236,nan,-99.60139386973181,nan,0.0,0.0,9936.084,0.0,0.0,2612.0,0.0
1408.0,27.0,30.0,55.0,155.0,101.0,nan,-0.53,-7.75,1.04,4.28,-81.68,146.79,-0.43,0.09,-0.01,-0.73,0.62,-0.21,0.19,1.0,28.38,26.83,0.0747105,0.0,19.256834784946236,nan,-99.60139386973181,nan,0.0,0.0,9936.084,0.0,0.0,0.0,0.0
1431.0,18.0,30.0,53.0,138.0,110.0,nan,-0.73,-7.95,1.17,4.29,-81.63,146.79,2.16,-0.26,0.13,-0.73,0.62,-0.21,0.19,1.0,28.38,26.83,0.0747105,0.0,19.256835483870972,nan,-99.60139367816095,nan,0.0,0.0,9936.084,0.0,0.0,2612.0,0.0
1450.0,27.0,27.0,76.0,140.0,111.0,nan,-0.66,-7.81,1.2,4.29,-81.63,146.79,-0.22,0.09,-0.29,-0.73,0.62,-0.21,0.19,1.0,28.38,26.83,0.0747105,0.0,19.2568361827957,nan,-99.60139348659004,nan,0.0,0.0,9936.084,0.0,0.0,2612.0,0.0
1473.0,37.0,27.0,77.0,152.0,110.0,nan,-0.74,-8.0,1.15,4.3,-81.66,146.79,-0.92,0.09,-0.08,-0.73,0.62,-0.21,0.19,1.0,28.38,26.83,0.0747105,0.0,19.256836881720428,nan,-99.60139329501918,nan,0.0,0.0,9936.084,0.0,0.0,2612.0,0.0
1500.0,37.0,26.0,52.0,138.0,75.0,nan,-0.74,-7.84,1.0,4.3,-81.67,146.78,0.13,0.02,-0.08,-0.73,0.62,-0.21,0.19,1.0,28.38,26.83,0.0747105,0.0,19.25683758064516,nan,-99.6013931034483,nan,0.0,0.0,9936.084,0.0,0.0,2612.0,0.0
1522.0,17.0,30.0,107.0,126.0,102.0,nan,-0.7,-7.88,1.26,4.31,-81.62,146.79,2.09,-0.19,-0.08,-0.73,0.62,-0.21,0.19,1.0,28.38,26.83,0.0747105,0.0,19.25683827956989,nan,-99.60139291187741,nan,0.0,0.0,9936.084,0.0,0.0,2612.0,0.0
1542.0,27.0,30.0,67.0,138.0,111.0,nan,-0.64,-7.83,1.22,4.3,-81.63,146.79,-0.71,0.02,-0.43,-0.73,0.62,-0.21,0.19,1.0,28.38,26.83,0.0747105,0.0,19.25683827956989,nan,-99.60139291187741,nan,0.0,0.0,9936.084,0.0,0.0,0.0,0.0
1565.0,17.0,30.0,77.0,155.0,96.0,nan,-0.64,-7.81,1.13,4.31,-81.64,146.78,-0.57,0.16,-0.08,-0.73,0.62,-0.21,0.19,1.0,28.38,26.83,0.0747105,0.0,19.256838978494624,nan,-99.60139272030654,nan,0.0,0.0,9936.084,0.0,0.0,2612.0,0.0
1584.0,17.0,19.0,136.0,133.0,125.0,nan,-0.62,-8.09,1.21,4.3,-81.63,146.78,0.34,0.02,-0.15,-0.73,0.62,-0.21,0.19,1.0,28.38,26.83,0.0747105,0.0,19.25683967741936,nan,-99.60139252873566,nan,0.0,0.0,9936.084,0.0,0.0,2612.0,0.0
1607.0,38.0,30.0,92.0,138.0,110.0,nan,-0.7,-7.97,1.16,4.3,-81.65,146.78,-0.92,0.09,-0.36,-0.73,0.62,-0.21,0.19,1.0,28.38,26.83,0.0747105,0.0,19.256840376344087,nan,-99.60139233716477,nan,0.0,0.0,9936.084,0.0,0.0,2612.0,0.0
1627.0,38.0,30.0,53.0,144.0,111.0,nan,-0.48,-7.71,1.07,4.29,-81.66,146.77,-0.15,0.16,-0.36,-0.73,0.62,-0.21,0.19,1.0,28.38,26.83,0.0747105,0.0,19.256841075268824,nan,-99.60139214559389,nan,0.0,0.0,9936.084,0.0,0.0,2612.0,0.0
1650.0,27.0,30.0,82.0,139.0,110.0,nan,-0.7,-8.04,1.26,4.29,-81.63,146.78,1.11,-0.26,-0.01,-0.73,0.62,-0.21,0.19,1.0,28.38,26.83,0.0747105,0.0,19.25684177419355,nan,-99.60139195402303,nan,0.0,0.0,9936.084,0.0,0.0,2612.0,0.0
1669.0,28.0,31.0,125.0,155.0,105.0,nan,-0.58,-7.8,1.02,4.29,-81.68,146.77,-1.9,0.3,-0.29,-0.73,0.62,-0.21,0.19,1.0,28.38,26.83,0.0747105,0.0,19.25684177419355,nan,-99.60139195402303,nan,0.0,0.0,9936.084,0.0,0.0,0.0,0.0
1692.0,25.0,26.0,89.0,136.0,103.0,nan,-0.61,-7.97,1.32,4.29,-81.61,146.78,0.34,-0.05,-0.22,-0.73,0.62,-0.21,0.19,1.0,28.38,26.83,0.0747105,0.0,19.256842473118287,nan,-99.60139176245211,nan,0.0,0.0,9936.084,0.0,0.0,2612.0,0.0
1718.0,37.0,26.0,136.0,153.0,110.0,nan,-0.66,-7.77,1.06,4.29,-81.65,146.77,-1.69,0.16,-0.29,-0.73,0.62,-0.21,0.19,1.0,28.38,26.83,0.0747105,0.0,19.256843172043013,nan,-99.60139157088126,nan,0.0,0.0,9936.084,0.0,0.0,2612.0,0.0
1741.0,30.0,18.0,86.0,137.0,118.0,nan,-0.63,-7.96,1.22,4.29,-81.62,146.78,1.46,-0.12,0.06,-0.73,0.62,-0.21,0.19,1.0,28.38,26.83,0.0747105,0.0,19.256843870967742,nan,-99.60139137931034,nan,0.0,0.0,9936.084,0.0,0.0,2612.0,0.0
1760.0,19.0,30.0,119.0,133.0,97.0,nan,-0.71,-7.94,1.17,4.29,-81.64,146.77,-1.06,0.09,-0.36,-0.73,0.62,-0.21,0.19,1.0,28.38,26.83,0.0747105,0.0,19.256844569892476,nan,-99.60139118773947,nan,0.0,0.0,9936.084,0.0,0.0,2612.0,0.0
1784.0,25.0,30.0,63.0,125.0,112.0,nan,-0.62,-7.75,1.05,4.29,-81.66,146.77,-0.57,0.16,-0.08,-0.73,0.62,-0.21,0.19,1.0,28.38,26.83,0.0747105,0.0,19.256845268817205,nan,-99.60139099616859,nan,0.0,0.0,9936.084,0.0,0.0,2612.0,0.0
1803.0,27.0,31.0,68.0,124.0,73.0,nan,-0.67,-7.99,1.21,4.29,-81.63,146.77,1.39,-0.19,-0.08,-0.73,0.62,-0.21,0.19,1.0,28.39,26.84,0.074718,0.0,19.256846666666668,nan,-99.6013908045977,nan,0.0,0.0,9936.084,0.0,0.0,2612.0,0.0
1828.0,17.0,17.0,77.0,137.0,102.0,nan,-0.7,-7.83,1.11,4.3,-81.65,146.77,-1.06,0.09,-0.08,-0.73,0.62,-0.21,0.19,1.0,28.39,26.84,0.074718,0.0,19.256846666666668,nan,-99.6013908045977,nan,0.0,0.0,9936.084,0.0,0.0,0.0,0.0
1848.0,19.0,25.0,78.0,153.0,111.0,nan,-0.6,-7.82,1.15,4.3,-81.62,146.77,1.6,-0.05,-0.15,-0.73,0.62,-0.21,0.19,1.0,28.39,26.84,0.074718,0.0,19.256846666666668,nan,-99.60139061302682,nan,0.0,0.0,9936.084,1.0,0.0,2612.0,0.0
1870.0,26.0,31.0,77.0,156.0,110.0,nan,-0.55,-7.78,1.06,4.3,-81.66,146.76,-1.34,0.23,-0.29,-0.73,0.62,-0.21,0.19,1.0,28.39,26.84,0.074718,0.0,19.256846695402302,nan,-99.60139042145596,nan,0.0,0.0,9936.084,0.0,0.0,2612.0,0.0
1897.0,17.0,30.0,87.0,138.0,76.0,nan,-0.73,-8.0,1.22,4.3,-81.62,146.77,1.46,-0.26,-0.08,-0.73,0.62,-0.21,0.19,1.0,28.39,26.84,0.074718,0.0,19.256846709770116,nan,-99.60139022988506,nan,0.0,0.0,9936.084,0.0,0.0,2612.0,0.0
1920.0,23.0,26.0,88.0,139.0,103.0,nan,-0.58,-7.85,1.14,4.29,-81.65,146.76,-1.41,0.3,-0.36,-0.73,0.62,-0.21,0.19,1.0,28.39,26.84,0.074718,0.0,19.256846724137933,nan,-99.6013900383142,nan,0.0,0.0,9936.084,0.0,0.0,2612.0,0.0
1939.0,30.0,21.0,81.0,155.0,109.0,nan,-0.65,-7.86,1.11,4.29,-81.65,146.76,0.34,0.02,-0.29,-0.73,0.62,-0.21,0.19,1.0,28.39,26.84,0.074718,0.0,19.256846738505747,nan,-99.60138984674332,nan,0.0,0.0,9936.084,0.0,0.0,2612.0,0.0
1962.0,19.0,31.0,109.0,139.0,111.0,nan,-0.61,-7.96,1.19,4.29,-81.64,146.76,0.2,-0.12,-0.08,-0.73,0.62,-0.21,0.19,1.0,28.39,26.84,0.074718,0.0,19.25684675287356,nan,-99.60138965517243,nan,0.0,0.0,9936.084,0.0,0.0,2612.0,0.0
1982.0,38.0,31.0,52.0,137.0,111.0,nan,-0.63,-7.76,1.04,4.29,-81.65,146.76,0.06,0.02,-0.22,-0.73,0.62,-0.21,0.19,1.0,28.39,26.84,0.074718,0.0,19.25684675287356,nan,-99.60138965517243,nan,0.0,0.0,9936.084,0.0,0.0,0.0,0.0
2004.0,31.0,26.0,78.0,139.0,126.0,nan,-0.61,-7.93,1.32,4.29,-81.6,146.76,1.95,-0.19,-0.01,-0.73,0.62,-0.21,0.19,1.0,28.39,26.84,0.074718,0.0,19.25684676724138,nan,-99.60138946360155,nan,0.0,0.0,9936.084,0.0,0.0,2612.0,0.0
2024.0,19.0,30.0,119.0,148.0,97.0,nan,-0.71,-7.96,1.16,4.29,-81.64,146.76,-2.11,0.16,-0.43,-0.73,0.62,-0.21,0.19,1.0,28.39,26.84,0.074718,0.0,19.256846781609195,nan,-99.60138927203067,nan,0.0,0.0,9936.084,0.0,0.0,2612.0,0.0
2047.0,27.0,26.0,103.0,144.0,124.0,nan,-0.61,-7.77,1.07,4.29,-81.64,146.76,0.13,0.09,-0.08,-0.73,0.62,-0.21,0.19,1.0,28.39,26.84,0.074718,0.0,19.256846795977015,nan,-99.60138908045978,nan,0.0,0.0,9936.084,0.0,0.0,2612.0,0.0
2066.0,26.0,30.0,72.0,155.0,110.0,nan,-0.69,-8.0,1.24,4.29,-81.62,146.76,1.18,-0.12,-0.08,-0.73,0.62,-0.21,0.19,1.0,28.39,26.84,0.074718,0.0,19.25684681034483,nan,-99.6013888888889,nan,0.0,0.0,9936.084,0.0,0.0,2612.0,0.0
2089.0,37.0,26.0,77.0,136.0,112.0,nan,-0.6,-7.83,1.1,4.29,-81.64,146.75,0.27,0.02,-0.36,-0.73,0.62,-0.21,0.19,1.0,28.39,26.84,0.074718,0.0,19.256846824712646,nan,-99.60138869731804,nan,0.0,0.0,9936.084,0.0,0.0,2612.0,0.0
2115.0,27.0,27.0,88.0,132.0,110.0,nan,-0.72,-8.02,1.24,4.29,-81.62,146.76,0.55,-0.19,-0.08,-0.73,0.62,-0.21,0.19,1.0,28.39,26.84,0.074718,0.0,19.25684683908046,nan,-99.60138850574712,nan,0.0,0.0,9936.084,0.0,0.0,2612.0,0.0
2138.0,21.0,31.0,108.0,139.0,125.0,nan,-0.57,-7.71,1.06,4.29,-81.64,146.75,-0.43,0.16,-0.08,-0.73,0.62,-0.21,0.19,1.0,28.39,26.84,0.074718,0.0,19.25684683908046,nan,-99.60138850574712,nan,0.0,0.0,9936.084,0.0,0.0,0.0,0.0
2158.0,37.0,26.0,125.0,133.0,111.0,nan,-0.69,-7.88,1.31,4.3,-81.59,146.76,1.95,-0.12,-0.01,-0.73,0.62,-0.21,0.19,1.0,28.39,26.84,0.074718,0.0,19.256846853448273,nan,-99.60138831417628,nan,0.0,0.0,9936.084,0.0,0.0,2612.0,0.0
2181.0,31.0,17.0,77.0,137.0,125.0,nan,-0.62,-7.9,1.21,4.29,-81.63,146.75,-2.18,0.23,-0.5,-0.73,0.62,-0.21,0.19,1.0,28.39,26.84,0.074718,0.0,19.256846867816094,nan,-99.6013881226054,nan,0.0,0.0,9936.084,0.0,0.0,2612.0,0.0
2200.0,18.0,31.0,77.0,140.0,110.0,nan,-0.68,-7.78,1.0,4.29,-81.67,146.75,-1.48,0.23,-0.36,-0.73,0.62,-0.21,0.19,1.0,28.39,26.84,0.074718,0.0,19.256846882183908,nan,-99.60138793103448,nan,0.0,0.0,9936.084,0.0,0.0,2612.0,0.0
2223.0,25.0,26.0,88.0,137.0,109.0,nan,-0.64,-8.03,1.12,4.29,-81.67,146.74,0.2,0.16,-0.01,-0.73,0.62,-0.21,0.19,1.0,28.39,26.84,0.074718,0.0,19.25684689655173,nan,-99.6013877394636,nan,0.0,0.0,9936.084,0.0,0.0,2612.0,0.0
2243.0,29.0,29.0,51.0,137.0,109.0,nan,-0.72,-7.97,1.05,4.3,-81.69,146.74,-0.57,0.02,-0.15,-0.73,0.62,-0.21,0.19,1.0,28.39,26.84,0.074718,0.0,19.256846910919542,nan,-99.60138754789274,nan,0.0,0.0,9936.084,0.0,0.0,2612.0,0.0
2266.0,22.0,18.0,76.0,139.0,110.0,nan,-0.69,-8.0,1.28,4.29,-81.62,146.75,2.02,-0.4,-0.08,-0.73,0.62,-0.21,0.19,1.0,28.41,26.83,0.0747056,0.0,19.25684692528736,nan,-99.60138735632184,nan,0.0,0.0,9936.084,0.0,0.0,2612.0,0.0
2297.0,28.0,31.0,77.0,154.0,75.0,nan,-0.57,-7.75,1.14,4.29,-81.63,146.75,-0.57,0.09,-0.01,-0.73,0.62,-0.21,0.19,1.0,28.41,26.83,0.0747056,0.0,19.25684692528736,nan,-99.60138735632184,nan,0.0,0.0,9936.084,0.0,0.0,0.0,0.0
2317.0,17.0,31.0,77.0,144.0,103.0,nan,-0.64,-7.85,1.23,4.29,-81.6,146.75,1.46,-0.05,-0.15,-0.73,0.62,-0.21,0.19,1.0,28.41,26.83,0.0747056,0.0,19.256846939655173,nan,-99.60138716475097,nan,0.0,0.0,9936.084,0.0,0.0,2612.0,0.0
2340.0,26.0,17.0,99.0,159.0,124.0,nan,-0.61,-7.95,1.32,4.29,-81.6,146.75,-0.5,-0.05,-0.29,-0.73,0.62,-0.21,0.19,1.0,28.41,26.83,0.0747056,0.0,19.256846954022993,nan,-99.6013869731801,nan,0.0,0.0,9936.084,0.0,0.0,2612.0,0.0
2359.0,30.0,21.0,41.0,149.0,110.0,nan,-0.62,-7.73,1.08,4.29,-81.64,146.74,-1.97,0.3,-0.29,-0.73,0.62,-0.21,0.19,1.0,28.41,26.83,0.0747056,0.0,19.256846968390807,nan,-99.60138678160921,nan,0.0,0.0,9936.084,0.0,0.0,2612.0,0.0
2382.0,29.0,29.0,157.0,134.0,105.0,nan,-0.66,-7.96,1.17,4.29,-81.63,146.74,0.55,0.02,-0.01,-0.73,0.62,-0.21,0.19,1.0,28.41,26.83,0.0747056,0.0,19.25684698275862,nan,-99.60138659003833,nan,0.0,0.0,9936.084,0.0,0.0,2612.0,0.0
2401.0,27.0,30.0,139.0,133.0,111.0,nan,-0.74,-7.97,1.16,4.29,-81.65,146.74,-1.13,0.09,-0.29,-0.73,0.62,-0.21,0.19,1.0,28.41,26.83,0.0747056,0.0,19.25684699712644,nan,-99.60138639846745,nan,0.0,0.0,9936.084,0.0,0.0,2612.0,0.0
2424.0,26.0,31.0,109.0,138.0,111.0,nan,-0.64,-7.77,1.02,4.29,-81.67,146.73,-0.57,0.16,-0.22,-0.73,0.62,-0.21,0.19,1.0,28.41,26.83,0.0747056,0.0,19.25684699712644,nan,-99.60138639846745,nan,0.0,0.0,9936.084,0.0,0.0,0.0,0.0
2444.0,26.0,26.0,147.0,160.0,125.0,nan,-0.67,-8.02,1.18,4.3,-81.64,146.74,1.39,-0.19,-0.08,-0.73,0.62,-0.21,0.19,1.0,28.41,26.83,0.0747056,0.0,19.256847011494255,nan,-99.60138620689656,nan,0.0,0.0,9936.084,0.0,0.0,2612.0,0.0
2467.0,37.0,25.0,99.0,149.0,111.0,nan,-0.57,-7.86,1.08,4.3,-81.65,146.74,1.11,-0.12,-0.15,-0.73,0.62,-0.21,0.19,1.0,28.41,26.83,0.0747056,0.0,19.256847025862072,nan,-99.60138601532569,nan,0.0,0.0,9936.084,0.0,0.0,2612.0,0.0
2493.0,31.0,30.0,67.0,137.0,110.0,nan,-0.67,-7.97,1.33,4.3,-81.61,146.74,1.32,-0.26,-0.08,-0.73,0.62,-0.21,0.19,1.0,28.41,26.83,0.0747056,0.0,19.256847040229886,nan,-99.6013858237548,nan,0.0,0.0,9936.084,0.0,0.0,2612.0,0.0
2516.0,27.0,27.0,88.0,153.0,112.0,nan,-0.5,-7.62,1.1,4.29,-81.64,146.74,-1.48,0.23,-0.29,-0.73,0.62,-0.21,0.19,1.0,28.41,26.83,0.0747056,0.0,19.256847054597706,nan,-99.60138563218392,nan,0.0,0.0,9936.084,0.0,0.0,2612.0,0.0
2536.0,18.0,30.0,108.0,160.0,116.0,nan,-0.65,-7.89,1.26,4.29,-81.6,146.74,1.6,-0.19,-0.01,-0.73,0.62,-0.21,0.19,1.0,28.41,26.83,0.0747056,0.0,19.25684706896552,nan,-99.60138544061306,nan,0.0,0.0,9936.084,0.0,0.0,2612.0,0.0
2559.0,37.0,29.0,88.0,155.0,110.0,nan,-0.64,-8.0,1.19,4.29,-81.65,146.74,-2.39,0.3,-0.43,-0.73,0.62,-0.21,0.19,1.0,28.41,26.83,0.0747056,0.0,19.25684708333334,nan,-99.60138524904214,nan,0.0,0.0,9936.084,0.0,0.0,2612.0,0.0
2578.0,28.0,31.0,108.0,154.0,110.0,nan,-0.69,-7.8,0.97,4.29,-81.68,146.73,-0.92,0.23,-0.29,-0.73,0.62,-0.21,0.19,1.0,28.41,26.83,0.0747056,0.0,19.25684708333334,nan,-99.60138524904214,nan,0.0,0.0,9936.084,0.0,0.0,0.0,0.0
2601.0,31.0,24.0,136.0,138.0,110.0,nan,-0.68,-8.03,1.23,4.29,-81.64,146.73,1.88,-0.19,-0.01,-0.73,0.62,-0.21,0.19,1.0,28.41,26.83,0.0747056,0.0,19.256847097701154,nan,-99.60138505747129,nan,0.0,0.0,9936.084,0.0,0.0,2612.0,0.0
2620.0,26.0,27.0,88.0,139.0,111.0,nan,-0.77,-7.87,1.09,4.3,-81.66,146.73,-0.85,0.02,-0.08,-0.73,0.62,-0.21,0.19,1.0,28.41,26.83,0.0747056,0.0,19.256847112068968,nan,-99.60138486590041,nan,0.0,0.0,9936.084,0.0,0.0,2612.0,0.0
2643.0,28.0,26.0,88.0,136.0,125.0,nan,-0.62,-7.8,1.12,4.3,-81.63,146.73,1.46,-0.05,-0.15,-0.73,0.62,-0.21,0.19,1.0,28.41,26.83,0.0747056,0.0,19.256847126436785,nan,-99.6013846743295,nan,0.0,0.0,9936.084,0.0,0.0,2612.0,0.0
2663.0,25.0,29.0,68.0,125.0,111.0,nan,-0.75,-8.02,1.28,4.31,-81.62,146.73,0.41,-0.12,-0.22,-0.73,0.62,-0.21,0.19,1.0,28.41,26.83,0.0747056,0.0,19.2568471408046,nan,-99.60138448275862,nan,0.0,0.0,9936.084,0.0,0.0,2612.0,0.0
2686.0,18.0,17.0,66.0,137.0,109.0,nan,-0.62,-7.89,1.24,4.3,-81.6,146.73,1.67,-0.19,-0.15,-0.73,0.62,-0.21,0.19,1.0,28.41,26.83,0.0747056,0.0,19.25684715517242,nan,-99.60138429118776,nan,0.0,0.0,9936.084,0.0,0.0,2612.0,0.0
2712.0,27.0,29.0,67.0,137.0,111.0,nan,-0.6,-7.98,1.26,4.29,-81.63,146.73,-1.62,0.16,-0.29,-0.73,0.62,-0.21,0.19,1.0,28.41,26.83,0.0747056,0.0,19.25684715517242,nan,-99.60138429118776,nan,0.0,0.0,9936.084,0.0,0.0,0.0,0.0
2735.0,20.0,30.0,77.0,140.0,105.0,nan,-0.56,-7.78,0.97,4.28,-81.67,146.72,-1.48,0.3,-0.36,-0.73,0.62,-0.21,0.19,1.0,28.34,26.81,0.0747097,0.0,19.256847169540233,nan,-99.60138409961685,nan,0.0,0.0,9936.084,0.0,0.0,2612.0,0.0
2757.0,26.0,26.0,88.0,156.0,117.0,nan,-0.67,-8.04,1.24,4.29,-81.64,146.73,1.6,-0.12,0.06,-0.73,0.62,-0.21,0.19,1.0,28.34,26.81,0.0747097,0.0,19.256847183908054,nan,-99.60138390804599,nan,0.0,0.0,9936.084,0.0,0.0,2612.0,0.0
2779.0,27.0,17.0,67.0,137.0,110.0,nan,-0.62,-7.83,1.07,4.29,-81.66,146.72,-0.99,0.16,-0.22,-0.73,0.62,-0.21,0.19,1.0,28.34,26.81,0.0747097,0.0,19.256847198275867,nan,-99.60138371647511,nan,0.0,0.0,9936.084,0.0,0.0,2612.0,0.0
2799.0,28.0,27.0,78.0,153.0,125.0,nan,-0.66,-7.86,1.18,4.29,-81.63,146.72,1.6,-0.12,-0.08,-0.73,0.62,-0.21,0.19,1.0,28.34,26.81,0.0747097,0.0,19.25684721264368,nan,-99.60138352490422,nan,0.0,0.0,9936.084,0.0,0.0,2612.0,0.0
2822.0,26.0,27.0,88.0,138.0,111.0,nan,-0.68,-7.97,1.2,4.29,-81.64,146.72,-0.5,-0.05,-0.22,-0.73,0.62,-0.21,0.19,1.0,28.34,26.81,0.0747097,0.0,19.256847227011498,nan,-99.60138322580646,nan,0.0,0.0,9936.083,0.0,1.0,2612.0,0.0
2841.0,17.0,31.0,66.0,139.0,97.0,nan,-0.69,-7.74,1.07,4.3,-81.64,146.72,-0.08,0.02,-0.08,-0.73,0.62,-0.21,0.19,1.0,28.34,26.81,0.0747097,0.0,19.256847227011498,nan,-99.60138322580646,nan,0.0,0.0,9936.083,0.0,0.0,0.0,0.0
2864.0,30.0,29.0,59.0,136.0,123.0,nan,-0.67,-7.89,1.22,4.29,-81.63,146.72,-1.41,0.02,-0.29,-0.73,0.62,-0.21,0.19,1.0,28.34,26.81,0.0747097,0.0,19.25684724137931,nan,-99.6013831182796,nan,0.0,0.0,9936.083,0.0,0.0,2612.0,0.0
2891.0,26.0,30.0,124.0,153.0,110.0,nan,-0.51,-7.72,1.0,4.28,-81.66,146.72,-0.92,0.23,-0.29,-0.73,0.62,-0.21,0.19,1.0,28.34,26.81,0.0747097,0.0,19.256847255747132,nan,-99.6013830107527,nan,0.0,0.0,9936.083,0.0,0.0,2612.0,0.0
2913.0,31.0,29.0,40.0,154.0,111.0,nan,-0.68,-8.02,1.25,4.29,-81.61,146.72,1.95,-0.26,-0.08,-0.73,0.62,-0.21,0.19,1.0,28.34,26.81,0.0747097,0.0,19.256847270114946,nan,-99.60138290322581,nan,0.0,0.0,9936.083,0.0,0.0,2612.0,0.0
2933.0,27.0,30.0,136.0,134.0,110.0,nan,-0.56,-7.83,1.14,4.27,-81.65,146.72,-1.69,0.09,-0.57,-0.73,0.62,-0.21,0.19,1.0,28.34,26.81,0.0747097,0.0,19.25684728448276,nan,-99.60138279569894,nan,0.0,0.0,9936.083,0.0,0.0,2612.0,0.0
2956.0,17.0,30.0,99.0,159.0,111.0,nan,-0.63,-7.72,1.04,4.27,-81.64,146.72,0.9,-0.19,-0.36,-0.73,0.62,-0.21,0.19,1.0,28.34,26.81,0.0747097,0.0,19.25684729885058,nan,-99.60138268817205,nan,0.0,0.0,9936.083,0.0,0.0,2612.0,0.0
2976.0,26.0,30.0,146.0,134.0,111.0,nan,-0.6,-8.04,1.3,4.26,-81.61,146.72,0.83,-0.12,-0.22,-0.73,0.62,-0.21,0.19,1.0,28.34,26.81,0.0747097,0.0,19.256847313218394,nan,-99.60138258064516,nan,0.0,0.0,9936.083,0.0,0.0,2612.0,0.0
2999.0,30.0,21.0,135.0,133.0,111.0,nan,-0.78,-7.87,1.04,4.27,-81.64,146.72,-1.13,0.16,-0.43,-0.73,0.62,-0.21,0.19,1.0,28.34,26.81,0.0747097,0.0,19.256847313218394,nan,-99.60138258064516,nan,0.0,0.0,9936.083,0.0,0.0,0.0,0.0
3018.0,27.0,31.0,109.0,139.0,111.0,nan,-0.63,-7.85,1.19,4.26,-81.61,146.72,1.6,-0.12,-0.36,-0.73,0.62,-0.21,0.19,1.0,28.34,26.81,0.0747097,0.0,19.25684732758621,nan,-99.60138247311829,nan,0.0,0.0,9936.083,0.0,0.0,2612.1,0.0
3041.0,37.0,30.0,109.0,139.0,108.0,nan,-0.62,-7.81,1.1,4.27,-81.63,146.72,-1.9,0.23,-0.36,-0.73,0.62,-0.21,0.19,1.0,28.34,26.81,0.0747097,0.0,19.256847341954025,nan,-99.60138236559143,nan,0.0,0.0,9936.083,0.0,0.0,2612.1,0.0
3067.0,26.0,30.0,77.0,138.0,111.0,nan,-0.62,-7.81,1.1,4.27,-81.63,146.72,0.0,0.0,0.0,-0.73,0.62,-0.21,0.19,1.0,28.34,26.81,0.0747097,0.0,19.25684735632184,nan,-99.60138225806452,nan,0.0,0.0,9936.083,0.0,0.0,2612.1,0.0
3085.0,26.0,26.0,77.0,144.0,111.0,nan,-0.64,-8.06,1.28,4.27,-81.62,146.72,-0.64,0.02,-0.36,-0.73,0.62,-0.21,0.19,1.0,28.34,26.81,0.0747097,0.0,19.25684737068966,nan,-99.60138215053765,nan,0.0,0.0,9936.083,0.0,0.0,2612.1,0.0
3109.0,38.0,31.0,109.0,138.0,112.0,nan,-0.65,-7.76,1.01,4.27,-81.66,146.72,-1.06,0.02,-0.36,-0.73,0.62,-0.21,0.19,1.0,28.34,26.81,0.0747097,0.0,19.256847385057473,nan,-99.60138204301079,nan,0.0,0.0,9936.083,0.0,0.0,2612.1,0.0
3132.0,17.0,20.0,124.0,155.0,75.0,nan,-0.62,-8.0,1.21,4.27,-81.63,146.72,1.32,-0.19,-0.01,-0.73,0.62,-0.21,0.19,1.0,28.34,26.81,0.0747097,0.0,19.256847399425293,nan,-99.60138193548387,nan,0.0,0.0,9936.083,0.0,0.0,2612.1,0.0
3152.0,17.0,29.0,93.0,139.0,112.0,nan,-0.63,-7.83,1.13,4.27,-81.62,146.72,0.48,-0.19,-0.15,-0.73,0.62,-0.21,0.19,1.0,28.34,26.81,0.0747097,0.0,19.256847399425293,nan,-99.60138193548387,nan,0.0,0.0,9936.083,0.0,0.0,0.0,0.0
3175.0,23.0,29.0,146.0,133.0,117.0,nan,-0.32,-7.46,1.21,4.24,-81.58,146.72,1.46,-0.12,-0.43,-0.73,0.62,-0.21,0.19,1.0,28.34,26.81,0.0747097,0.0,19.256847413793107,nan,-99.601381827957,nan,0.0,0.0,9936.083,0.0,0.0,2612.1,0.0
3194.0,27.0,26.0,40.0,132.0,110.0,nan,-0.22,-7.65,1.45,4.2,-81.55,146.73,0.34,-0.26,-0.71,-0.73,0.62,-0.21,0.19,1.0,28.36,26.88,0.0747154,0.0,19.25684742816092,nan,-99.60138172043011,nan,0.0,0.0,9936.083,0.0,0.0,2612.1,0.0
3219.0,26.0,27.0,108.0,139.0,126.0,nan,-0.02,-7.79,1.22,4.14,-81.67,146.72,-5.96,0.44,-1.34,-0.73,0.62,-0.21,0.19,1.0,28.36,26.88,0.0747154,0.0,19.256847442528738,nan,-99.60138161290325,nan,0.0,0.0,9936.083,0.0,0.0,2612.1,0.0
3239.0,37.0,30.0,66.0,133.0,110.0,nan,0.0,-8.1,0.89,4.07,-81.76,146.7,-3.51,0.37,-1.2,-0.73,0.62,-0.21,0.19,1.0,28.36,26.88,0.0747154,0.0,19.25684745689655,nan,-99.60138150537635,nan,0.0,0.0,9936.083,0.0,0.0,2612.1,0.0
3262.0,27.0,30.0,77.0,136.0,119.0,nan,-0.39,-8.01,1.15,4.0,-81.68,146.72,2.37,-0.4,-0.36,-0.73,0.62,-0.21,0.19,1.0,28.36,26.88,0.0747154,0.0,19.256847471264372,nan,-99.60138139784947,nan,0.0,0.0,9936.083,0.0,0.0,2612.1,0.0
3288.0,37.0,26.0,89.0,137.0,111.0,nan,-0.38,-7.84,1.27,3.98,-81.63,146.72,1.95,-0.4,-0.36,-0.73,0.62,-0.21,0.19,1.0,28.36,26.88,0.0747154,0.0,19.256847485632186,nan,-99.6013812903226,nan,0.0,0.0,9936.083,0.0,0.0,2612.1,0.0
3311.0,38.0,30.0,108.0,154.0,112.0,nan,-0.53,-8.01,1.32,3.96,-81.58,146.73,1.88,-0.47,-0.71,-0.73,0.62,-0.21,0.19,1.0,28.36,26.88,0.0747154,0.0,19.256847485632186,nan,-99.6013812903226,nan,0.0,0.0,9936.083,0.0,0.0,0.0,0.0
3331.0,37.0,31.0,108.0,134.0,76.0,nan,-0.03,-7.77,1.41,3.9,-81.57,146.73,-0.57,-0.05,-0.99,-0.73,0.62,-0.21,0.2,1.0,28.36,26.88,0.0747154,0.0,19.256847500000006,nan,-99.60138118279572,nan,0.0,0.0,9936.083,0.0,0.0,2612.1,0.0
3353.0,17.0,30.0,77.0,124.0,101.0,nan,-0.13,-8.15,1.44,3.86,-81.59,146.73,-1.55,-0.05,-0.64,-0.73,0.62,-0.21,0.2,1.0,28.36,26.88,0.0747154,0.0,19.25684751436782,nan,-99.60138107526882,nan,0.0,0.0,9936.083,0.0,0.0,2612.1,0.0
3373.0,27.0,31.0,67.0,126.0,111.0,nan,-0.0,-8.13,1.14,3.81,-81.7,146.72,-5.26,0.44,-0.64,-0.73,0.62,-0.21,0.2,1.0,28.36,26.88,0.0747154,0.0,19.256847528735634,nan,-99.60138096774196,nan,0.0,0.0,9936.083,0.0,0.0,2612.1,0.0
3396.0,32.0,30.0,107.0,153.0,111.0,nan,-0.18,-8.11,0.79,3.77,-81.77,146.71,-2.04,0.09,-0.5,-0.73,0.62,-0.21,0.2,1.0,28.36,26.88,0.0747154,0.0,19.25684754310345,nan,-99.60138086021507,nan,0.0,0.0,9936.083,0.0,0.0,2612.1,0.0
3415.0,28.0,31.0,108.0,155.0,110.0,nan,-0.11,-7.84,1.07,3.74,-81.7,146.73,3.35,-0.68,-0.08,-0.73,0.62,-0.21,0.2,1.0,28.36,26.88,0.0747154,0.0,19.256847557471264,nan,-99.60138075268817,nan,0.0,0.0,9936.083,0.0,0.0,2612.1,0.0
3438.0,17.0,30.0,52.0,125.0,98.0,nan,-0.4,-7.91,1.19,3.73,-81.66,146.74,1.88,-0.4,-0.22,-0.73,0.62,-0.21,0.2,1.0,28.36,26.88,0.0747154,0.0,19.256847557471264,nan,-99.60138075268817,nan,0.0,0.0,9936.083,0.0,0.0,0.0,0.0
3458.0,26.0,27.0,88.0,161.0,110.0,nan,-0.22,-7.96,1.21,3.7,-81.66,146.74,0.2,-0.12,-0.15,-0.73,0.62,-0.21,0.2,1.0,28.36,26.88,0.0747154,0.0,19.256847571839085,nan,-99.60138064516129,nan,0.0,0.0,9936.083,0.0,0.0,2612.1,0.0
3481.0,27.0,31.0,78.0,153.0,104.0,nan,-0.18,-8.0,1.27,3.66,-81.64,146.75,-1.41,-0.12,-0.01,-0.73,0.62,-0.21,0.2,1.0,28.36,26.88,0.0747154,0.0,19.2568475862069,nan,-99.60138053763443,nan,0.0,0.0,9936.083,0.0,0.0,2612.1,0.0
3507.0,25.0,17.0,60.0,138.0,118.0,nan,-0.36,-7.94,1.08,3.65,-81.67,146.76,-1.34,-0.26,0.06,-0.73,0.62,-0.21,0.2,1.0,28.36,26.88,0.0747154,0.0,19.256847600574712,nan,-99.60138043010755,nan,0.0,0.0,9936.083,0.0,0.0,2612.1,0.0
3530.0,30.0,31.0,135.0,134.0,111.0,nan,-0.41,-7.93,1.05,3.65,-81.68,146.77,0.13,-0.54,0.27,-0.73,0.62,-0.21,0.2,1.0,28.36,26.88,0.0747154,0.0,19.256847614942533,nan,-99.60138032258064,nan,0.0,0.0,9936.083,0.0,0.0,2612.1,0.0
3549.0,27.0,31.0,158.0,149.0,125.0,nan,-0.46,-7.81,1.07,3.64,-81.66,146.77,1.32,-0.26,-0.08,-0.73,0.62,-0.21,0.2,1.0,28.36,26.88,0.0747154,0.0,19.256847629310347,nan,-99.60138021505378,nan,0.0,0.0,9936.083,0.0,0.0,2612.1,0.0
3572.0,27.0,26.0,173.0,155.0,124.0,nan,-0.44,-7.95,1.27,3.64,-81.59,146.79,2.93,-0.82,0.55,-0.73,0.62,-0.21,0.2,1.0,28.36,26.88,0.0747154,0.0,19.256847643678164,nan,-99.60138010752691,nan,0.0,0.0,9936.083,0.0,0.0,2612.1,0.0
3592.0,28.0,30.0,98.0,138.0,125.0,nan,-0.42,-7.87,1.35,3.64,-81.57,146.8,0.06,-0.47,-0.01,-0.73,0.62,-0.21,0.2,1.0,28.36,26.88,0.0747154,0.0,19.256847643678164,nan,-99.60138010752691,nan,0.0,0.0,9936.083,0.0,0.0,0.0,0.0
3614.0,26.0,30.0,79.0,155.0,96.0,nan,-0.23,-7.82,1.21,3.62,-81.58,146.81,-0.29,-0.33,-0.01,-0.73,0.62,-0.21,0.2,1.0,28.36,26.88,0.0747154,0.0,19.256847658045977,nan,-99.60137999999999,nan,0.0,0.0,9936.083,0.0,0.0,2612.1,0.0
3634.0,31.0,30.0,99.0,159.0,136.0,nan,-0.06,-7.62,1.35,3.57,-81.55,146.82,0.27,-0.75,-0.5,-0.73,0.62,-0.21,0.2,1.0,28.36,26.88,0.0747154,0.0,19.25684767241379,nan,-99.60137989247312,nan,0.0,0.0,9936.083,0.0,0.0,2612.1,0.0
3657.0,26.0,30.0,52.0,154.0,125.0,nan,0.05,-7.66,1.05,3.48,-81.64,146.83,-1.48,-0.4,-0.64,-0.73,0.62,-0.21,0.2,1.0,28.38,26.91,0.0747138,0.0,19.25684768678161,nan,-99.60137978494626,nan,0.0,0.0,9936.083,0.0,0.0,2612.1,0.0
3689.0,27.0,26.0,52.0,138.0,111.0,nan,-0.14,-8.1,1.12,3.44,-81.63,146.84,0.83,-0.75,-0.57,-0.73,0.62,-0.21,0.2,1.0,28.38,26.91,0.0747138,0.0,19.256847701149425,nan,-99.60137967741937,nan,0.0,0.0,9936.083,0.0,0.0,2612.1,0.0
3708.0,28.0,31.0,55.0,161.0,124.0,nan,-0.14,-7.84,1.23,3.4,-81.6,146.86,1.18,-0.89,-0.71,-0.73,0.62,-0.21,0.2,1.0,28.38,26.91,0.0747138,0.0,19.256847715517246,nan,-99.60137956989247,nan,0.0,0.0,9936.083,0.0,0.0,2612.1,0.0
3731.0,29.0,18.0,156.0,166.0,110.0,nan,-0.15,-8.05,1.38,3.36,-81.55,146.88,1.74,-1.24,-0.43,-0.73,0.62,-0.21,0.2,1.0,28.38,26.91,0.0747138,0.0,19.25684772988506,nan,-99.60137946236561,nan,0.0,0.0,9936.083,0.0,0.0,2612.1,0.0
3751.0,27.0,26.0,172.0,149.0,110.0,nan,-0.18,-7.91,1.36,3.33,-81.55,146.9,-0.64,-0.96,-0.29,-0.73,0.62,-0.21,0.2,1.0,28.38,26.91,0.0747138,0.0,19.25684772988506,nan,-99.60137946236561,nan,0.0,0.0,9936.083,0.0,0.0,0.0,0.0
3774.0,30.0,29.0,161.0,156.0,111.0,nan,-0.05,-7.86,1.27,3.29,-81.55,146.92,-0.43,-1.1,-0.57,-0.73,0.62,-0.21,0.2,1.0,28.38,26.91,0.0747138,0.0,19.256847744252873,nan,-99.60137935483873,nan,0.0,0.0,9936.083,0.0,0.0,2612.1,0.0
3793.0,26.0,30.0,73.0,139.0,98.0,nan,-0.07,-8.01,1.24,3.24,-81.58,146.94,-1.97,-0.96,-0.78,-0.73,0.62,-0.21,0.2,1.0,28.38,26.91,0.0747138,0.0,19.25684775862069,nan,-99.60137924731183,nan,0.0,0.0,9936.083,0.0,0.0,2612.1,0.0
3816.0,31.0,30.0,88.0,141.0,111.0,nan,0.03,-8.04,1.06,3.15,-81.63,146.99,0.2,-1.52,-0.08,-0.73,0.62,-0.21,0.2,1.0,28.38,26.91,0.0747138,0.0,19.256847772988504,nan,-99.60137913978497,nan,0.0,0.0,9936.083,0.0,0.0,2612.1,0.0
3842.0,26.0,30.0,78.0,136.0,110.0,nan,0.03,-8.04,1.06,3.15,-81.63,146.99,0.0,0.0,0.0,-0.73,0.62,-0.21,0.2,1.0,28.38,26.91,0.0747138,0.0,19.256847787356325,nan,-99.60137903225808,nan,0.0,0.0,9936.083,0.0,0.0,2612.1,0.0
3859.0,22.0,17.0,136.0,133.0,123.0,nan,-0.02,-7.98,1.35,3.08,-81.54,147.06,2.23,-1.94,-0.36,-0.73,0.62,-0.2,0.2,1.0,28.38,26.91,0.0747138,0.0,19.25684780172414,nan,-99.6013789247312,nan,0.0,0.0,9936.083,0.0,0.0,2612.1,0.0
3884.0,27.0,38.0,76.0,138.0,110.0,nan,0.11,-7.82,1.37,3.02,-81.54,147.09,-0.64,-1.8,-0.5,-0.73,0.62,-0.2,0.2,1.0,28.38,26.91,0.0747138,0.0,19.256847816091952,nan,-99.60137881720429,nan,0.0,0.0,9936.083,0.0,0.0,2612.1,0.0
3907.0,27.0,30.0,77.0,137.0,111.0,nan,0.1,-7.85,1.32,2.98,-81.54,147.13,-0.64,-1.94,-0.15,-0.73,0.62,-0.2,0.2,1.0,28.38,26.91,0.0747138,0.0,19.256847816091952,nan,-99.60137881720429,nan,0.0,0.0,9936.083,0.0,0.0,0.0,0.0
3927.0,24.0,19.0,77.0,154.0,110.0,nan,0.04,-7.94,1.21,2.93,-81.56,147.17,-1.27,-2.01,-0.43,-0.73,0.62,-0.2,0.2,1.0,28.38,26.91,0.0747138,0.0,19.256847830459773,nan,-99.60137870967743,nan,0.0,0.0,9936.083,0.0,0.0,2612.1,0.0
3950.0,19.0,30.0,77.0,159.0,123.0,nan,0.09,-8.0,1.21,2.87,-81.58,147.21,-1.06,-2.22,-0.85,-0.73,0.62,-0.2,0.2,1.0,28.38,26.91,0.0747138,0.0,19.256847844827586,nan,-99.60137860215055,nan,0.0,0.0,9936.083,0.0,0.0,2612.1,0.0
3969.0,27.0,26.0,147.0,149.0,111.0,nan,0.12,-7.98,1.12,2.82,-81.62,147.25,-1.76,-2.15,-0.5,-0.73,0.62,-0.2,0.2,1.0,28.38,26.91,0.0747138,0.0,19.256847859195403,nan,-99.60137849462365,nan,0.0,0.0,9936.083,0.0,0.0,2612.1,0.0
3992.0,25.0,30.0,40.0,133.0,112.0,nan,-0.01,-8.14,1.24,2.79,-81.59,147.31,1.18,-2.64,0.2,-0.73,0.62,-0.2,0.2,1.0,28.38,26.91,0.0747138,0.0,19.256847873563217,nan,-99.60137838709679,nan,0.0,0.0,9936.083,0.0,0.0,2612.1,0.0
4011.0,27.0,30.0,135.0,153.0,126.0,nan,0.03,-8.09,1.28,2.75,-81.57,147.36,0.55,-2.71,0.06,-0.73,0.62,-0.2,0.2,1.0,28.38,26.91,0.0747138,0.0,19.256847873563217,nan,-99.60137838709679,nan,0.0,0.0,9936.083,0.0,0.0,0.0,0.0
4034.0,26.0,30.0,109.0,139.0,111.0,nan,0.07,-7.71,1.39,2.67,-81.51,147.48,-0.22,-2.92,0.06,-0.73,0.62,-0.2,0.2,1.0,28.38,26.91,0.0747138,0.0,19.256847887931038,nan,-99.6013782795699,nan,0.0,0.0,9936.083,0.0,0.0,2612.3,0.0
4061.0,27.0,30.0,77.0,138.0,111.0,nan,0.07,-7.71,1.39,2.67,-81.51,147.48,0.0,0.0,0.0,-0.73,0.62,-0.2,0.2,1.0,28.38,26.91,0.0747138,0.0,19.25684790229885,nan,-99.60137817204303,nan,0.0,0.0,9936.083,0.0,0.0,2612.3,0.0
4078.0,26.0,18.0,67.0,137.0,111.0,nan,0.16,-7.99,1.24,2.57,-81.57,147.6,-3.44,-2.92,-0.22,-0.73,0.62,-0.2,0.2,1.0,28.38,26.91,0.0747138,0.0,19.256847916666672,nan,-99.60137806451617,nan,0.0,0.0,9936.083,0.0,0.0,2612.3,0.0
4103.0,26.0,26.0,79.0,139.0,112.0,nan,0.14,-7.93,1.18,2.53,-81.56,147.67,0.27,-3.55,0.27,-0.73,0.62,-0.2,0.2,1.0,28.38,26.91,0.0747138,0.0,19.256847931034486,nan,-99.60137795698925,nan,0.0,0.0,9936.083,0.0,0.0,2612.3,0.0
4126.0,18.0,31.0,66.0,134.0,111.0,nan,0.12,-7.86,1.21,2.49,-81.56,147.75,-0.22,-3.83,-0.01,-0.73,0.62,-0.2,0.2,1.0,28.38,26.91,0.0747188,0.0,19.2568479454023,nan,-99.60137784946238,nan,0.0,0.0,9936.083,0.0,0.0,2612.3,0.0
4148.0,26.0,29.0,78.0,139.0,111.0,nan,0.22,-7.85,1.17,2.43,-81.57,147.82,-0.99,-3.9,-0.08,-0.73,0.62,-0.2,0.2,1.0,28.38,26.91,0.0747188,0.0,19.256847959770116,nan,-99.6013777419355,nan,0.0,0.0,9936.083,0.0,0.0,2612.3,0.0
4170.0,26.0,31.0,77.0,161.0,103.0,nan,0.21,-7.77,1.14,2.38,-81.57,147.91,0.2,-4.25,0.06,-0.73,0.62,-0.2,0.2,1.0,28.38,26.91,0.0747188,0.0,19.25684797413793,nan,-99.6013776344086,nan,0.0,0.0,9936.083,0.0,0.0,2612.3,0.0
4190.0,17.0,30.0,82.0,133.0,74.0,nan,0.22,-8.03,1.3,2.33,-81.54,148.0,0.83,-4.74,0.13,-0.73,0.62,-0.19,0.2,1.0,28.38,26.91,0.0747188,0.0,19.25684797413793,nan,-99.6013776344086,nan,0.0,0.0,9936.083,0.0,0.0,0.0,0.0
4212.0,17.0,30.0,98.0,139.0,89.0,nan,0.26,-7.99,1.31,2.22,-81.53,148.19,-0.29,-5.02,0.06,-0.73,0.62,-0.19,0.2,1.0,28.38,26.91,0.0747188,0.0,19.25684798850575,nan,-99.60137752688173,nan,0.0,0.0,9936.083,0.0,0.0,2612.3,0.0
4239.0,27.0,30.0,88.0,137.0,111.0,nan,0.26,-7.99,1.31,2.22,-81.53,148.19,0.0,0.0,0.0,-0.73,0.62,-0.19,0.2,1.0,28.38,26.91,0.0747188,0.0,19.256848002873564,nan,-99.60137741935485,nan,0.0,0.0,9936.083,0.0,0.0,2612.3,0.0
4256.0,18.0,30.0,55.0,140.0,110.0,nan,0.26,-7.96,1.37,2.12,-81.49,148.41,1.11,-5.72,0.2,-0.73,0.62,-0.19,0.19,1.0,28.38,26.91,0.0747188,0.0,19.256848017241385,nan,-99.60137731182799,nan,0.0,0.0,9936.083,0.0,0.0,2612.3,0.0
4281.0,27.0,30.0,78.0,139.0,119.0,nan,0.26,-7.99,1.45,2.07,-81.47,148.52,-0.08,-5.58,0.34,-0.73,0.62,-0.19,0.19,1.0,28.38,26.91,0.0747188,0.0,19.2568480316092,nan,-99.60137720430109,nan,0.0,0.0,9936.083,0.0,0.0,2612.3,0.0
4304.0,17.0,30.0,78.0,154.0,117.0,nan,0.4,-7.88,1.45,2.0,-81.45,148.64,-0.22,-5.93,0.13,-0.73,0.62,-0.19,0.19,1.0,28.38,26.91,0.0747188,0.0,19.256848045977016,nan,-99.6013770967742,nan,0.0,0.0,9936.083,0.0,0.0,2612.3,0.0
4324.0,26.0,30.0,78.0,138.0,111.0,nan,0.41,-7.92,1.39,1.94,-81.44,148.77,-0.15,-6.21,0.27,-0.73,0.62,-0.19,0.19,1.0,28.38,26.91,0.0747188,0.0,19.25684806034483,nan,-99.60137698924734,nan,0.0,0.0,9936.083,0.0,0.0,2612.3,0.0
4346.0,27.0,30.0,77.0,138.0,112.0,nan,0.43,-8.01,1.47,1.87,-81.45,148.89,-1.48,-6.21,0.06,-0.73,0.63,-0.19,0.19,1.0,28.38,26.91,0.0747188,0.0,19.25684806034483,nan,-99.60137698924734,nan,0.0,0.0,9936.083,0.0,0.0,0.0,0.0
4366.0,26.0,30.0,82.0,140.0,111.0,nan,0.52,-7.93,1.34,1.8,-81.48,149.01,-2.53,-6.14,0.13,-0.73,0.63,-0.19,0.19,1.0,28.38,26.91,0.0747188,0.0,19.256848074712643,nan,-99.60137688172044,nan,0.0,0.0,9936.083,0.0,0.0,2612.3,0.0
4389.0,31.0,30.0,52.0,125.0,110.0,nan,0.46,-7.86,1.31,1.74,-81.47,149.15,-0.01,-6.84,0.34,-0.73,0.63,-0.18,0.19,1.0,28.38,26.91,0.0747188,0.0,19.256848089080464,nan,-99.60137677419355,nan,0.0,0.0,9936.083,0.0,0.0,2612.3,0.0
4408.0,31.0,29.0,52.0,139.0,110.0,nan,0.53,-8.02,1.35,1.67,-81.47,149.29,-0.64,-6.91,0.2,-0.73,0.63,-0.18,0.19,1.0,28.38,26.91,0.0747188,0.0,19.256848103448277,nan,-99.60137666666667,nan,0.0,0.0,9936.083,0.0,0.0,2612.3,0.0
4431.0,26.0,30.0,109.0,153.0,111.0,nan,0.4,-7.86,1.26,1.55,-81.5,149.56,-1.97,-7.05,0.2,-0.73,0.63,-0.18,0.19,1.0,28.38,26.91,0.0747188,0.0,19.256848117816098,nan,-99.60137655913981,nan,0.0,0.0,9936.083,0.0,0.0,2612.3,0.0
4458.0,26.0,30.0,82.0,154.0,110.0,nan,0.4,-7.86,1.26,1.55,-81.5,149.56,0.0,0.0,0.0,-0.73,0.63,-0.18,0.19,1.0,28.38,26.91,0.0747188,0.0,19.25684813218391,nan,-99.60137645161291,nan,0.0,0.0,9936.083,0.0,0.0,2612.3,0.0
4475.0,30.0,21.0,135.0,156.0,112.0,nan,0.44,-8.13,1.22,1.44,-81.56,149.86,-1.62,-7.4,0.48,-0.73,0.63,-0.18,0.19,1.0,28.38,26.91,0.0747188,0.0,19.25684813218391,nan,-99.60137645161291,nan,0.0,0.0,9936.083,0.0,0.0,0.0,0.0
4500.0,26.0,30.0,156.0,155.0,75.0,nan,0.45,-8.05,1.19,1.39,-81.54,150.02,0.97,-8.1,0.9,-0.73,0.63,-0.18,0.19,1.0,28.38,26.91,0.0747188,0.0,19.25684814655173,nan,-99.60137634408602,nan,0.0,0.0,9936.083,0.0,0.0,2612.3,0.0
4523.0,17.0,30.0,135.0,140.0,102.0,nan,0.44,-7.91,1.43,1.33,-81.49,150.19,1.39,-8.24,0.9,-0.73,0.63,-0.18,0.19,1.0,28.38,26.91,0.0747188,0.0,19.256848160919542,nan,-99.60137623655916,nan,0.0,0.0,9936.083,0.0,0.0,2612.3,0.0
4542.0,26.0,30.0,157.0,148.0,111.0,nan,0.44,-7.97,1.33,1.28,-81.5,150.34,-1.55,-7.96,0.62,-0.73,0.63,-0.18,0.19,1.0,28.38,26.91,0.0747188,0.0,19.256848175287363,nan,-99.60137612903229,nan,0.0,0.0,9936.083,0.0,0.0,2612.3,0.0
4565.0,27.0,30.0,161.0,154.0,111.0,nan,0.48,-8.1,1.22,1.23,-81.53,150.51,-1.55,-8.03,0.83,-0.73,0.63,-0.17,0.19,1.0,28.38,26.91,0.0747188,0.0,19.256848189655177,nan,-99.60137602150537,nan,0.0,0.0,9936.083,0.0,0.0,2612.3,0.0
4585.0,37.0,30.0,78.0,137.0,109.0,nan,0.49,-7.97,1.41,1.17,-81.44,150.69,3.7,-8.94,1.11,-0.73,0.63,-0.17,0.19,1.0,28.36,26.94,0.0747123,0.0,19.25684820402299,nan,-99.6013759139785,nan,0.0,0.0,9936.083,0.0,0.0,2612.3,0.0
4610.0,26.0,30.0,77.0,138.0,110.0,nan,0.55,-7.93,1.49,1.12,-81.38,150.86,1.81,-8.66,1.32,-0.74,0.63,-0.17,0.18,1.0,28.36,26.94,0.0747123,0.0,19.25684820402299,nan,-99.6013759139785,nan,0.0,0.0,9936.083,0.0,0.0,0.0,0.0
4629.0,26.0,30.0,108.0,155.0,110.0,nan,0.52,-7.83,1.46,1.08,-81.35,151.03,0.27,-8.52,1.32,-0.74,0.63,-0.17,0.18,1.0,28.36,26.94,0.0747123,0.0,19.25684821839081,nan,-99.60137580645164,nan,0.0,0.0,9936.083,0.0,0.0,2612.3,0.0
4652.0,27.0,31.0,52.0,139.0,125.0,nan,0.52,-8.1,1.51,0.96,-81.3,151.39,-1.34,-8.8,0.76,-0.74,0.63,-0.17,0.18,1.0,28.36,26.94,0.0747123,0.0,19.256848232758625,nan,-99.60137569892473,nan,0.0,0.0,9936.083,0.0,0.0,2612.3,0.0
4679.0,26.0,30.0,67.0,125.0,111.0,nan,0.42,-7.93,1.45,0.92,-81.31,151.57,-1.76,-8.73,1.53,-0.74,0.63,-0.17,0.18,1.0,28.36,26.94,0.0747123,0.0,19.25684824712644,nan,-99.60137559139785,nan,0.0,0.0,9936.083,0.0,0.0,2612.3,0.0
4702.0,38.0,26.0,77.0,139.0,109.0,nan,0.37,-7.78,1.3,0.88,-81.31,151.75,-0.15,-9.08,1.11,-0.74,0.63,-0.16,0.18,1.0,28.36,26.94,0.0747123,0.0,19.256848261494255,nan,-99.601375483871,nan,0.0,0.0,9936.083,0.0,0.0,2612.3,0.0
4721.0,27.0,31.0,108.0,133.0,111.0,nan,0.4,-7.76,1.43,0.83,-81.24,151.94,2.3,-9.57,0.9,-0.74,0.63,-0.16,0.18,1.0,28.36,26.94,0.0747123,0.0,19.25684827586207,nan,-99.60137537634411,nan,0.0,0.0,9936.083,0.0,0.0,2612.3,0.0
4744.0,27.0,30.0,78.0,139.0,126.0,nan,0.4,-7.72,1.6,0.79,-81.19,152.13,1.11,-9.36,1.04,-0.74,0.63,-0.16,0.18,1.0,28.36,26.94,0.0747123,0.0,19.25684829022989,nan,-99.60137526881721,nan,0.0,0.0,9936.083,0.0,0.0,2612.3,0.0
4763.0,26.0,30.0,78.0,139.0,111.0,nan,0.41,-7.79,1.46,0.75,-81.18,152.32,-0.64,-9.36,1.25,-0.74,0.63,-0.16,0.18,1.0,28.36,26.94,0.0747123,0.0,19.25684829022989,nan,-99.60137526881721,nan,0.0,0.0,9936.083,0.0,0.0,0.0,0.0
4786.0,32.0,17.0,68.0,137.0,112.0,nan,0.32,-8.0,1.62,0.71,-81.1,152.52,2.44,-9.99,1.39,-0.74,0.63,-0.16,0.18,1.0,28.36,26.94,0.0747123,0.0,19.256848304597703,nan,-99.60137516129035,nan,0.0,0.0,9936.083,0.0,0.0,2612.3,0.0
4806.0,26.0,30.0,98.0,140.0,110.0,nan,0.29,-7.93,1.63,0.67,-81.08,152.72,-0.5,-9.78,0.76,-0.74,0.63,-0.16,0.18,1.0,28.36,26.94,0.0747123,0.0,19.256848318965524,nan,-99.60137505376346,nan,0.0,0.0,9936.083,0.0,0.0,2612.3,0.0
4829.0,26.0,31.0,82.0,137.0,111.0,nan,0.37,-8.09,1.62,0.57,-81.09,153.12,-1.69,-10.2,1.04,-0.74,0.63,-0.15,0.17,1.0,28.36,26.94,0.0747123,0.0,19.256848333333338,nan,-99.60137494623656,nan,0.0,0.0,9936.083,0.0,0.0,2612.3,0.0
4855.0,26.0,29.0,136.0,154.0,111.0,nan,0.37,-8.09,1.62,0.57,-81.09,153.12,0.0,0.0,0.0,-0.74,0.63,-0.15,0.17,1.0,28.36,26.94,0.0747123,0.0,19.25684834770115,nan,-99.60137483870967,nan,0.0,0.0,9936.083,0.0,0.0,2612.3,0.0
4873.0,27.0,30.0,156.0,148.0,126.0,nan,0.21,-7.81,1.64,0.49,-81.03,153.54,3.49,-10.9,0.83,-0.74,0.63,-0.15,0.17,1.0,28.36,26.94,0.0747123,0.0,19.25684836206897,nan,-99.60137473118282,nan,0.0,0.0,9936.083,0.0,0.0,2612.3,0.0
4897.0,30.0,32.0,150.0,133.0,110.0,nan,0.09,-8.08,2.2,0.44,-80.91,153.76,2.79,-11.04,-0.08,-0.74,0.63,-0.15,0.17,1.0,28.36,26.94,0.0747123,0.0,19.256848376436782,nan,-99.60137462365593,nan,0.0,0.0,9936.083,0.0,0.0,2612.3,0.0
4920.0,29.0,30.0,76.0,140.0,124.0,nan,0.35,-7.92,1.65,0.39,-81.04,153.95,-7.92,-9.71,0.48,-0.74,0.63,-0.15,0.17,1.0,28.36,26.94,0.0747123,0.0,19.256848376436782,nan,-99.60137462365593,nan,0.0,0.0,9936.083,0.0,0.0,0.0,0.0
4940.0,30.0,27.0,98.0,134.0,110.0,nan,0.4,-7.51,1.5,0.35,-81.03,154.17,-0.71,-10.69,1.32,-0.74,0.63,-0.15,0.17,1.0,28.36,26.94,0.0747123,0.0,19.256848390804603,nan,-99.60137451612903,nan,0.0,0.0,9936.083,0.0,0.0,2612.3,0.0
4963.0,28.0,24.0,51.0,138.0,112.0,nan,0.28,-7.8,1.74,0.28,-80.99,154.39,0.41,-11.04,-0.5,-0.74,0.63,-0.15,0.17,1.0,28.36,26.94,0.0747123,0.0,19.256848405172416,nan,-99.60137440860217,nan,0.0,0.0,9936.083,0.0,0.0,2612.3,0.0
4982.0,26.0,21.0,77.0,137.0,111.0,nan,0.52,-8.3,1.64,0.19,-81.13,154.58,-8.13,-9.92,-1.13,-0.74,0.63,-0.14,0.17,1.0,28.36,26.94,0.0747123,0.0,19.25684841954023,nan,-99.60137430107528,nan,0.0,0.0,9936.083,0.0,0.0,2612.3,0.0
5005.0,25.0,20.0,78.0,125.0,111.0,nan,0.65,-8.11,1.12,0.13,-81.32,154.77,-9.25,-9.78,0.69,-0.74,0.64,-0.14,0.16,1.0,28.36,26.94,0.0747123,0.0,19.25684843390805,nan,-99.60137419354838,nan,0.0,0.0,9936.083,0.0,0.0,2611.2,0.0
5024.0,26.0,26.0,87.0,154.0,125.0,nan,0.25,-8.24,1.07,0.11,-81.29,155.01,2.3,-11.74,1.74,-0.74,0.64,-0.14,0.16,1.0,28.36,26.94,0.0747123,0.0,19.256848448275864,nan,-99.60137408602152,nan,0.0,0.0,9936.083,0.0,0.0,2611.2,0.0
5047.0,18.0,32.0,108.0,137.0,110.0,nan,0.35,-7.68,1.36,0.02,-81.29,155.46,-2.67,-10.83,0.62,-0.74,0.64,-0.14,0.16,1.0,28.35,26.95,0.0747123,0.0,19.256848448275864,nan,-99.60137408602152,nan,0.0,0.0,9936.083,0.0,0.0,0.0,0.0
5079.0,26.0,17.0,76.0,125.0,110.0,nan,0.44,-7.56,1.38,-0.03,-81.29,155.69,-1.13,-11.46,0.97,-0.74,0.64,-0.14,0.16,1.0,28.35,26.95,0.0747123,0.0,19.25684846264368,nan,-99.60137397849464,nan,0.0,0.0,9936.083,0.0,0.0,2611.2,0.0
5099.0,26.0,30.0,107.0,140.0,111.0,nan,0.47,-7.94,1.44,-0.08,-81.28,155.92,-0.01,-11.74,1.04,-0.74,0.64,-0.14,0.16,1.0,28.35,26.95,0.0747123,0.0,19.256848477011495,nan,-99.60137387096776,nan,0.0,0.0,9936.083,0.0,0.0,2611.2,0.0
5122.0,26.0,30.0,68.0,138.0,110.0,nan,0.54,-8.0,1.25,-0.15,-81.37,156.14,-4.56,-11.11,0.34,-0.74,0.64,-0.13,0.16,1.0,28.35,26.95,0.0747123,0.0,19.25684849137931,nan,-99.60137376344085,nan,0.0,0.0,9936.083,0.0,0.0,2611.2,0.0
5141.0,31.0,30.0,77.0,160.0,125.0,nan,0.58,-7.9,0.94,-0.21,-81.44,156.37,-2.6,-11.6,0.62,-0.74,0.64,-0.13,0.16,1.0,28.35,26.95,0.0747123,0.0,19.25684850574713,nan,-99.60137365591399,nan,0.0,0.0,9936.083,0.0,0.0,2611.2,0.0
5164.0,21.0,31.0,78.0,135.0,110.0,nan,0.48,-7.71,1.04,-0.26,-81.4,156.62,2.23,-12.16,0.97,-0.74,0.64,-0.13,0.16,1.0,28.35,26.95,0.0747123,0.0,19.256848520114943,nan,-99.60137354838712,nan,0.0,0.0,9936.083,0.0,0.0,2611.2,0.0
5184.0,31.0,30.0,51.0,138.0,119.0,nan,0.49,-7.61,1.11,-0.3,-81.34,156.86,3.14,-12.23,1.67,-0.74,0.64,-0.13,0.15,1.0,28.35,26.95,0.0747123,0.0,19.256848534482764,nan,-99.6013734408602,nan,0.0,0.0,9936.083,0.0,0.0,2611.2,0.0
5206.0,21.0,30.0,78.0,161.0,124.0,nan,0.43,-7.97,1.91,-0.38,-81.08,157.35,4.89,-12.16,0.83,-0.74,0.64,-0.13,0.15,1.0,28.35,26.95,0.0747123,0.0,19.256848534482764,nan,-99.6013734408602,nan,0.0,0.0,9936.083,0.0,0.0,0.0,0.0
5233.0,26.0,30.0,88.0,134.0,111.0,nan,0.43,-8.1,1.92,-0.42,-81.06,157.58,-1.13,-11.46,1.04,-0.75,0.64,-0.12,0.15,1.0,28.35,26.95,0.0747123,0.0,19.256848548850577,nan,-99.60137333333334,nan,0.0,0.0,9936.083,0.0,0.0,2611.2,0.0
5256.0,28.0,27.0,88.0,138.0,110.0,nan,0.56,-7.96,1.78,-0.46,-81.04,157.82,-0.78,-11.81,1.74,-0.75,0.64,-0.12,0.15,1.0,28.35,26.95,0.0747123,0.0,19.25684856321839,nan,-99.60137322580647,nan,0.0,0.0,9936.083,0.0,0.0,2611.2,0.0
5276.0,21.0,28.0,53.0,136.0,98.0,nan,0.34,-8.11,1.48,-0.48,-81.06,158.05,-1.62,-11.25,1.6,-0.75,0.64,-0.12,0.15,1.0,28.35,26.95,0.0747123,0.0,19.256848577586208,nan,-99.60137311827958,nan,0.0,0.0,9936.083,0.0,0.0,2611.2,0.0
5299.0,31.0,31.0,67.0,155.0,105.0,nan,0.69,-7.49,1.36,-0.54,-81.0,158.28,2.09,-11.39,1.18,-0.75,0.64,-0.12,0.15,1.0,28.35,26.95,0.0747123,0.0,19.25684859195402,nan,-99.60137301075268,nan,0.0,0.0,9936.083,0.0,0.0,2611.2,0.0
5318.0,24.0,19.0,98.0,138.0,111.0,nan,0.33,-7.75,2.04,-0.56,-80.75,158.53,9.79,-12.58,1.88,-0.75,0.64,-0.12,0.14,1.0,28.35,26.95,0.0747123,0.0,19.256848606321842,nan,-99.60137290322582,nan,0.0,0.0,9936.083,0.0,0.0,2611.2,0.0
5341.0,24.0,29.0,88.0,124.0,111.0,nan,0.55,-7.6,2.06,-0.6,-80.69,158.76,0.41,-11.18,1.67,-0.75,0.64,-0.12,0.14,1.0,28.35,26.95,0.0747123,0.0,19.256848620689656,nan,-99.60137279569894,nan,0.0,0.0,9936.083,0.0,0.0,2611.2,0.0
5360.0,27.0,30.0,55.0,160.0,124.0,nan,0.43,-7.81,2.17,-0.63,-80.64,158.98,-0.29,-11.04,1.25,-0.75,0.64,-0.11,0.14,1.0,28.35,26.95,0.0747123,0.0,19.256848620689656,nan,-99.60137279569894,nan,0.0,0.0,9936.083,0.0,0.0,0.0,0.0
5383.0,31.0,22.0,121.0,147.0,124.0,nan,0.11,-8.34,2.23,-0.67,-80.71,159.18,-6.31,-10.34,-0.22,-0.75,0.64,-0.11,0.14,1.0,28.35,26.95,0.0747123,0.0,19.256848635057477,nan,-99.60137268817205,nan,0.0,0.0,9936.083,0.0,0.0,2611.2,0.0
5403.0,27.0,30.0,88.0,159.0,126.0,nan,0.36,-8.35,1.69,-0.71,-80.85,159.39,-8.13,-10.34,0.41,-0.75,0.64,-0.11,0.14,1.0,28.35,26.95,0.0747123,0.0,19.25684864942529,nan,-99.60137258064518,nan,0.0,0.0,9936.083,0.0,0.0,2611.2,0.0
5426.0,30.0,17.0,77.0,132.0,110.0,nan,0.29,-7.75,1.73,-0.75,-80.79,159.84,3.91,-11.81,1.39,-0.75,0.64,-0.11,0.14,1.0,28.35,26.95,0.0747123,0.0,19.256848663793104,nan,-99.60137247311829,nan,0.0,0.0,9936.083,0.0,0.0,2611.2,0.0
5452.0,19.0,32.0,67.0,133.0,110.0,nan,0.27,-8.06,2.13,-0.79,-80.76,160.06,-1.48,-10.97,0.34,-0.75,0.64,-0.11,0.14,1.0,28.35,26.95,0.0747123,0.0,19.25684867816092,nan,-99.6013723655914,nan,0.0,0.0,9936.083,0.0,0.0,2611.2,0.0
5475.0,23.0,19.0,147.0,154.0,110.0,nan,0.58,-7.74,1.63,-0.84,-80.97,160.25,-11.35,-9.36,0.76,-0.75,0.64,-0.11,0.14,1.0,28.35,26.95,0.0747123,0.0,19.256848692528735,nan,-99.60137225806454,nan,0.0,0.0,9936.083,0.0,0.0,2611.2,0.0
5494.0,17.0,29.0,77.0,137.0,111.0,nan,0.41,-7.7,1.23,-0.87,-81.01,160.47,-2.04,-11.04,1.46,-0.75,0.64,-0.1,0.13,1.0,28.35,26.95,0.0747123,0.0,19.256848692528735,nan,-99.60137225806454,nan,0.0,0.0,9936.083,0.0,0.0,0.0,0.0
5517.0,31.0,37.0,67.0,159.0,126.0,nan,0.23,-8.22,1.45,-0.9,-81.06,160.68,-3.02,-10.69,0.48,-0.75,0.64,-0.1,0.13,1.0,28.38,26.96,0.0747097,0.0,19.256848706896555,nan,-99.60137215053764,nan,0.0,0.0,9936.083,0.0,0.0,2611.2,0.0
5539.0,17.0,26.0,77.0,137.0,96.0,nan,0.64,-7.59,1.02,-0.96,-81.24,160.87,-7.78,-9.29,0.41,-0.75,0.64,-0.1,0.13,1.0,28.38,26.96,0.0747097,0.0,19.25684872126437,nan,-99.60137204301076,nan,0.0,0.0,9936.083,0.0,0.0,2611.2,0.0
5562.0,17.0,30.0,67.0,160.0,110.0,nan,0.37,-7.99,1.01,-0.98,-81.21,161.08,2.37,-10.62,1.25,-0.75,0.64,-0.1,0.13,1.0,28.38,26.96,0.0747097,0.0,19.256848735632182,nan,-99.60137193548388,nan,0.0,0.0,9936.083,0.0,0.0,2611.2,0.0
5581.0,31.0,31.0,119.0,149.0,112.0,nan,0.38,-8.19,1.65,-1.01,-81.09,161.3,4.54,-10.83,0.76,-0.75,0.64,-0.1,0.13,1.0,28.38,26.96,0.0747097,0.0,19.256848750000003,nan,-99.601371827957,nan,0.0,0.0,9936.083,0.0,0.0,2611.2,0.0
5604.0,16.0,26.0,147.0,137.0,96.0,nan,0.48,-7.66,1.48,-1.09,-81.13,161.68,-5.82,-9.01,0.9,-0.75,0.64,-0.1,0.13,1.0,28.38,26.96,0.0747097,0.0,19.256848764367817,nan,-99.60137172043011,nan,0.0,0.0,9936.083,0.0,0.0,2611.2,0.0
5631.0,39.0,30.0,87.0,154.0,109.0,nan,0.42,-7.84,1.64,-1.12,-81.1,161.87,0.48,-9.64,1.04,-0.75,0.64,-0.1,0.13,1.0,28.38,26.96,0.0747097,0.0,19.256848778735634,nan,-99.60137161290324,nan,0.0,0.0,9936.083,0.0,0.0,2611.2,0.0
5656.0,26.0,29.0,66.0,138.0,110.0,nan,0.17,-7.67,1.5,-1.13,-81.18,162.04,-5.05,-8.66,0.48,-0.75,0.64,-0.09,0.12,1.0,28.38,26.96,0.0747097,0.0,19.256848793103448,nan,-99.60137150537638,nan,0.0,0.0,9936.083,0.0,0.0,2611.2,0.0
5673.0,19.0,29.0,88.0,161.0,110.0,nan,0.23,-7.24,0.84,-1.16,-81.33,162.2,-5.96,-7.75,0.27,-0.75,0.64,-0.09,0.12,1.0,28.38,26.96,0.0747097,0.0,19.256848793103448,nan,-99.60137150537638,nan,0.0,0.0,9936.083,0.0,0.0,0.0,0.0
5696.0,25.0,31.0,77.0,138.0,110.0,nan,0.04,-8.17,1.16,-1.17,-81.31,162.36,1.32,-8.24,0.13,-0.75,0.64,-0.09,0.12,1.0,28.38,26.96,0.0747097,0.0,19.25684880747126,nan,-99.60137139784946,nan,0.0,0.0,9936.083,0.0,0.0,2611.2,0.0
5715.0,26.0,30.0,67.0,160.0,120.0,nan,0.27,-8.82,1.57,-1.19,-81.33,162.51,-1.69,-7.61,0.34,-0.75,0.65,-0.09,0.12,1.0,28.38,26.96,0.0747097,0.0,19.256848821839082,nan,-99.60137129032259,nan,0.0,0.0,9936.083,0.0,0.0,2611.2,0.0
5738.0,18.0,29.0,52.0,155.0,118.0,nan,0.58,-8.7,1.38,-1.21,-81.39,162.66,-2.95,-7.19,1.46,-0.75,0.65,-0.09,0.12,1.0,28.38,26.96,0.0747097,0.0,19.256848836206895,nan,-99.60137118279573,nan,0.0,0.0,9936.083,0.0,0.0,2611.2,0.0
5758.0,38.0,31.0,108.0,134.0,111.0,nan,0.66,-7.67,1.69,-1.24,-81.19,162.84,8.11,-8.66,1.95,-0.75,0.64,-0.09,0.12,1.0,28.38,26.96,0.0747097,0.0,19.256848850574716,nan,-99.60137107526884,nan,0.0,0.0,9936.083,0.0,0.0,2611.2,0.0
5780.0,26.0,30.0,83.0,139.0,110.0,nan,0.62,-7.45,1.97,-1.26,-81.0,163.01,6.99,-8.45,1.95,-0.75,0.64,-0.09,0.12,1.0,28.38,26.96,0.0747097,0.0,19.256848850574716,nan,-99.60137107526884,nan,0.0,0.0,9936.083,0.0,0.0,0.0,0.0
5800.0,26.0,30.0,98.0,126.0,110.0,nan,0.11,-7.17,1.62,-1.25,-81.09,163.13,-6.24,-6.0,1.25,-0.75,0.64,-0.09,0.12,1.0,28.38,26.96,0.0747097,0.0,19.25684886494253,nan,-99.60137096774194,nan,0.0,0.0,9936.083,0.0,0.0,2611.2,0.0
5823.0,31.0,30.0,157.0,146.0,119.0,nan,0.1,-8.76,2.12,-1.29,-81.12,163.37,2.44,-6.84,-0.43,-0.75,0.64,-0.09,0.12,1.0,28.38,26.96,0.0747097,0.0,19.256848879310347,nan,-99.60137086021506,nan,0.0,0.0,9936.083,0.0,0.0,2611.2,0.0
5849.0,17.0,25.0,173.0,154.0,75.0,nan,0.04,-9.16,1.37,-1.27,-81.41,163.45,-14.43,-4.11,1.18,-0.75,0.65,-0.09,0.12,1.0,28.38,26.96,0.0747097,0.0,19.25684889367816,nan,-99.6013707526882,nan,0.0,0.0,9936.083,0.0,0.0,2611.2,0.0
5872.0,16.0,17.0,88.0,161.0,101.0,nan,0.62,-8.79,0.82,-1.28,-81.49,163.58,-2.32,-6.21,1.88,-0.75,0.65,-0.08,0.12,1.0,28.38,26.96,0.0747097,0.0,19.256848908045974,nan,-99.6013706451613,nan,0.0,0.0,9936.083,0.0,0.0,2611.2,0.0
5892.0,28.0,32.0,78.0,135.0,111.0,nan,0.74,-7.6,0.9,-1.31,-81.41,163.71,5.1,-6.42,1.81,-0.75,0.65,-0.08,0.11,1.0,28.38,26.96,0.0747097,0.0,19.256848922413795,nan,-99.60137053763441,nan,0.0,0.0,9936.083,0.0,0.0,2611.2,0.0
5914.0,25.0,26.0,87.0,137.0,111.0,nan,0.67,-6.96,1.29,-1.33,-81.21,163.85,9.16,-6.56,1.67,-0.75,0.65,-0.08,0.11,1.0,28.38,26.96,0.0747097,0.0,19.25684893678161,nan,-99.60137043010755,nan,0.0,0.0,9936.083,0.0,0.0,2611.2,0.0
