time,p1,p2,p3,p4,p5,termite,ax,ay,az,rx,ry,rz,roll,pitch,yaw,q1,q2,q3,q4,calibration,temperature,humidity,pressure,flag_rm,lat,lacoord,lon,locoord,capacitive,o_lat,o_lon,used_lat,used_lon,altitude,flag_lm
0.0,17.0,29.0,109.0,125.0,67.0,nan,-0.77,-7.84,1.52,4.48,-78.81,126.9,-0.22,0.16,0.13,-0.7,0.55,-0.31,0.32,1.0,27.88,26.85,0.0747659,0.0,19.25035833333333,nan,-99.59148747863247,nan,0.0,0.0,9935.4893,1.0,1.0,2591.6,0.0
14.0,17.0,30.0,108.0,138.0,100.0,nan,-0.62,-7.83,1.53,4.48,-78.81,126.9,0.41,-0.05,-0.22,-0.7,0.55,-0.31,0.32,1.0,27.88,26.85,0.0747659,0.0,19.25035833333333,nan,-99.59148747863247,nan,0.0,0.0,9935.4893,0.0,0.0,0.0,0.0
37.0,18.0,27.0,136.0,140.0,110.0,nan,-0.74,-7.83,1.52,4.48,-78.81,126.9,0.06,-0.05,-0.29,-0.7,0.55,-0.31,0.32,1.0,27.88,26.85,0.0747659,0.0,19.25035833333333,nan,-99.59148747863247,nan,0.0,0.0,9935.4893,0.0,0.0,0.0,0.0
57.0,38.0,26.0,73.0,152.0,126.0,nan,-0.59,-7.89,1.62,4.47,-78.79,126.9,0.48,-0.05,-0.22,-0.7,0.55,-0.31,0.32,1.0,27.88,26.85,0.0747659,0.0,19.25035833333333,nan,-99.59148747863247,nan,0.0,0.0,9935.4893,0.0,0.0,0.0,0.0
80.0,25.0,29.0,98.0,136.0,76.0,nan,-0.79,-7.83,1.51,4.48,-78.81,126.9,-0.64,0.02,-0.15,-0.7,0.55,-0.31,0.32,1.0,27.88,26.85,0.0747659,0.0,19.25035833333333,nan,-99.59148747863247,nan,0.0,0.0,9935.4893,0.0,0.0,0.0,0.0
99.0,17.0,29.0,82.0,138.0,116.0,nan,-0.61,-7.81,1.54,4.48,-78.81,126.89,0.2,0.09,-0.08,-0.7,0.55,-0.31,0.32,1.0,27.88,26.85,0.0747659,0.0,19.25035833333333,nan,-99.59148747863247,nan,0.0,0.0,9935.4893,0.0,0.0,0.0,0.0
122.0,26.0,30.0,135.0,135.0,110.0,nan,-0.56,-7.85,1.56,4.47,-78.8,126.89,-0.36,0.16,-0.29,-0.7,0.55,-0.31,0.32,1.0,27.88,26.85,0.0747659,0.0,19.25035833333333,nan,-99.59148747863247,nan,0.0,0.0,9935.4893,0.0,0.0,0.0,0.0
149.0,29.0,30.0,157.0,147.0,109.0,nan,-0.74,-7.83,1.56,4.48,-78.81,126.89,-0.64,0.09,-0.08,-0.7,0.55,-0.31,0.32,1.0,27.88,26.85,0.0747659,0.0,19.25035833333333,nan,-99.59148747863247,nan,0.0,0.0,9935.4893,0.0,0.0,0.0,0.0
171.0,28.0,26.0,161.0,154.0,112.0,nan,-0.65,-7.87,1.49,4.48,-78.82,126.89,-0.5,0.16,-0.01,-0.7,0.55,-0.31,0.32,1.0,27.88,26.85,0.0747659,0.0,19.25035833333333,nan,-99.59148747863247,nan,0.0,0.0,9935.4893,0.0,0.0,0.0,0.0
191.0,27.0,20.0,53.0,138.0,110.0,nan,-0.7,-7.78,1.48,4.48,-78.82,126.89,0.27,-0.12,-0.36,-0.7,0.55,-0.31,0.32,1.0,27.88,26.85,0.0747659,0.0,19.25035833333333,nan,-99.59148747863247,nan,0.0,0.0,9935.4893,0.0,0.0,0.0,0.0
214.0,26.0,20.0,66.0,153.0,110.0,nan,-0.63,-7.9,1.61,4.47,-78.8,126.89,0.97,-0.12,-0.22,-0.7,0.55,-0.31,0.32,1.0,27.88,26.85,0.0747659,0.0,19.25035833333333,nan,-99.59148747863247,nan,0.0,0.0,9935.4893,0.0,0.0,0.0,0.0
233.0,17.0,30.0,108.0,144.0,111.0,nan,-0.7,-7.82,1.53,4.47,-78.81,126.89,-0.64,0.02,-0.22,-0.7,0.55,-0.31,0.32,1.0,27.84,26.91,0.0747742,0.0,19.250359188034192,nan,-99.5914866239316,nan,0.0,0.0,9935.4893,0.0,0.0,2591.6,0.0
258.0,26.0,31.0,67.0,129.0,110.0,nan,-0.68,-7.8,1.51,4.48,-78.82,126.88,-0.15,0.16,0.06,-0.7,0.55,-0.31,0.32,1.0,27.84,26.91,0.0747742,0.0,19.250359188034192,nan,-99.5914866239316,nan,0.0,0.0,9935.4893,0.0,0.0,0.0,0.0
278.0,31.0,30.0,55.0,138.0,112.0,nan,-0.65,-7.8,1.55,4.47,-78.8,126.89,0.69,-0.12,-0.29,-0.7,0.55,-0.31,0.32,1.0,27.84,26.91,0.0747742,0.0,19.250359188034192,nan,-99.5914866239316,nan,0.0,0.0,9935.4893,0.0,0.0,0.0,0.0
301.0,32.0,29.0,108.0,137.0,111.0,nan,-0.63,-7.82,1.56,4.47,-78.81,126.88,-0.08,0.16,-0.22,-0.7,0.55,-0.31,0.32,1.0,27.84,26.91,0.0747742,0.0,19.250359188034192,nan,-99.5914866239316,nan,0.0,0.0,9935.4893,0.0,0.0,0.0,0.0
327.0,26.0,30.0,68.0,138.0,98.0,nan,-0.76,-7.88,1.55,4.48,-78.82,126.88,-0.22,0.09,0.06,-0.7,0.55,-0.31,0.32,1.0,27.84,26.91,0.0747742,0.0,19.250359188034192,nan,-99.5914866239316,nan,0.0,0.0,9935.4893,0.0,0.0,0.0,0.0
350.0,28.0,26.0,60.0,154.0,110.0,nan,-0.6,-7.78,1.49,4.47,-78.82,126.88,-0.22,0.02,-0.29,-0.7,0.55,-0.31,0.32,1.0,27.84,26.91,0.0747742,0.0,19.250359188034192,nan,-99.5914866239316,nan,0.0,0.0,9935.4893,0.0,0.0,0.0,0.0
370.0,31.0,17.0,136.0,159.0,125.0,nan,-0.73,-7.85,1.56,4.48,-78.81,126.88,0.9,-0.12,-0.22,-0.7,0.55,-0.31,0.32,1.0,27.84,26.91,0.0747742,0.0,19.250359188034192,nan,-99.5914866239316,nan,0.0,0.0,9935.4893,0.0,0.0,0.0,0.0
393.0,29.0,29.0,89.0,133.0,111.0,nan,-0.61,-7.87,1.59,4.47,-78.81,126.88,-0.22,0.02,-0.22,-0.7,0.55,-0.31,0.32,1.0,27.84,26.91,0.0747742,0.0,19.250359188034192,nan,-99.5914866239316,nan,0.0,0.0,9935.4893,0.0,0.0,0.0,0.0
412.0,18.0,25.0,52.0,138.0,110.0,nan,-0.73,-7.78,1.48,4.48,-78.83,126.87,-0.78,0.16,-0.08,-0.7,0.55,-0.31,0.32,1.0,27.84,26.91,0.0747742,0.0,19.250359188034192,nan,-99.5914866239316,nan,0.0,0.0,9935.4893,0.0,0.0,0.0,0.0
435.0,25.0,30.0,108.0,153.0,111.0,nan,-0.57,-7.83,1.53,4.47,-78.82,126.87,0.48,0.02,-0.22,-0.7,0.55,-0.31,0.32,1.0,27.84,26.91,0.0747742,0.0,19.250359188034192,nan,-99.5914866239316,nan,0.0,0.0,9935.4893,0.0,0.0,0.0,0.0
455.0,26.0,31.0,119.0,135.0,111.0,nan,-0.76,-7.86,1.54,4.47,-78.83,126.87,-0.43,0.02,-0.36,-0.7,0.55,-0.31,0.32,1.0,27.84,26.91,0.0747742,0.0,19.250359615384614,nan,-99.59148576923079,nan,0.0,0.0,9935.4893,0.0,0.0,2591.6,0.0
478.0,31.0,28.0,94.0,140.0,110.0,nan,-0.6,-7.85,1.51,4.47,-78.84,126.87,-0.5,0.02,-0.15,-0.7,0.55,-0.31,0.32,1.0,27.84,26.91,0.0747742,0.0,19.250359615384614,nan,-99.59148576923079,nan,0.0,0.0,9935.4893,0.0,0.0,0.0,0.0
497.0,27.0,26.0,147.0,138.0,110.0,nan,-0.75,-7.82,1.48,4.48,-78.84,126.87,0.34,-0.05,-0.08,-0.7,0.55,-0.31,0.32,1.0,27.84,26.91,0.0747742,0.0,19.250359615384614,nan,-99.59148576923079,nan,0.0,0.0,9935.4893,0.0,0.0,0.0,0.0
520.0,19.0,30.0,77.0,138.0,97.0,nan,-0.76,-7.82,1.57,4.48,-78.82,126.87,0.69,-0.05,-0.15,-0.7,0.55,-0.31,0.32,1.0,27.84,26.91,0.0747742,0.0,19.250359615384614,nan,-99.59148576923079,nan,0.0,0.0,9935.4893,0.0,0.0,0.0,0.0
546.0,17.0,27.0,147.0,160.0,125.0,nan,-0.68,-7.92,1.58,4.48,-78.81,126.87,0.13,0.02,-0.01,-0.7,0.55,-0.31,0.32,1.0,27.84,26.91,0.0747742,0.0,19.250359615384614,nan,-99.59148576923079,nan,0.0,0.0,9935.4893,0.0,0.0,0.0,0.0
569.0,26.0,17.0,157.0,162.0,111.0,nan,-0.73,-7.77,1.45,4.48,-78.81,126.87,0.27,0.09,-0.15,-0.7,0.55,-0.31,0.32,1.0,27.84,26.91,0.0747742,0.0,19.250359615384614,nan,-99.59148576923079,nan,0.0,0.0,9935.4893,0.0,0.0,0.0,0.0
588.0,26.0,30.0,138.0,132.0,125.0,nan,-0.62,-7.84,1.63,4.48,-78.77,126.87,1.81,-0.12,-0.08,-0.7,0.55,-0.31,0.32,1.0,27.84,26.91,0.0747742,0.0,19.250359615384614,nan,-99.59148576923079,nan,0.0,0.0,9935.4893,0.0,0.0,0.0,0.0
612.0,21.0,31.0,98.0,144.0,109.0,nan,-0.66,-7.82,1.64,4.48,-78.77,126.87,0.06,0.02,-0.36,-0.7,0.55,-0.31,0.32,1.0,27.84,26.91,0.0747742,0.0,19.250359615384614,nan,-99.59148576923079,nan,0.0,0.0,9935.4893,0.0,0.0,0.0,0.0
631.0,32.0,29.0,53.0,138.0,125.0,nan,-0.69,-7.82,1.59,4.48,-78.78,126.87,-0.99,0.16,-0.01,-0.7,0.55,-0.31,0.32,1.0,27.84,26.91,0.0747742,0.0,19.250359615384614,nan,-99.59148576923079,nan,0.0,0.0,9935.4893,0.0,0.0,0.0,0.0
654.0,27.0,30.0,78.0,155.0,109.0,nan,-0.71,-7.86,1.61,4.49,-78.77,126.87,0.27,0.02,-0.08,-0.7,0.55,-0.31,0.32,1.0,27.84,26.91,0.0747742,0.0,19.250359615384614,nan,-99.59148576923079,nan,0.0,0.0,9935.4893,0.0,0.0,0.0,0.0
673.0,27.0,30.0,78.0,160.0,125.0,nan,-0.68,-7.81,1.53,4.49,-78.78,126.87,-0.29,-0.05,-0.22,-0.7,0.55,-0.31,0.32,1.0,27.84,26.91,0.0747742,0.0,19.250360042735043,nan,-99.59148491452991,nan,0.0,0.0,9935.4893,0.0,0.0,2591.6,0.0
696.0,30.0,21.0,82.0,154.0,109.0,nan,-0.75,-7.88,1.61,4.48,-78.79,126.86,-1.06,0.16,-0.22,-0.7,0.55,-0.31,0.32,1.0,27.85,26.93,0.0747832,0.0,19.25036047008547,nan,-99.59148405982906,nan,0.0,0.0,9935.4893,0.0,0.0,2591.6,0.0
728.0,20.0,30.0,136.0,138.0,75.0,nan,-0.62,-7.78,1.46,4.48,-78.83,126.86,-1.55,0.23,-0.15,-0.7,0.55,-0.31,0.32,1.0,27.85,26.93,0.0747832,0.0,19.250360897435897,nan,-99.59148320512821,nan,0.0,0.0,9935.4893,0.0,0.0,2591.6,0.0
748.0,17.0,31.0,98.0,155.0,103.0,nan,-0.73,-7.78,1.52,4.48,-78.82,126.86,0.62,-0.05,-0.08,-0.7,0.55,-0.31,0.32,1.0,27.85,26.93,0.0747832,0.0,19.250361324786326,nan,-99.59148235042734,nan,0.0,0.0,9935.4893,0.0,0.0,2591.6,0.0
771.0,30.0,26.0,135.0,133.0,111.0,nan,-0.55,-7.86,1.56,4.47,-78.81,126.86,0.27,-0.12,-0.43,-0.7,0.55,-0.31,0.32,1.0,27.85,26.93,0.0747832,0.0,19.250361752136754,nan,-99.59148149572647,nan,0.0,0.0,9935.4893,0.0,0.0,2591.6,0.0
790.0,32.0,26.0,40.0,153.0,125.0,nan,-0.77,-7.85,1.52,4.48,-78.83,126.85,-0.64,0.09,-0.08,-0.7,0.55,-0.31,0.32,1.0,27.85,26.93,0.0747832,0.0,19.25036217948718,nan,-99.59148064102565,nan,0.0,0.0,9935.4893,0.0,0.0,2591.6,0.0
813.0,27.0,30.0,123.0,138.0,111.0,nan,-0.63,-7.89,1.55,4.48,-78.82,126.85,0.2,0.02,-0.01,-0.7,0.55,-0.31,0.32,1.0,27.85,26.93,0.0747832,0.0,19.25036217948718,nan,-99.59148064102565,nan,0.0,0.0,9935.4893,0.0,0.0,0.0,0.0
832.0,27.0,31.0,157.0,146.0,126.0,nan,-0.79,-7.83,1.48,4.49,-78.83,126.85,-0.08,0.02,-0.08,-0.7,0.55,-0.31,0.32,1.0,27.85,26.93,0.0747832,0.0,19.25036260683761,nan,-99.59147978632478,nan,0.0,0.0,9935.4893,0.0,0.0,2591.6,0.0
855.0,18.0,31.0,149.0,132.0,110.0,nan,-0.57,-7.86,1.59,4.48,-78.82,126.85,0.34,0.02,-0.29,-0.7,0.55,-0.31,0.32,1.0,27.85,26.93,0.0747832,0.0,19.250363034188037,nan,-99.59147893162393,nan,0.0,0.0,9935.4893,0.0,0.0,2591.6,0.0
875.0,31.0,29.0,77.0,137.0,111.0,nan,-0.78,-7.84,1.58,4.48,-78.82,126.85,-0.36,-0.05,-0.22,-0.7,0.55,-0.31,0.32,1.0,27.85,26.93,0.0747832,0.0,19.250363461538463,nan,-99.59147807692308,nan,0.0,0.0,9935.4893,0.0,0.0,2591.6,0.0
898.0,19.0,30.0,87.0,129.0,76.0,nan,-0.75,-7.76,1.5,4.48,-78.86,126.85,-0.22,-0.05,-0.22,-0.7,0.55,-0.31,0.32,1.0,27.85,26.93,0.0747832,0.0,19.25036388888889,nan,-99.59147722222221,nan,0.0,0.0,9935.4893,0.0,0.0,2591.6,0.0
924.0,18.0,18.0,67.0,125.0,89.0,nan,-0.65,-7.8,1.48,4.48,-78.86,126.85,-0.01,-0.05,-0.29,-0.7,0.55,-0.31,0.32,1.0,27.85,26.93,0.0747832,0.0,19.25036431623932,nan,-99.5914763675214,nan,0.0,0.0,9935.4893,0.0,0.0,2591.6,0.0
947.0,37.0,30.0,108.0,138.0,110.0,nan,-0.7,-7.75,1.46,4.48,-78.87,126.85,0.06,0.09,-0.43,-0.7,0.55,-0.31,0.32,1.0,27.85,26.93,0.0747832,0.0,19.250364743589742,nan,-99.59147551282052,nan,0.0,0.0,9935.4893,0.0,0.0,2591.6,0.0
966.0,27.0,30.0,52.0,139.0,110.0,nan,-0.64,-7.82,1.56,4.48,-78.86,126.84,0.48,0.02,-0.08,-0.7,0.55,-0.31,0.32,1.0,27.85,26.93,0.0747832,0.0,19.250364743589742,nan,-99.59147551282052,nan,0.0,0.0,9935.4893,0.0,0.0,0.0,0.0
989.0,18.0,30.0,108.0,159.0,124.0,nan,-0.68,-7.81,1.51,4.48,-78.86,126.84,-0.29,0.09,-0.22,-0.7,0.55,-0.31,0.32,1.0,27.85,26.93,0.0747832,0.0,19.250365170940174,nan,-99.59147465811965,nan,0.0,0.0,9935.4893,0.0,0.0,2591.6,0.0
1009.0,22.0,18.0,125.0,169.0,105.0,nan,-0.7,-7.83,1.53,4.48,-78.85,126.84,0.55,0.09,-0.08,-0.7,0.55,-0.31,0.32,1.0,27.85,26.93,0.0747832,0.0,19.250365598290603,nan,-99.59147380341881,nan,0.0,0.0,9935.4893,0.0,0.0,2591.6,0.0
1032.0,17.0,17.0,77.0,159.0,75.0,nan,-0.62,-7.89,1.61,4.47,-78.83,126.84,1.18,-0.12,-0.22,-0.7,0.55,-0.31,0.32,1.0,27.85,26.93,0.0747832,0.0,19.250366025641025,nan,-99.59147294871795,nan,0.0,0.0,9935.4893,0.0,0.0,2591.6,0.0
1051.0,16.0,30.0,67.0,159.0,117.0,nan,-0.59,-7.86,1.59,4.47,-78.83,126.84,-0.43,0.16,-0.15,-0.7,0.55,-0.31,0.32,1.0,27.85,26.93,0.0747832,0.0,19.250366452991457,nan,-99.59147209401708,nan,0.0,0.0,9935.4893,0.0,0.0,2591.6,0.0
1074.0,19.0,29.0,88.0,149.0,109.0,nan,-0.48,-7.88,1.65,4.45,-78.83,126.84,-0.43,0.09,-0.29,-0.7,0.55,-0.31,0.32,1.0,27.85,26.93,0.0747832,0.0,19.250366452991457,nan,-99.59147209401708,nan,0.0,0.0,9935.4893,0.0,0.0,0.0,0.0
1094.0,31.0,29.0,52.0,137.0,126.0,nan,-0.67,-7.89,1.56,4.46,-78.85,126.83,-0.99,0.16,-0.08,-0.7,0.55,-0.31,0.32,1.0,27.85,26.93,0.0747832,0.0,19.25036688034188,nan,-99.59147123931626,nan,0.0,0.0,9935.4893,0.0,0.0,2591.6,0.0
1116.0,31.0,31.0,119.0,150.0,130.0,nan,-0.64,-7.93,1.52,4.44,-78.88,126.83,-0.36,0.02,-0.15,-0.7,0.55,-0.31,0.32,1.0,27.85,26.93,0.0747832,0.0,19.25036730769231,nan,-99.59147038461539,nan,0.0,0.0,9935.4893,0.0,0.0,2591.6,0.0
1143.0,31.0,28.0,93.0,137.0,138.0,nan,-0.58,-7.96,1.53,4.44,-78.9,126.83,-0.92,0.09,-0.01,-0.7,0.55,-0.31,0.32,1.0,27.85,26.93,0.0747832,0.0,19.250367735042733,nan,-99.59146952991455,nan,0.0,0.0,9935.4893,0.0,0.0,2591.6,0.0
1166.0,17.0,26.0,82.0,133.0,120.0,nan,-0.86,-7.89,1.36,4.46,-78.92,126.83,-0.5,-0.05,0.06,-0.7,0.55,-0.31,0.32,1.0,27.85,27.01,0.0747667,0.0,19.250368162393162,nan,-99.59146867521368,nan,0.0,0.0,9935.4893,0.0,0.0,2591.6,0.0
1187.0,18.0,26.0,73.0,137.0,76.0,nan,-0.75,-7.85,1.41,4.46,-78.9,126.83,1.39,-0.26,0.06,-0.7,0.55,-0.31,0.32,1.0,27.85,27.01,0.0747667,0.0,19.250368589743594,nan,-99.59146782051282,nan,0.0,0.0,9935.4893,0.0,0.0,2591.6,0.0
1210.0,17.0,30.0,60.0,160.0,103.0,nan,-0.87,-7.78,1.39,4.48,-78.89,126.83,1.25,-0.26,-0.08,-0.7,0.55,-0.31,0.32,1.0,27.85,27.01,0.0747667,0.0,19.250369017094016,nan,-99.59146696581195,nan,0.0,0.0,9935.4893,0.0,0.0,2591.6,0.0
1230.0,37.0,25.0,157.0,168.0,111.0,nan,-0.76,-7.8,1.48,4.49,-78.88,126.83,0.48,0.02,0.06,-0.7,0.55,-0.31,0.32,1.0,27.85,27.01,0.0747667,0.0,19.250369017094016,nan,-99.59146696581195,nan,0.0,0.0,9935.4893,0.0,0.0,0.0,0.0
1252.0,26.0,30.0,161.0,147.0,111.0,nan,-0.98,-7.71,1.39,4.52,-78.87,126.84,1.04,-0.05,0.2,-0.7,0.55,-0.31,0.32,1.0,27.85,27.01,0.0747667,0.0,19.250369444444445,nan,-99.59146611111113,nan,0.0,0.0,9935.4893,0.0,0.0,2591.6,0.0
1272.0,19.0,31.0,78.0,138.0,125.0,nan,-0.81,-7.66,1.45,4.53,-78.83,126.84,2.37,-0.26,-0.01,-0.7,0.55,-0.31,0.32,1.0,27.85,27.01,0.0747667,0.0,19.250369871794874,nan,-99.59146525641026,nan,0.0,0.0,9935.4893,0.0,0.0,2591.6,0.0
1295.0,26.0,31.0,88.0,139.0,111.0,nan,-0.71,-7.54,1.7,4.56,-78.64,126.86,3.63,-0.33,0.06,-0.7,0.55,-0.31,0.32,1.0,27.85,27.01,0.0747667,0.0,19.2503702991453,nan,-99.59146440170942,nan,0.0,0.0,9935.4893,0.0,0.0,2591.6,0.0
1321.0,27.0,30.0,77.0,138.0,124.0,nan,-0.68,-7.59,1.86,4.56,-78.54,126.86,3.84,-0.05,0.06,-0.7,0.55,-0.31,0.32,1.0,27.85,27.01,0.0747667,0.0,19.250370726495728,nan,-99.59146354700854,nan,0.0,0.0,9935.4893,0.0,0.0,2591.6,0.0
1344.0,30.0,25.0,88.0,137.0,111.0,nan,-0.53,-7.7,2.07,4.56,-78.46,126.86,2.16,0.16,0.06,-0.7,0.55,-0.31,0.32,1.0,27.85,27.01,0.0747667,0.0,19.250371153846157,nan,-99.59146269230769,nan,0.0,0.0,9935.4893,0.0,0.0,2591.6,0.0
1363.0,26.0,30.0,68.0,138.0,110.0,nan,-0.42,-7.85,2.15,4.53,-78.44,126.85,-0.78,0.44,-0.36,-0.7,0.55,-0.31,0.32,1.0,27.85,27.01,0.0747667,0.0,19.250371581196582,nan,-99.59146183760686,nan,0.0,0.0,9935.4893,0.0,0.0,2591.6,0.0
1387.0,22.0,17.0,68.0,139.0,109.0,nan,-0.37,-8.06,2.1,4.51,-78.51,126.84,-4.91,0.86,-0.64,-0.7,0.55,-0.31,0.32,1.0,27.85,27.01,0.0747667,0.0,19.250371581196582,nan,-99.59146183760686,nan,0.0,0.0,9935.4893,0.0,0.0,0.0,0.0
1406.0,26.0,26.0,67.0,138.0,111.0,nan,-0.33,-8.19,1.98,4.47,-78.64,126.82,-7.43,0.79,-0.99,-0.7,0.55,-0.31,0.32,1.0,27.85,27.01,0.0747667,0.0,19.25037200854701,nan,-99.591460982906,nan,0.0,0.0,9935.4893,0.0,0.0,2591.6,0.0
1429.0,27.0,30.0,67.0,125.0,104.0,nan,-0.49,-8.16,1.53,4.44,-78.84,126.8,-9.39,0.65,-0.92,-0.7,0.55,-0.31,0.32,1.0,27.85,27.01,0.0747667,0.0,19.25037243589744,nan,-99.59146012820516,nan,0.0,0.0,9935.4893,0.0,0.0,2591.6,0.0
1449.0,27.0,30.0,108.0,138.0,75.0,nan,-0.55,-8.13,1.31,4.42,-78.99,126.79,-6.59,0.16,-0.85,-0.7,0.55,-0.31,0.32,1.0,27.85,27.01,0.0747667,0.0,19.250372863247865,nan,-99.59145927350428,nan,0.0,0.0,9935.4893,0.0,0.0,2591.6,0.0
1471.0,17.0,31.0,88.0,136.0,102.0,nan,-0.79,-7.98,0.95,4.41,-79.12,126.8,-4.63,-0.4,-0.71,-0.7,0.56,-0.31,0.32,1.0,27.85,27.01,0.0747667,0.0,19.250373290598294,nan,-99.59145841880341,nan,0.0,0.0,9935.4893,0.0,0.0,2591.6,0.0
1491.0,32.0,30.0,119.0,147.0,110.0,nan,-0.74,-7.84,0.84,4.42,-79.2,126.8,-1.41,-0.47,-0.36,-0.7,0.56,-0.31,0.32,1.0,27.85,27.01,0.0747667,0.0,19.250373717948722,nan,-99.59145756410257,nan,0.0,0.0,9935.4893,0.0,0.0,2591.6,0.0
1514.0,27.0,31.0,88.0,153.0,111.0,nan,-0.83,-7.53,0.86,4.46,-79.17,126.81,4.05,-0.47,0.2,-0.7,0.56,-0.31,0.32,1.0,27.85,27.01,0.0747667,0.0,19.250374145299144,nan,-99.59145670940173,nan,0.0,0.0,9935.4893,0.0,0.0,2591.6,0.0
1540.0,26.0,31.0,68.0,154.0,112.0,nan,-1.0,-7.54,1.08,4.49,-79.06,126.82,6.71,-0.4,0.48,-0.7,0.56,-0.31,0.32,1.0,27.85,27.01,0.0747667,0.0,19.250374145299144,nan,-99.59145670940173,nan,0.0,0.0,9935.4893,0.0,0.0,0.0,0.0
1563.0,31.0,29.0,124.0,156.0,110.0,nan,-0.86,-7.63,1.57,4.52,-78.91,126.83,7.41,-0.4,0.62,-0.7,0.55,-0.31,0.32,1.0,27.85,27.01,0.0747667,0.0,19.250375000000005,nan,-99.59145585470087,nan,0.0,0.0,9935.4893,0.0,0.0,2591.6,0.0
1582.0,26.0,31.0,136.0,155.0,110.0,nan,-0.92,-7.75,1.66,4.55,-78.78,126.83,5.66,0.02,0.55,-0.7,0.55,-0.31,0.32,1.0,27.85,27.01,0.0747667,0.0,19.250375000000005,nan,-99.5914547835498,nan,0.0,0.0,9935.4873,1.0,1.0,2591.6,0.0
1605.0,26.0,30.0,108.0,137.0,110.0,nan,-0.68,-7.89,1.91,4.56,-78.69,126.83,3.35,0.16,0.34,-0.7,0.55,-0.31,0.32,1.0,27.85,27.01,0.0747667,0.0,19.250375028735633,nan,-99.59145456709959,nan,0.0,0.0,9935.4873,0.0,0.0,2591.6,0.0
1625.0,31.0,29.0,67.0,131.0,110.0,nan,-0.67,-7.89,1.87,4.57,-78.65,126.83,1.04,0.37,-0.08,-0.7,0.55,-0.31,0.32,1.0,27.83,27.02,0.07477,0.0,19.25037504310345,nan,-99.59145435064937,nan,0.0,0.0,9935.4873,0.0,0.0,2591.6,0.0
1650.0,26.0,30.0,68.0,155.0,110.0,nan,-0.39,-7.85,1.93,4.54,-78.65,126.82,-1.06,0.51,-0.43,-0.7,0.55,-0.31,0.32,1.0,27.83,27.02,0.07477,0.0,19.250375057471263,nan,-99.59145413419913,nan,0.0,0.0,9935.4873,0.0,0.0,2591.6,0.0
1669.0,19.0,30.0,66.0,138.0,124.0,nan,-0.41,-7.91,1.93,4.52,-78.67,126.81,-1.97,0.44,-0.57,-0.7,0.55,-0.31,0.32,1.0,27.83,27.02,0.07477,0.0,19.250375057471263,nan,-99.59145413419913,nan,0.0,0.0,9935.4873,0.0,0.0,0.0,0.0
1693.0,27.0,31.0,66.0,134.0,105.0,nan,-0.54,-7.9,1.65,4.48,-78.75,126.8,-1.48,0.23,-0.22,-0.7,0.55,-0.31,0.32,1.0,27.83,27.02,0.07477,0.0,19.250375071839084,nan,-99.59145391774895,nan,0.0,0.0,9935.4873,0.0,0.0,2591.6,0.0
1719.0,28.0,29.0,60.0,138.0,118.0,nan,-0.65,-7.98,1.62,4.48,-78.75,126.8,-0.29,-0.33,-0.22,-0.7,0.55,-0.31,0.32,1.0,27.83,27.02,0.07477,0.0,19.250375086206898,nan,-99.59145370129873,nan,0.0,0.0,9935.4873,0.0,0.0,2591.6,0.0
1742.0,17.0,37.0,136.0,155.0,110.0,nan,-0.62,-7.98,1.59,4.47,-78.74,126.81,0.34,-0.4,-0.43,-0.7,0.55,-0.31,0.32,1.0,27.83,27.02,0.07477,0.0,19.25037510057472,nan,-99.59145348484851,nan,0.0,0.0,9935.4873,0.0,0.0,2591.6,0.0
1761.0,27.0,30.0,77.0,138.0,126.0,nan,-0.78,-7.96,1.59,4.48,-78.74,126.81,0.06,-0.26,-0.01,-0.7,0.55,-0.31,0.32,1.0,27.83,27.02,0.07477,0.0,19.250375114942532,nan,-99.59145326839828,nan,0.0,0.0,9935.4873,0.0,0.0,2591.5,0.0
1784.0,37.0,26.0,88.0,139.0,111.0,nan,-0.75,-7.82,1.57,4.48,-78.73,126.82,0.2,-0.4,-0.15,-0.7,0.55,-0.31,0.32,1.0,27.83,27.02,0.07477,0.0,19.25037512931035,nan,-99.59145305194806,nan,0.0,0.0,9935.4873,0.0,0.0,2591.5,0.0
1803.0,19.0,31.0,108.0,138.0,124.0,nan,-0.85,-7.69,1.5,4.49,-78.74,126.82,-0.01,-0.12,-0.22,-0.7,0.55,-0.31,0.32,1.0,27.83,27.02,0.07477,0.0,19.250375143678163,nan,-99.59145283549785,nan,0.0,0.0,9935.4873,0.0,0.0,2591.5,0.0
1826.0,25.0,27.0,67.0,137.0,98.0,nan,-0.71,-7.68,1.65,4.49,-78.74,126.83,-0.36,-0.19,-0.36,-0.7,0.55,-0.31,0.32,1.0,27.83,27.02,0.07477,0.0,19.250375143678163,nan,-99.59145283549785,nan,0.0,0.0,9935.4873,0.0,0.0,0.0,0.0
1846.0,37.0,26.0,67.0,139.0,111.0,nan,-0.85,-7.65,1.43,4.51,-78.79,126.82,-2.6,0.23,-0.22,-0.7,0.55,-0.31,0.32,1.0,27.83,27.02,0.07477,0.0,19.250375158045976,nan,-99.59145261904763,nan,0.0,0.0,9935.4873,0.0,0.0,2591.5,0.0
1869.0,37.0,26.0,87.0,125.0,111.0,nan,-0.7,-7.71,1.41,4.51,-78.85,126.81,-2.32,0.3,-0.22,-0.7,0.55,-0.31,0.32,1.0,27.83,27.02,0.07477,0.0,19.250375172413797,nan,-99.59145240259741,nan,0.0,0.0,9935.4873,0.0,0.0,2591.5,0.0
1888.0,30.0,21.0,67.0,138.0,97.0,nan,-0.82,-7.84,1.33,4.52,-78.9,126.8,-1.69,0.37,-0.29,-0.7,0.55,-0.31,0.32,1.0,27.83,27.02,0.07477,0.0,19.25037518678161,nan,-99.5914521861472,nan,0.0,0.0,9935.4873,0.0,0.0,2591.5,0.0
1911.0,27.0,30.0,78.0,137.0,112.0,nan,-0.69,-7.88,1.26,4.52,-78.97,126.78,0.13,0.3,-0.22,-0.7,0.55,-0.31,0.32,1.0,27.83,27.02,0.07477,0.0,19.25037520114943,nan,-99.59145196969698,nan,0.0,0.0,9935.4873,0.0,0.0,2591.5,0.0
1937.0,25.0,31.0,77.0,138.0,110.0,nan,-0.53,-7.88,1.44,4.51,-78.95,126.78,1.11,0.09,-0.22,-0.7,0.55,-0.31,0.32,1.0,27.83,27.02,0.07477,0.0,19.250375215517245,nan,-99.59145175324677,nan,0.0,0.0,9935.4873,0.0,0.0,2591.5,0.0
1960.0,27.0,31.0,77.0,148.0,76.0,nan,-0.55,-7.8,1.42,4.5,-78.93,126.78,1.6,0.02,-0.29,-0.7,0.55,-0.31,0.32,1.0,27.83,27.02,0.07477,0.0,19.25037522988506,nan,-99.59145153679655,nan,0.0,0.0,9935.4873,0.0,0.0,2591.5,0.0
1980.0,16.0,30.0,87.0,125.0,102.0,nan,-0.57,-7.85,1.55,4.49,-78.88,126.78,2.23,-0.12,0.06,-0.7,0.55,-0.31,0.32,1.0,27.83,27.02,0.07477,0.0,19.25037522988506,nan,-99.59145153679655,nan,0.0,0.0,9935.4873,0.0,0.0,0.0,0.0
2003.0,37.0,30.0,120.0,134.0,110.0,nan,-0.6,-7.84,1.59,4.49,-78.82,126.79,2.86,-0.26,-0.08,-0.7,0.55,-0.31,0.32,1.0,27.83,27.02,0.07477,0.0,19.250375244252876,nan,-99.59145132034634,nan,0.0,0.0,9935.4873,0.0,0.0,2591.5,0.0
2022.0,32.0,30.0,116.0,138.0,111.0,nan,-0.68,-7.86,1.62,4.49,-78.77,126.79,2.16,-0.33,0.13,-0.7,0.55,-0.31,0.32,1.0,27.83,27.02,0.07477,0.0,19.25037525862069,nan,-99.59145110389612,nan,0.0,0.0,9935.4873,0.0,0.0,2591.5,0.0
2045.0,27.0,30.0,82.0,154.0,105.0,nan,-0.65,-7.86,1.76,4.49,-78.7,126.8,2.79,-0.4,-0.15,-0.7,0.55,-0.31,0.32,1.0,27.83,27.02,0.07477,0.0,19.25037527298851,nan,-99.5914508874459,nan,0.0,0.0,9935.4873,0.0,0.0,2591.5,0.0
2065.0,27.0,20.0,108.0,144.0,111.0,nan,-0.79,-7.85,1.7,4.5,-78.68,126.81,0.97,-0.12,-0.01,-0.7,0.55,-0.31,0.32,1.0,27.83,27.02,0.07477,0.0,19.250375287356324,nan,-99.59145067099568,nan,0.0,0.0,9935.4873,0.0,0.0,2591.5,0.0
2088.0,27.0,27.0,89.0,138.0,111.0,nan,-0.77,-7.78,1.71,4.51,-78.62,126.81,0.34,-0.05,-0.01,-0.7,0.55,-0.31,0.32,1.0,27.85,27.0,0.0747708,0.0,19.250375301724144,nan,-99.59145045454547,nan,0.0,0.0,9935.4873,0.0,0.0,2591.5,0.0
2119.0,18.0,30.0,78.0,154.0,76.0,nan,-0.61,-7.79,1.83,4.5,-78.6,126.81,-0.08,0.09,-0.22,-0.7,0.55,-0.31,0.32,1.0,27.85,27.0,0.0747708,0.0,19.250375316091958,nan,-99.59145023809525,nan,0.0,0.0,9935.4873,0.0,0.0,2591.5,0.0
2139.0,16.0,19.0,53.0,137.0,103.0,nan,-0.79,-7.86,1.76,4.51,-78.61,126.81,-0.99,0.16,-0.22,-0.7,0.55,-0.31,0.32,1.0,27.85,27.0,0.0747708,0.0,19.250375316091958,nan,-99.59145023809525,nan,0.0,0.0,9935.4873,0.0,0.0,0.0,0.0
2162.0,31.0,21.0,52.0,154.0,96.0,nan,-0.67,-7.85,1.69,4.51,-78.65,126.8,-2.39,0.23,-0.15,-0.7,0.55,-0.31,0.32,1.0,27.85,27.0,0.0747708,0.0,19.25037533045977,nan,-99.59145002164503,nan,0.0,0.0,9935.4873,0.0,0.0,2591.5,0.0
2181.0,24.0,26.0,76.0,138.0,112.0,nan,-0.73,-7.87,1.55,4.51,-78.7,126.8,-2.25,0.23,-0.5,-0.7,0.55,-0.31,0.32,1.0,27.85,27.0,0.0747708,0.0,19.25037534482759,nan,-99.5914498051948,nan,0.0,0.0,9935.4873,0.0,0.0,2591.5,0.0
2204.0,37.0,27.0,78.0,136.0,110.0,nan,-0.67,-7.9,1.62,4.51,-78.76,126.79,-2.95,0.3,-0.43,-0.7,0.55,-0.31,0.32,1.0,27.85,27.0,0.0747708,0.0,19.250375359195402,nan,-99.59144958874462,nan,0.0,0.0,9935.4873,0.0,0.0,2591.5,0.0
2224.0,20.0,26.0,78.0,139.0,112.0,nan,-0.71,-7.84,1.36,4.5,-78.85,126.78,-4.07,0.37,-0.78,-0.7,0.55,-0.31,0.32,1.0,27.85,27.0,0.0747708,0.0,19.250375373563223,nan,-99.5914493722944,nan,0.0,0.0,9935.4873,0.0,0.0,2591.5,0.0
2246.0,26.0,30.0,77.0,112.0,112.0,nan,-0.6,-7.89,1.31,4.49,-78.95,126.77,-3.72,0.44,-0.5,-0.7,0.55,-0.31,0.32,1.0,27.85,27.0,0.0747708,0.0,19.250375387931037,nan,-99.59144915584416,nan,0.0,0.0,9935.4873,0.0,0.0,2591.5,0.0
2266.0,31.0,29.0,53.0,138.0,125.0,nan,-0.62,-7.81,1.22,4.48,-79.0,126.76,-1.62,0.02,-0.57,-0.7,0.55,-0.31,0.32,1.0,27.85,27.0,0.0747708,0.0,19.250375387931037,nan,-99.59144915584416,nan,0.0,0.0,9935.4873,0.0,0.0,0.0,0.0
2289.0,27.0,31.0,78.0,155.0,108.0,nan,-0.61,-7.84,1.32,4.47,-78.99,126.76,2.72,-0.33,-0.08,-0.7,0.55,-0.31,0.32,1.0,27.85,27.0,0.0747708,0.0,19.25037540229885,nan,-99.59144893939394,nan,0.0,0.0,9935.4873,0.0,0.0,2591.5,0.0
2315.0,26.0,31.0,78.0,118.0,96.0,nan,-0.69,-7.8,1.3,4.48,-78.96,126.77,2.51,-0.19,0.2,-0.7,0.55,-0.31,0.32,1.0,27.85,27.0,0.0747708,0.0,19.25037541666667,nan,-99.59144872294372,nan,0.0,0.0,9935.4873,0.0,0.0,2591.5,0.0
2338.0,37.0,25.0,79.0,145.0,112.0,nan,-0.62,-7.82,1.49,4.48,-78.89,126.77,3.56,-0.19,0.2,-0.7,0.55,-0.31,0.32,1.0,27.85,27.0,0.0747708,0.0,19.250375431034485,nan,-99.5914485064935,nan,0.0,0.0,9935.4873,0.0,0.0,2591.5,0.0
2358.0,26.0,31.0,88.0,138.0,111.0,nan,-0.78,-7.82,1.56,4.49,-78.82,126.78,3.42,-0.26,0.27,-0.7,0.55,-0.31,0.32,1.0,27.85,27.0,0.0747708,0.0,19.2503754454023,nan,-99.59144829004329,nan,0.0,0.0,9935.4873,0.0,0.0,2591.5,0.0
2380.0,27.0,30.0,76.0,155.0,110.0,nan,-0.61,-7.82,1.69,4.49,-78.75,126.78,2.65,-0.12,0.06,-0.7,0.55,-0.31,0.32,1.0,27.85,27.0,0.0747708,0.0,19.250375459770115,nan,-99.59144807359307,nan,0.0,0.0,9935.4873,0.0,0.0,2591.5,0.0
2400.0,26.0,30.0,78.0,137.0,111.0,nan,-0.75,-7.83,1.76,4.51,-78.7,126.78,1.95,-0.05,0.2,-0.7,0.55,-0.31,0.32,1.0,27.85,27.0,0.0747708,0.0,19.250375459770115,nan,-99.59144807359307,nan,0.0,0.0,9935.4873,0.0,0.0,0.0,0.0
2423.0,28.0,31.0,81.0,160.0,125.0,nan,-0.6,-7.84,1.81,4.51,-78.67,126.78,0.83,0.02,0.06,-0.7,0.55,-0.31,0.32,1.0,27.85,27.0,0.0747708,0.0,19.25037547413793,nan,-99.59144785714285,nan,0.0,0.0,9935.4873,0.0,0.0,2591.5,0.0
2442.0,26.0,30.0,157.0,162.0,111.0,nan,-0.77,-7.8,1.7,4.51,-78.66,126.78,-0.08,0.23,-0.08,-0.7,0.55,-0.31,0.32,1.0,27.85,27.0,0.0747708,0.0,19.25037548850575,nan,-99.59144764069266,nan,0.0,0.0,9935.4873,0.0,0.0,2591.5,0.0
2465.0,18.0,31.0,152.0,133.0,111.0,nan,-0.59,-7.84,1.82,4.51,-78.64,126.78,-0.01,0.02,-0.29,-0.7,0.55,-0.31,0.32,1.0,27.85,27.0,0.0747708,0.0,19.250375502873563,nan,-99.59144742424245,nan,0.0,0.0,9935.4873,0.0,0.0,2591.5,0.0
2485.0,26.0,31.0,135.0,125.0,82.0,nan,-0.75,-7.77,1.64,4.51,-78.66,126.78,-1.13,0.09,-0.36,-0.7,0.55,-0.31,0.32,1.0,27.85,27.0,0.0747708,0.0,19.250375517241384,nan,-99.59144720779223,nan,0.0,0.0,9935.4873,0.0,0.0,2591.5,0.0
2508.0,26.0,30.0,86.0,125.0,118.0,nan,-0.75,-7.86,1.61,4.5,-78.72,126.77,-1.97,0.09,-0.43,-0.7,0.55,-0.31,0.32,1.0,27.85,27.0,0.0747708,0.0,19.250375531609198,nan,-99.59144699134201,nan,0.0,0.0,9935.4873,0.0,0.0,2591.5,0.0
2534.0,38.0,26.0,88.0,138.0,76.0,nan,-0.68,-7.83,1.5,4.49,-78.77,126.77,-2.25,0.09,-0.36,-0.7,0.55,-0.31,0.32,1.0,27.85,27.0,0.0747708,0.0,19.25037554597701,nan,-99.59144677489179,nan,0.0,0.0,9935.4873,0.0,0.0,2591.5,0.0
2557.0,16.0,30.0,77.0,124.0,103.0,nan,-0.69,-7.86,1.51,4.49,-78.78,126.77,-0.43,-0.12,-0.36,-0.7,0.55,-0.31,0.32,1.0,27.85,27.07,0.0747742,0.0,19.25037556034483,nan,-99.59144655844158,nan,0.0,0.0,9935.4873,0.0,0.0,2591.5,0.0
2579.0,17.0,31.0,120.0,148.0,111.0,nan,-0.69,-7.87,1.5,4.49,-78.8,126.77,-0.99,-0.12,-0.29,-0.7,0.55,-0.31,0.32,1.0,27.85,27.07,0.0747742,0.0,19.25037556034483,nan,-99.59144655844158,nan,0.0,0.0,9935.4873,0.0,0.0,0.0,0.0
2601.0,30.0,30.0,89.0,138.0,112.0,nan,-0.66,-7.81,1.45,4.49,-78.82,126.77,-0.78,0.02,-0.36,-0.7,0.55,-0.31,0.32,1.0,27.85,27.07,0.0747742,0.0,19.250375574712642,nan,-99.59144634199136,nan,0.0,0.0,9935.4873,0.0,0.0,2591.5,0.0
2621.0,32.0,30.0,108.0,136.0,130.0,nan,-0.7,-7.8,1.45,4.49,-78.84,126.76,-0.43,0.09,-0.08,-0.7,0.55,-0.31,0.32,1.0,27.85,27.07,0.0747742,0.0,19.250375589080463,nan,-99.59144612554114,nan,0.0,0.0,9935.4873,0.0,0.0,2591.5,0.0
2644.0,20.0,21.0,51.0,140.0,125.0,nan,-0.6,-7.83,1.47,4.48,-78.85,126.76,-0.15,0.02,-0.29,-0.7,0.55,-0.31,0.32,1.0,27.85,27.07,0.0747742,0.0,19.250375603448276,nan,-99.59144590909092,nan,0.0,0.0,9935.4873,0.0,0.0,2591.5,0.0
2663.0,28.0,27.0,67.0,137.0,125.0,nan,-0.65,-7.81,1.4,4.48,-78.87,126.76,-0.78,0.09,-0.29,-0.7,0.55,-0.31,0.32,1.0,27.85,27.07,0.0747742,0.0,19.25037561781609,nan,-99.59144569264068,nan,0.0,0.0,9935.4873,0.0,0.0,2591.5,0.0
2686.0,31.0,29.0,120.0,148.0,105.0,nan,-0.47,-7.78,1.31,4.44,-78.96,126.75,-2.67,0.23,-0.5,-0.7,0.55,-0.31,0.32,1.0,27.85,27.07,0.0747742,0.0,19.25037563218391,nan,-99.59144547619051,nan,0.0,0.0,9935.4873,0.0,0.0,2591.5,0.0
2713.0,32.0,29.0,93.0,138.0,110.0,nan,-0.14,-7.66,1.38,4.39,-78.97,126.74,-0.08,0.02,-0.71,-0.7,0.55,-0.31,0.32,1.0,27.85,27.07,0.0747742,0.0,19.250375646551724,nan,-99.5914452597403,nan,0.0,0.0,9935.4873,0.0,0.0,2591.6,0.0
2735.0,18.0,31.0,89.0,138.0,110.0,nan,-0.11,-7.54,1.4,4.34,-78.93,126.74,2.09,-0.19,-0.78,-0.7,0.55,-0.31,0.32,1.0,27.85,27.07,0.0747742,0.0,19.250375646551724,nan,-99.5914452597403,nan,0.0,0.0,9935.4873,0.0,0.0,0.0,0.0
2755.0,18.0,31.0,55.0,134.0,110.0,nan,0.1,-7.47,1.6,4.27,-78.87,126.74,2.86,-0.26,-0.92,-0.7,0.55,-0.31,0.32,1.0,27.85,27.07,0.0747742,0.0,19.25037566091954,nan,-99.59144504329008,nan,0.0,0.0,9935.4873,0.0,0.0,2591.6,0.0
2778.0,27.0,31.0,125.0,133.0,110.0,nan,0.1,-7.67,1.75,4.2,-78.82,126.74,1.32,0.02,-0.85,-0.7,0.55,-0.31,0.33,1.0,27.85,27.07,0.0747742,0.0,19.250375675287355,nan,-99.59144482683983,nan,0.0,0.0,9935.4873,0.0,0.0,2591.6,0.0
2797.0,27.0,30.0,78.0,160.0,125.0,nan,0.11,-7.9,1.84,4.14,-78.82,126.74,-0.57,0.23,-0.78,-0.7,0.55,-0.31,0.33,1.0,27.85,27.07,0.0747742,0.0,19.25037568965517,nan,-99.59144461038962,nan,0.0,0.0,9935.4873,0.0,0.0,2591.6,0.0
2820.0,27.0,30.0,89.0,137.0,126.0,nan,-0.03,-8.06,1.63,4.09,-78.83,126.73,-0.78,0.23,-0.57,-0.7,0.55,-0.31,0.33,1.0,27.85,27.07,0.0747742,0.0,19.25037570402299,nan,-99.5914443939394,nan,0.0,0.0,9935.4873,0.0,0.0,2591.6,0.0
2840.0,20.0,30.0,68.0,137.0,118.0,nan,-0.14,-8.11,1.77,4.04,-78.8,126.73,0.69,-0.19,-0.78,-0.7,0.55,-0.31,0.33,1.0,27.85,27.07,0.0747742,0.0,19.25037570402299,nan,-99.5914443939394,nan,0.0,0.0,9935.4873,0.0,0.0,0.0,0.0
2862.0,37.0,26.0,78.0,152.0,118.0,nan,-0.12,-8.13,1.74,3.98,-78.79,126.73,0.13,-0.26,-1.2,-0.7,0.55,-0.31,0.33,1.0,27.85,27.07,0.0747742,0.0,19.250375718390803,nan,-99.59144417748918,nan,0.0,0.0,9935.4873,0.0,0.0,2591.6,0.0
2882.0,26.0,30.0,119.0,147.0,110.0,nan,0.02,-7.99,1.74,3.92,-78.82,126.73,-1.97,-0.05,-1.13,-0.7,0.56,-0.31,0.33,1.0,27.85,27.07,0.0747742,0.0,19.250375732758624,nan,-99.59144396103896,nan,0.0,0.0,9935.4873,0.0,0.0,2591.6,0.0
2905.0,18.0,30.0,93.0,138.0,112.0,nan,0.06,-7.85,1.5,3.81,-78.96,126.71,-3.09,0.3,-0.85,-0.7,0.56,-0.31,0.33,1.0,27.85,27.07,0.0747742,0.0,19.250375747126437,nan,-99.59144374458874,nan,0.0,0.0,9935.4873,0.0,0.0,2591.6,0.0
2931.0,26.0,31.0,66.0,137.0,111.0,nan,0.08,-8.01,1.46,3.75,-78.96,126.71,-0.15,-0.19,-0.71,-0.7,0.56,-0.31,0.33,1.0,27.85,27.07,0.0747742,0.0,19.25037576149425,nan,-99.59144352813856,nan,0.0,0.0,9935.4873,0.0,0.0,2591.6,0.0
2954.0,28.0,30.0,68.0,158.0,124.0,nan,0.12,-7.92,1.47,3.69,-78.98,126.72,-0.43,-0.19,-0.36,-0.7,0.56,-0.31,0.33,1.0,27.85,27.07,0.0747742,0.0,19.250375775862068,nan,-99.59144331168834,nan,0.0,0.0,9935.4873,0.0,0.0,2591.6,0.0
2974.0,19.0,18.0,82.0,153.0,109.0,nan,0.0,-8.04,1.53,3.65,-78.94,126.72,1.95,-0.26,-0.08,-0.7,0.56,-0.31,0.33,1.0,27.85,27.07,0.0747742,0.0,19.25037579022988,nan,-99.59144309523812,nan,0.0,0.0,9935.4873,0.0,0.0,2591.6,0.0
2996.0,26.0,30.0,136.0,154.0,110.0,nan,-0.16,-8.07,1.63,3.63,-78.88,126.73,2.65,-0.47,0.34,-0.7,0.56,-0.31,0.33,1.0,27.85,27.07,0.0747742,0.0,19.25037579022988,nan,-99.59144309523812,nan,0.0,0.0,9935.4873,0.0,0.0,0.0,0.0
3016.0,28.0,31.0,158.0,160.0,126.0,nan,0.06,-7.93,1.65,3.59,-78.84,126.74,1.95,-0.61,-0.01,-0.7,0.56,-0.31,0.33,1.0,27.83,27.05,0.074775,0.0,19.250375804597702,nan,-99.5914428787879,nan,0.0,0.0,9935.4873,0.0,0.0,2591.6,0.0
3041.0,21.0,30.0,120.0,134.0,76.0,nan,-0.03,-7.82,1.66,3.55,-78.82,126.75,0.62,-0.26,-0.15,-0.7,0.56,-0.31,0.33,1.0,27.83,27.05,0.074775,0.0,19.250375818965516,nan,-99.59144266233768,nan,0.0,0.0,9935.4873,0.0,0.0,2591.6,0.0
3061.0,15.0,29.0,108.0,138.0,117.0,nan,-0.12,-7.98,1.81,3.52,-78.79,126.75,0.41,-0.12,-0.15,-0.7,0.56,-0.31,0.33,1.0,27.83,27.05,0.074775,0.0,19.250375833333337,nan,-99.59144244588747,nan,0.0,0.0,9935.4873,0.0,0.0,2591.6,0.0
3083.0,30.0,28.0,52.0,154.0,76.0,nan,0.05,-7.84,1.58,3.46,-78.89,126.74,-1.41,0.23,0.06,-0.7,0.56,-0.31,0.33,1.0,27.83,27.05,0.074775,0.0,19.25037584770115,nan,-99.59144222943725,nan,0.0,0.0,9935.4873,0.0,0.0,2591.6,0.0
3109.0,16.0,30.0,77.0,125.0,101.0,nan,-0.36,-7.95,1.43,3.46,-78.88,126.75,0.83,-0.12,0.27,-0.7,0.56,-0.31,0.33,1.0,27.83,27.05,0.074775,0.0,19.250375862068964,nan,-99.59144201298703,nan,0.0,0.0,9935.4873,0.0,0.0,2591.6,0.0
3132.0,26.0,32.0,78.0,154.0,110.0,nan,-0.33,-8.07,1.65,3.45,-78.82,126.75,2.79,-0.26,0.48,-0.7,0.56,-0.31,0.33,1.0,27.83,27.05,0.074775,0.0,19.25037587643678,nan,-99.59144179653681,nan,0.0,0.0,9935.4873,0.0,0.0,2591.6,0.0
3152.0,27.0,30.0,88.0,138.0,123.0,nan,-0.44,-7.98,1.63,3.46,-78.76,126.76,2.72,-0.33,0.83,-0.7,0.56,-0.31,0.33,1.0,27.83,27.05,0.074775,0.0,19.25037587643678,nan,-99.59144179653681,nan,0.0,0.0,9935.4873,0.0,0.0,0.0,0.0
3175.0,38.0,31.0,108.0,159.0,125.0,nan,-0.31,-7.77,1.67,3.46,-78.73,126.77,1.25,-0.12,0.62,-0.7,0.56,-0.3,0.33,1.0,27.83,27.05,0.074775,0.0,19.250375890804595,nan,-99.5914415800866,nan,0.0,0.0,9935.4873,0.0,0.0,2591.6,0.0
3194.0,37.0,31.0,88.0,147.0,111.0,nan,-0.45,-7.76,1.64,3.46,-78.69,126.77,1.39,-0.12,0.13,-0.7,0.56,-0.3,0.33,1.0,27.83,27.05,0.074775,0.0,19.250375905172415,nan,-99.59144136363639,nan,0.0,0.0,9935.4873,0.0,0.0,2591.6,0.0
3217.0,17.0,30.0,77.0,139.0,111.0,nan,-0.17,-7.67,1.81,3.44,-78.68,126.77,-0.57,-0.05,-0.29,-0.7,0.56,-0.3,0.33,1.0,27.83,27.05,0.074775,0.0,19.25037591954023,nan,-99.59144114718617,nan,0.0,0.0,9935.4873,0.0,0.0,2591.6,0.0
3237.0,17.0,31.0,79.0,137.0,103.0,nan,0.06,-7.49,1.61,3.38,-78.76,126.76,-4.07,0.51,-0.78,-0.7,0.56,-0.3,0.33,1.0,27.83,27.05,0.074775,0.0,19.25037593390805,nan,-99.59144093073596,nan,0.0,0.0,9935.4873,0.0,0.0,2591.6,0.0
3260.0,26.0,30.0,76.0,138.0,111.0,nan,0.12,-7.59,1.54,3.32,-78.88,126.74,-6.45,0.65,-0.99,-0.7,0.56,-0.3,0.33,1.0,27.83,27.05,0.074775,0.0,19.250375948275863,nan,-99.59144071428572,nan,0.0,0.0,9935.4873,0.0,0.0,2591.6,0.0
3279.0,27.0,31.0,108.0,160.0,124.0,nan,0.06,-7.75,1.3,3.26,-79.01,126.73,-5.33,0.23,-1.2,-0.7,0.56,-0.3,0.33,1.0,27.83,27.05,0.074775,0.0,19.250375948275863,nan,-99.59144071428572,nan,0.0,0.0,9935.4873,0.0,0.0,0.0,0.0
3302.0,27.0,30.0,67.0,149.0,118.0,nan,0.17,-7.72,1.3,3.15,-79.05,126.75,2.3,-0.82,-0.78,-0.7,0.56,-0.3,0.33,1.0,27.83,27.05,0.074775,0.0,19.25037596264368,nan,-99.5914404978355,nan,0.0,0.0,9935.4873,0.0,0.0,2591.6,0.0
3328.0,37.0,31.0,53.0,137.0,76.0,nan,0.12,-7.89,1.34,3.09,-79.0,126.76,3.0,-0.75,-0.64,-0.7,0.56,-0.3,0.33,1.0,27.83,27.05,0.074775,0.0,19.250375977011494,nan,-99.59144028138529,nan,0.0,0.0,9935.4873,0.0,0.0,2591.6,0.0
3351.0,17.0,30.0,67.0,137.0,101.0,nan,0.11,-7.8,1.48,3.04,-78.94,126.77,3.07,-0.68,-0.43,-0.7,0.56,-0.3,0.33,1.0,27.83,27.05,0.074775,0.0,19.250375991379308,nan,-99.59144006493507,nan,0.0,0.0,9935.4873,0.0,0.0,2591.6,0.0
3371.0,26.0,30.0,147.0,134.0,110.0,nan,0.11,-7.76,1.6,2.99,-78.86,126.78,3.56,-0.68,-0.29,-0.7,0.56,-0.3,0.33,1.0,27.83,27.05,0.074775,0.0,19.25037600574713,nan,-99.59143984848485,nan,0.0,0.0,9935.4873,0.0,0.0,2591.6,0.0
3394.0,27.0,26.0,100.0,138.0,111.0,nan,0.08,-7.87,1.8,2.95,-78.75,126.79,4.61,-0.68,-0.22,-0.7,0.56,-0.3,0.33,1.0,27.83,27.05,0.074775,0.0,19.250376020114942,nan,-99.59143963203464,nan,0.0,0.0,9935.4873,0.0,0.0,2591.6,0.0
3413.0,27.0,30.0,67.0,138.0,124.0,nan,-0.04,-8.1,1.95,2.92,-78.69,126.8,2.09,-0.4,-0.22,-0.7,0.56,-0.3,0.33,1.0,27.83,27.05,0.074775,0.0,19.250376020114942,nan,-99.59143963203464,nan,0.0,0.0,9935.4873,0.0,0.0,0.0,0.0
3436.0,32.0,29.0,109.0,137.0,125.0,nan,-0.03,-8.18,1.92,2.89,-78.69,126.81,-0.99,-0.12,-0.01,-0.7,0.56,-0.3,0.33,1.0,27.83,27.05,0.074775,0.0,19.250376034482763,nan,-99.59143941558442,nan,0.0,0.0,9935.4873,0.0,0.0,2591.6,0.0
3456.0,27.0,29.0,135.0,155.0,125.0,nan,-0.02,-8.03,1.67,2.85,-78.7,126.81,-1.06,-0.19,-0.36,-0.7,0.56,-0.3,0.33,1.0,27.83,27.05,0.074775,0.0,19.250376048850576,nan,-99.59143919913421,nan,0.0,0.0,9935.4873,0.0,0.0,2591.6,0.0
3479.0,20.0,31.0,120.0,137.0,111.0,nan,0.17,-7.74,1.75,2.74,-78.73,126.81,-2.04,-0.05,-1.27,-0.7,0.56,-0.3,0.33,1.0,27.81,27.09,0.0747742,0.0,19.250376063218393,nan,-99.591438982684,nan,0.0,0.0,9935.4873,0.0,0.0,2591.6,0.0
3510.0,25.0,18.0,124.0,162.0,75.0,nan,0.2,-7.69,1.41,2.68,-78.82,126.8,-4.0,0.3,-0.78,-0.7,0.56,-0.3,0.33,1.0,27.81,27.09,0.0747742,0.0,19.250376077586207,nan,-99.59143876623378,nan,0.0,0.0,9935.4873,0.0,0.0,2591.6,0.0
3530.0,17.0,26.0,39.0,138.0,117.0,nan,0.21,-7.57,1.34,2.63,-78.88,126.79,-2.25,0.16,-0.71,-0.7,0.56,-0.3,0.33,1.0,27.81,27.09,0.0747742,0.0,19.250376091954028,nan,-99.59143854978356,nan,0.0,0.0,9935.4873,0.0,0.0,2591.6,0.0
3552.0,26.0,30.0,69.0,138.0,112.0,nan,0.24,-7.82,1.29,2.57,-78.88,126.79,0.97,-0.19,-0.85,-0.7,0.56,-0.3,0.33,1.0,27.81,27.09,0.0747742,0.0,19.25037610632184,nan,-99.59143806034484,nan,0.0,0.0,9935.4863,0.0,1.0,2591.6,0.0
3572.0,27.0,30.0,76.0,137.0,125.0,nan,0.22,-7.96,1.56,2.51,-78.83,126.79,2.37,-0.12,-0.5,-0.7,0.56,-0.3,0.33,1.0,27.81,27.09,0.0747742,0.0,19.250376120689655,nan,-99.59143778735634,nan,0.0,0.0,9935.4863,0.0,0.0,2591.6,0.0
3595.0,18.0,30.0,48.0,138.0,112.0,nan,0.3,-8.08,1.54,2.47,-78.81,126.79,1.18,0.09,-0.15,-0.7,0.56,-0.3,0.33,1.0,27.81,27.09,0.0747742,0.0,19.250376120689655,nan,-99.59143778735634,nan,0.0,0.0,9935.4863,0.0,0.0,0.0,0.0
3614.0,27.0,30.0,108.0,154.0,125.0,nan,0.29,-7.93,1.57,2.42,-78.78,126.79,1.6,-0.05,-0.08,-0.7,0.56,-0.3,0.33,1.0,27.81,27.09,0.0747742,0.0,19.250376135057476,nan,-99.59143751436783,nan,0.0,0.0,9935.4863,0.0,0.0,2591.6,0.0
3637.0,30.0,31.0,77.0,140.0,124.0,nan,0.24,-7.78,1.97,2.32,-78.52,126.82,5.87,-0.75,-0.36,-0.7,0.56,-0.3,0.34,1.0,27.81,27.09,0.0747742,0.0,19.25037614942529,nan,-99.59143724137932,nan,0.0,0.0,9935.4863,0.0,0.0,2591.6,0.0
3664.0,27.0,30.0,52.0,133.0,110.0,nan,0.24,-7.78,1.97,2.32,-78.52,126.82,0.0,0.0,0.0,-0.7,0.56,-0.3,0.34,1.0,27.81,27.09,0.0747742,0.0,19.250376163793106,nan,-99.59143696839082,nan,0.0,0.0,9935.4863,0.0,0.0,2591.6,0.0
3681.0,27.0,30.0,48.0,137.0,112.0,nan,0.1,-7.94,1.99,2.24,-78.49,126.82,-2.95,0.09,-0.36,-0.7,0.56,-0.3,0.34,1.0,27.81,27.09,0.0747742,0.0,19.25037617816092,nan,-99.5914366954023,nan,0.0,0.0,9935.4863,0.0,0.0,2591.6,0.0
3706.0,26.0,30.0,68.0,139.0,111.0,nan,-0.07,-8.22,1.65,2.22,-78.59,126.81,-4.84,0.23,-0.5,-0.7,0.56,-0.3,0.34,1.0,27.81,27.09,0.0747742,0.0,19.25037619252874,nan,-99.59143642241378,nan,0.0,0.0,9935.4863,0.0,0.0,2591.6,0.0
3729.0,27.0,30.0,77.0,155.0,109.0,nan,-0.03,-8.35,1.62,2.18,-78.67,126.81,-3.72,-0.05,-0.64,-0.7,0.56,-0.3,0.34,1.0,27.81,27.09,0.0747742,0.0,19.250376206896554,nan,-99.5914361494253,nan,0.0,0.0,9935.4863,0.0,0.0,2591.9,0.0
3748.0,28.0,31.0,67.0,124.0,124.0,nan,0.11,-8.16,1.47,2.14,-78.69,126.82,-0.64,-0.61,-0.43,-0.7,0.56,-0.3,0.34,1.0,27.81,27.09,0.0747742,0.0,19.250376206896554,nan,-99.5914361494253,nan,0.0,0.0,9935.4863,0.0,0.0,0.0,0.0
3771.0,32.0,30.0,67.0,154.0,111.0,nan,0.2,-7.83,1.65,2.1,-78.62,126.83,3.07,-0.75,-0.22,-0.7,0.56,-0.3,0.34,1.0,27.81,27.09,0.0747742,0.0,19.250376221264368,nan,-99.59143587643679,nan,0.0,0.0,9935.4863,0.0,0.0,2591.9,0.0
3791.0,37.0,26.0,157.0,133.0,76.0,nan,0.07,-7.82,1.82,2.07,-78.5,126.85,5.17,-0.96,0.2,-0.7,0.56,-0.3,0.34,1.0,27.81,27.09,0.0747742,0.0,19.25037623563219,nan,-99.59143560344829,nan,0.0,0.0,9935.4863,0.0,0.0,2591.9,0.0
3813.0,17.0,30.0,151.0,137.0,103.0,nan,0.11,-7.61,1.94,2.04,-78.41,126.87,3.14,-0.89,0.06,-0.7,0.56,-0.29,0.34,1.0,27.81,27.09,0.0747742,0.0,19.250376250000002,nan,-99.59143533045979,nan,0.0,0.0,9935.4863,0.0,0.0,2591.9,0.0
3833.0,27.0,31.0,88.0,154.0,109.0,nan,0.16,-7.73,1.86,2.0,-78.38,126.88,0.69,-0.4,-0.43,-0.7,0.56,-0.29,0.34,1.0,27.81,27.09,0.0747742,0.0,19.25037626436782,nan,-99.59143505747127,nan,0.0,0.0,9935.4863,0.0,0.0,2591.9,0.0
3856.0,26.0,30.0,88.0,138.0,104.0,nan,0.1,-8.13,1.68,1.92,-78.61,126.85,-9.88,0.65,-0.99,-0.7,0.56,-0.29,0.34,1.0,27.81,27.09,0.0747742,0.0,19.250376278735633,nan,-99.59143478448277,nan,0.0,0.0,9935.4863,0.0,0.0,2591.9,0.0
3882.0,27.0,30.0,68.0,133.0,110.0,nan,0.1,-8.13,1.68,1.92,-78.61,126.85,0.0,0.0,0.0,-0.7,0.56,-0.29,0.34,1.0,27.81,27.09,0.0747742,0.0,19.250376278735633,nan,-99.59143478448277,nan,0.0,0.0,9935.4863,0.0,0.0,0.0,0.0
3900.0,28.0,27.0,59.0,137.0,113.0,nan,0.35,-7.9,1.36,1.79,-78.88,126.84,-3.3,-0.12,-1.2,-0.7,0.56,-0.3,0.34,1.0,27.81,27.09,0.0747742,0.0,19.250376293103447,nan,-99.59143451149427,nan,0.0,0.0,9935.4863,0.0,0.0,2591.9,0.0
3925.0,27.0,31.0,67.0,143.0,75.0,nan,0.28,-7.69,1.21,1.74,-78.95,126.84,-2.46,-0.47,-0.36,-0.69,0.56,-0.29,0.34,1.0,27.81,27.09,0.0747742,0.0,19.250376307471267,nan,-99.59143423850576,nan,0.0,0.0,9935.4863,0.0,0.0,2591.9,0.0
3947.0,16.0,18.0,99.0,138.0,103.0,nan,0.27,-7.45,1.15,1.7,-78.96,126.86,0.9,-0.82,0.06,-0.69,0.56,-0.29,0.34,1.0,27.87,27.08,0.0747742,0.0,19.25037632183908,nan,-99.59143396551723,nan,0.0,0.0,9935.4863,0.0,0.0,2591.9,0.0
3969.0,26.0,31.0,52.0,138.0,110.0,nan,0.3,-7.37,1.17,1.65,-78.9,126.88,3.77,-1.31,-0.5,-0.69,0.56,-0.29,0.34,1.0,27.87,27.08,0.0747742,0.0,19.2503763362069,nan,-99.59143369252872,nan,0.0,0.0,9935.4863,0.0,0.0,2591.9,0.0
3992.0,31.0,31.0,108.0,138.0,125.0,nan,0.34,-7.66,1.45,1.6,-78.8,126.89,5.03,-0.61,-0.5,-0.7,0.56,-0.29,0.34,1.0,27.87,27.08,0.0747742,0.0,19.250376350574715,nan,-99.59143341954022,nan,0.0,0.0,9935.4863,0.0,0.0,2591.9,0.0
4012.0,29.0,28.0,52.0,138.0,112.0,nan,0.21,-8.17,1.69,1.57,-78.81,126.89,-0.57,0.23,0.2,-0.69,0.56,-0.29,0.34,1.0,27.87,27.08,0.0747742,0.0,19.250376350574715,nan,-99.59143341954022,nan,0.0,0.0,9935.4863,0.0,0.0,0.0,0.0
4034.0,26.0,26.0,88.0,154.0,76.0,nan,0.02,-8.26,1.51,1.57,-78.85,126.88,-1.69,0.44,0.69,-0.69,0.56,-0.29,0.34,1.0,27.87,27.08,0.0747742,0.0,19.25037636494253,nan,-99.59143314655174,nan,0.0,0.0,9935.4863,0.0,0.0,2591.9,0.0
4054.0,17.0,30.0,67.0,138.0,117.0,nan,-0.06,-8.28,1.42,1.56,-78.82,126.89,2.3,-0.54,0.27,-0.69,0.56,-0.29,0.34,1.0,27.87,27.08,0.0747742,0.0,19.250376379310346,nan,-99.59143287356324,nan,0.0,0.0,9935.4863,0.0,0.0,2591.9,0.0
4077.0,27.0,31.0,78.0,134.0,111.0,nan,0.25,-7.76,1.99,1.47,-78.52,126.95,5.31,-1.45,-0.5,-0.7,0.56,-0.29,0.34,1.0,27.87,27.08,0.0747742,0.0,19.25037639367816,nan,-99.59143260057472,nan,0.0,0.0,9935.4863,0.0,0.0,2591.9,0.0
4104.0,27.0,30.0,77.0,137.0,126.0,nan,0.33,-7.5,1.86,1.43,-78.51,126.96,-1.13,-0.33,-0.15,-0.7,0.56,-0.29,0.34,1.0,27.87,27.08,0.0747742,0.0,19.25037640804598,nan,-99.59143232758622,nan,0.0,0.0,9935.4863,0.0,0.0,2591.9,0.0
4127.0,26.0,31.0,77.0,129.0,75.0,nan,0.25,-7.5,1.71,1.39,-78.55,126.96,-2.74,0.09,-0.29,-0.7,0.56,-0.29,0.34,1.0,27.87,27.08,0.0747742,0.0,19.250376422413794,nan,-99.59143205459772,nan,0.0,0.0,9935.4863,0.0,0.0,2591.9,0.0
4146.0,28.0,18.0,66.0,137.0,115.0,nan,0.22,-7.68,1.61,1.35,-78.6,126.95,-2.39,-0.05,-0.71,-0.7,0.56,-0.29,0.34,1.0,27.87,27.08,0.0747742,0.0,19.250376436781615,nan,-99.5914317816092,nan,0.0,0.0,9935.4863,0.0,0.0,2591.9,0.0
4169.0,31.0,31.0,67.0,138.0,110.0,nan,0.35,-7.71,1.6,1.29,-78.59,126.96,0.2,-0.4,-0.78,-0.7,0.56,-0.29,0.34,1.0,27.87,27.08,0.0747742,0.0,19.250376436781615,nan,-99.5914317816092,nan,0.0,0.0,9935.4863,0.0,0.0,0.0,0.0
4188.0,26.0,30.0,108.0,138.0,112.0,nan,0.2,-8.01,1.81,1.26,-78.54,126.96,1.67,-0.19,-0.36,-0.7,0.56,-0.29,0.34,1.0,27.87,27.08,0.0747742,0.0,19.250376451149428,nan,-99.5914315086207,nan,0.0,0.0,9935.4863,0.0,0.0,2591.9,0.0
4211.0,27.0,25.0,124.0,161.0,126.0,nan,0.13,-8.38,1.95,1.24,-78.53,126.96,-0.36,0.09,0.13,-0.7,0.56,-0.29,0.34,1.0,27.87,27.08,0.0747742,0.0,19.250376465517242,nan,-99.5914312356322,nan,0.0,0.0,9935.4863,0.0,0.0,2591.9,0.0
4231.0,26.0,30.0,147.0,147.0,97.0,nan,0.23,-8.26,1.77,1.21,-78.6,126.96,-3.51,-0.12,0.2,-0.7,0.56,-0.29,0.34,1.0,27.87,27.08,0.0747742,0.0,19.25037647988506,nan,-99.59143096264367,nan,0.0,0.0,9935.4863,0.0,0.0,2591.9,0.0
4254.0,27.0,31.0,109.0,153.0,119.0,nan,0.04,-8.03,1.93,1.15,-78.47,126.99,3.49,-0.89,-0.64,-0.7,0.56,-0.29,0.34,1.0,27.87,27.08,0.0747742,0.0,19.250376494252873,nan,-99.59143068965516,nan,0.0,0.0,9935.4863,0.0,0.0,2591.9,0.0
4280.0,26.0,30.0,52.0,136.0,110.0,nan,0.04,-8.03,1.93,1.15,-78.47,126.99,0.0,0.0,0.0,-0.7,0.56,-0.29,0.34,1.0,27.87,27.08,0.0747742,0.0,19.250376508620693,nan,-99.59143041666668,nan,0.0,0.0,9935.4863,0.0,0.0,2591.9,0.0
4297.0,28.0,29.0,48.0,144.0,112.0,nan,0.25,-8.34,1.57,1.11,-78.75,126.98,-12.12,0.44,-0.01,-0.69,0.56,-0.29,0.34,1.0,27.87,27.08,0.0747742,0.0,19.250376522988507,nan,-99.59143014367817,nan,0.0,0.0,9935.4863,0.0,0.0,2591.9,0.0
4323.0,17.0,27.0,88.0,144.0,111.0,nan,0.19,-7.7,0.97,1.08,-78.85,126.99,-2.74,-0.33,0.13,-0.69,0.57,-0.29,0.34,1.0,27.87,27.08,0.0747742,0.0,19.250376522988507,nan,-99.59143014367817,nan,0.0,0.0,9935.4863,0.0,0.0,0.0,0.0
4345.0,28.0,31.0,78.0,138.0,124.0,nan,0.35,-7.67,1.27,1.03,-78.74,127.02,6.15,-1.45,-0.57,-0.69,0.56,-0.29,0.34,1.0,27.87,27.08,0.0747742,0.0,19.25037653735632,nan,-99.59142987068967,nan,0.0,0.0,9935.4863,0.0,0.0,2591.9,0.0
4364.0,27.0,31.0,52.0,159.0,109.0,nan,0.38,-7.58,1.94,1.0,-78.57,127.03,6.78,-0.82,0.34,-0.7,0.56,-0.29,0.34,1.0,27.87,27.08,0.0747742,0.0,19.25037655172414,nan,-99.59142959770116,nan,0.0,0.0,9935.4863,0.0,0.0,2591.9,0.0
4387.0,26.0,25.0,77.0,138.0,110.0,nan,0.35,-7.79,1.89,0.98,-78.6,127.04,-2.46,-0.12,0.83,-0.7,0.56,-0.29,0.34,1.0,27.87,27.08,0.0747742,0.0,19.250376566091955,nan,-99.59142932471265,nan,0.0,0.0,9935.4863,0.0,0.0,2591.9,0.0
4409.0,27.0,30.0,77.0,154.0,111.0,nan,0.25,-7.61,1.36,0.96,-78.69,127.04,-4.0,0.09,0.62,-0.69,0.56,-0.29,0.34,1.0,27.84,27.1,0.0747742,0.0,19.250376580459772,nan,-99.59142905172415,nan,0.0,0.0,9935.4863,0.0,0.0,2591.9,0.0
4432.0,26.0,31.0,77.0,139.0,76.0,nan,0.14,-8.01,1.4,0.94,-78.66,127.05,2.09,-0.4,-0.15,-0.69,0.56,-0.29,0.34,1.0,27.84,27.1,0.0747742,0.0,19.250376594827586,nan,-99.59142877873565,nan,0.0,0.0,9935.4863,0.0,0.0,2591.9,0.0
4451.0,16.0,30.0,88.0,125.0,102.0,nan,0.25,-7.93,1.67,0.9,-78.66,127.05,0.13,-0.26,-0.29,-0.69,0.56,-0.29,0.34,1.0,27.84,27.1,0.0747742,0.0,19.250376594827586,nan,-99.59142877873565,nan,0.0,0.0,9935.4863,0.0,0.0,0.0,0.0
4474.0,27.0,31.0,68.0,144.0,111.0,nan,0.5,-7.6,1.2,0.81,-78.94,127.03,-9.53,0.93,-0.08,-0.69,0.57,-0.29,0.34,1.0,27.84,27.1,0.0747742,0.0,19.2503766091954,nan,-99.59142850574713,nan,0.0,0.0,9935.4863,0.0,0.0,2591.9,0.0
4503.0,24.0,30.0,67.0,138.0,119.0,nan,0.23,-8.1,1.05,0.81,-79.08,127.02,-5.26,0.44,0.76,-0.69,0.57,-0.29,0.34,1.0,27.84,27.1,0.0747742,0.0,19.25037662356322,nan,-99.5914282327586,nan,0.0,0.0,9935.4863,0.0,0.0,2591.9,0.0
4523.0,28.0,29.0,125.0,183.0,124.0,nan,0.35,-7.86,0.42,0.79,-79.21,127.03,-2.46,-0.33,0.83,-0.69,0.57,-0.29,0.34,1.0,27.84,27.1,0.0747742,0.0,19.250376637931033,nan,-99.5914279597701,nan,0.0,0.0,9935.4863,0.0,0.0,2591.9,0.0
4543.0,31.0,30.0,87.0,183.0,137.0,nan,0.57,-7.76,0.82,0.75,-79.12,127.05,6.57,-0.82,0.62,-0.69,0.57,-0.29,0.34,1.0,27.84,27.1,0.0747742,0.0,19.250376666666668,nan,-99.5914276867816,nan,0.0,0.0,9935.4863,0.0,0.0,2591.9,0.0
4566.0,26.0,30.0,78.0,148.0,110.0,nan,0.39,-8.15,1.1,0.73,-78.99,127.07,8.46,-0.89,1.32,-0.69,0.57,-0.29,0.34,1.0,27.84,27.1,0.0747742,0.0,19.250376666666668,nan,-99.59142741379311,nan,0.0,0.0,9935.4863,1.0,0.0,2591.9,0.0
4585.0,26.0,26.0,87.0,137.0,110.0,nan,0.39,-7.78,1.18,0.73,-78.82,127.09,9.72,-0.96,1.81,-0.69,0.57,-0.29,0.34,1.0,27.84,27.1,0.0747742,0.0,19.250376752136756,nan,-99.59142714080461,nan,0.0,0.0,9935.4863,0.0,0.0,2591.9,0.0
4608.0,26.0,30.0,68.0,137.0,111.0,nan,0.39,-7.48,1.55,0.72,-78.51,127.12,15.18,-1.24,1.74,-0.7,0.56,-0.29,0.34,1.0,27.84,27.1,0.0747742,0.0,19.250376752136756,nan,-99.59142714080461,nan,0.0,0.0,9935.4863,0.0,0.0,0.0,0.0
4628.0,30.0,26.0,77.0,138.0,97.0,nan,0.1,-7.76,2.18,0.72,-78.16,127.16,15.11,-1.59,1.04,-0.7,0.56,-0.28,0.34,1.0,27.84,27.1,0.0747742,0.0,19.250376794871794,nan,-99.5914268678161,nan,0.0,0.0,9935.4863,0.0,0.0,2591.9,0.0
4651.0,25.0,26.0,77.0,137.0,111.0,nan,-0.4,-8.25,2.35,0.76,-77.82,127.2,3.07,-0.61,-0.01,-0.7,0.56,-0.28,0.34,1.0,27.84,27.1,0.0747742,0.0,19.250376837606836,nan,-99.5914265948276,nan,0.0,0.0,9935.4863,0.0,0.0,2591.9,0.0
4677.0,26.0,29.0,76.0,138.0,110.0,nan,-0.4,-8.25,2.35,0.76,-77.82,127.2,0.0,0.0,0.0,-0.7,0.56,-0.28,0.34,1.0,27.84,27.1,0.0747742,0.0,19.250376880341882,nan,-99.5914263218391,nan,0.0,0.0,9935.4863,0.0,0.0,2591.9,0.0
4695.0,18.0,30.0,119.0,134.0,125.0,nan,0.23,-7.57,1.98,0.68,-77.72,127.2,1.39,-0.05,-1.48,-0.7,0.56,-0.28,0.34,1.0,27.84,27.1,0.0747742,0.0,19.250376923076924,nan,-99.59142604885058,nan,0.0,0.0,9935.4863,0.0,0.0,2591.9,0.0
4719.0,22.0,31.0,88.0,139.0,104.0,nan,0.21,-8.1,2.52,0.63,-77.68,127.19,-0.57,0.58,-1.55,-0.7,0.56,-0.28,0.34,1.0,27.84,27.1,0.0747742,0.0,19.250376965811967,nan,-99.59142577586208,nan,0.0,0.0,9935.4863,0.0,0.0,2591.9,0.0
4742.0,16.0,29.0,67.0,136.0,103.0,nan,0.31,-8.08,2.3,0.59,-77.77,127.17,-6.45,0.58,-0.99,-0.7,0.56,-0.28,0.34,1.0,27.84,27.1,0.0747742,0.0,19.25037700854701,nan,-99.59142550287358,nan,0.0,0.0,9935.4863,0.0,0.0,2592.1,0.0
4762.0,26.0,30.0,67.0,138.0,112.0,nan,0.21,-7.96,1.89,0.56,-77.75,127.17,0.34,0.02,-0.43,-0.7,0.56,-0.28,0.34,1.0,27.84,27.1,0.0747742,0.0,19.25037700854701,nan,-99.59142550287358,nan,0.0,0.0,9935.4863,0.0,0.0,0.0,0.0
4784.0,27.0,30.0,77.0,133.0,109.0,nan,-0.33,-8.34,2.44,0.55,-77.51,127.19,10.21,-1.45,-0.99,-0.7,0.56,-0.28,0.34,1.0,27.84,27.1,0.0747742,0.0,19.25037705128205,nan,-99.59142522988505,nan,0.0,0.0,9935.4863,0.0,0.0,2592.1,0.0
4804.0,26.0,31.0,87.0,137.0,110.0,nan,0.02,-8.07,2.78,0.51,-77.34,127.21,5.31,-1.03,-1.48,-0.7,0.56,-0.28,0.34,1.0,27.84,27.1,0.0747742,0.0,19.250377094017093,nan,-99.59142495689653,nan,0.0,0.0,9935.4863,0.0,0.0,2592.1,0.0
4827.0,26.0,20.0,77.0,153.0,110.0,nan,0.29,-7.55,2.95,0.46,-77.27,127.21,-0.92,-0.4,-1.27,-0.7,0.56,-0.28,0.35,1.0,27.84,27.1,0.0747742,0.0,19.250377136752135,nan,-99.59142468390803,nan,0.0,0.0,9935.4863,0.0,0.0,2592.1,0.0
4847.0,27.0,17.0,77.0,136.0,124.0,nan,0.33,-7.54,2.48,0.4,-77.46,127.19,-12.47,0.86,-1.69,-0.7,0.56,-0.28,0.34,1.0,27.84,27.1,0.0747742,0.0,19.250377179487177,nan,-99.59142441091954,nan,0.0,0.0,9935.4863,0.0,0.0,2592.1,0.0
4869.0,27.0,31.0,109.0,153.0,111.0,nan,0.57,-7.72,1.3,0.22,-78.31,127.11,-21.92,1.21,-2.81,-0.69,0.56,-0.28,0.34,1.0,27.85,27.12,0.0747783,0.0,19.25037722222222,nan,-99.59142413793104,nan,0.0,0.0,9935.4863,0.0,0.0,2592.1,0.0
4902.0,17.0,24.0,137.0,154.0,75.0,nan,0.44,-7.99,0.7,0.17,-78.65,127.1,-13.87,0.65,-1.27,-0.69,0.57,-0.28,0.34,1.0,27.85,27.12,0.0747783,0.0,19.25037726495727,nan,-99.59142386494254,nan,0.0,0.0,9935.4863,0.0,0.0,2592.1,0.0
4921.0,28.0,28.0,86.0,138.0,102.0,nan,0.31,-7.92,0.72,0.13,-78.81,127.11,-4.84,-0.75,-0.78,-0.69,0.57,-0.28,0.34,1.0,27.85,27.12,0.0747783,0.0,19.25037726495727,nan,-99.59142386494254,nan,0.0,0.0,9935.4863,0.0,0.0,0.0,0.0
4944.0,27.0,32.0,109.0,148.0,97.0,nan,0.41,-7.6,0.5,0.06,-78.94,127.12,-2.81,-1.17,-1.55,-0.69,0.57,-0.28,0.34,1.0,27.85,27.12,0.0747783,0.0,19.25037730769231,nan,-99.59142359195403,nan,0.0,0.0,9935.4863,0.0,0.0,2592.1,0.0
4963.0,21.0,31.0,78.0,137.0,111.0,nan,0.47,-7.83,0.67,-0.02,-79.01,127.14,-0.36,-1.1,-1.83,-0.69,0.57,-0.28,0.34,1.0,27.85,27.12,0.0747783,0.0,19.250377350427346,nan,-99.59142331896552,nan,0.0,0.0,9935.4863,0.0,0.0,2592.1,0.0
4986.0,36.0,25.0,78.0,139.0,109.0,nan,0.38,-7.81,0.53,-0.04,-79.0,127.15,4.05,-0.61,0.2,-0.69,0.57,-0.28,0.34,1.0,27.85,27.12,0.0747783,0.0,19.250377393162395,nan,-99.59142304597702,nan,0.0,0.0,9935.4863,0.0,0.0,2592.1,0.0
5006.0,26.0,31.0,107.0,139.0,111.0,nan,0.14,-7.74,0.76,-0.03,-78.83,127.16,10.98,-0.33,1.25,-0.69,0.57,-0.28,0.34,1.0,27.85,27.12,0.0747783,0.0,19.250377435897438,nan,-99.59142277298851,nan,0.0,0.0,9935.4863,0.0,0.0,2592.1,0.0
5029.0,26.0,18.0,77.0,154.0,110.0,nan,0.07,-8.09,2.67,-0.01,-78.06,127.21,14.97,-1.45,0.55,-0.7,0.56,-0.28,0.35,1.0,27.85,27.12,0.0747783,0.0,19.25037747863248,nan,-99.59142249999998,nan,0.0,0.0,9935.4863,0.0,0.0,2592.1,0.0
5055.0,32.0,28.0,98.0,139.0,110.0,nan,-0.02,-7.81,2.8,-0.02,-77.8,127.23,9.16,-1.1,-0.29,-0.7,0.56,-0.28,0.35,1.0,27.85,27.12,0.0747783,0.0,19.250377521367522,nan,-99.59142222701148,nan,0.0,0.0,9935.4863,0.0,0.0,2592.1,0.0
5078.0,24.0,26.0,89.0,138.0,111.0,nan,0.28,-7.8,2.91,-0.07,-77.79,127.23,-3.79,-0.26,-1.62,-0.7,0.56,-0.28,0.35,1.0,27.85,27.12,0.0747783,0.0,19.250377521367522,nan,-99.59142222701148,nan,0.0,0.0,9935.4863,0.0,0.0,0.0,0.0
5097.0,37.0,21.0,66.0,139.0,110.0,nan,0.31,-7.4,2.12,-0.14,-78.11,127.19,-17.86,1.63,-2.32,-0.7,0.56,-0.28,0.35,1.0,27.85,27.12,0.0747783,0.0,19.250377564102564,nan,-99.59142195402298,nan,0.0,0.0,9935.4863,0.0,0.0,2592.1,0.0
5120.0,18.0,30.0,109.0,138.0,108.0,nan,0.34,-7.6,1.25,-0.21,-78.64,127.13,-25.0,2.68,-3.23,-0.69,0.57,-0.28,0.35,1.0,27.85,27.12,0.0747783,0.0,19.250377606837606,nan,-99.59142168103449,nan,0.0,0.0,9935.4863,0.0,0.0,2592.1,0.0
5140.0,27.0,30.0,77.0,140.0,124.0,nan,0.25,-8.07,0.49,-0.28,-79.17,127.07,-22.48,2.26,-3.02,-0.69,0.57,-0.28,0.34,1.0,27.85,27.12,0.0747783,0.0,19.250377649572656,nan,-99.59142140804599,nan,0.0,0.0,9935.4863,0.0,0.0,2592.1,0.0
5163.0,28.0,26.0,88.0,138.0,112.0,nan,0.49,-7.97,-0.31,-0.36,-79.55,127.05,-12.75,0.51,-2.39,-0.69,0.57,-0.28,0.34,1.0,27.85,27.12,0.0747783,0.0,19.25037769230769,nan,-99.59142113505747,nan,0.0,0.0,9935.4863,0.0,0.0,2592.1,0.0
5182.0,18.0,26.0,52.0,137.0,118.0,nan,0.59,-7.9,-0.02,-0.41,-79.44,127.08,10.91,-1.66,-0.22,-0.69,0.57,-0.28,0.34,1.0,27.85,27.12,0.0747783,0.0,19.250377735042733,nan,-99.59142086206897,nan,0.0,0.0,9935.4863,0.0,0.0,2592.1,0.0
5205.0,24.0,30.0,48.0,139.0,112.0,nan,0.52,-8.1,0.61,-0.42,-79.14,127.13,17.91,-2.36,1.11,-0.69,0.57,-0.28,0.35,1.0,27.85,27.12,0.0747783,0.0,19.250377735042733,nan,-99.59142086206897,nan,0.0,0.0,9935.4863,0.0,0.0,0.0,0.0
5224.0,23.0,25.0,78.0,154.0,111.0,nan,-0.02,-7.94,1.51,-0.38,-78.65,127.19,24.7,-2.36,2.72,-0.69,0.57,-0.28,0.35,1.0,27.85,27.12,0.0747783,0.0,19.250377777777782,nan,-99.59142058908047,nan,0.0,0.0,9935.4863,0.0,0.0,2592.1,0.0
5247.0,26.0,20.0,78.0,141.0,110.0,nan,-0.02,-7.56,2.94,-0.36,-77.52,127.31,26.24,-2.85,0.13,-0.7,0.56,-0.28,0.35,1.0,27.85,27.12,0.0747783,0.0,19.250377820512824,nan,-99.59142031609196,nan,0.0,0.0,9935.4863,0.0,0.0,2592.1,0.0
5274.0,38.0,27.0,124.0,155.0,111.0,nan,-0.12,-8.14,3.89,-0.39,-77.14,127.33,12.52,-1.87,-1.69,-0.7,0.56,-0.27,0.35,1.0,27.85,27.12,0.0747783,0.0,19.250377863247866,nan,-99.59142004310345,nan,0.0,0.0,9935.4863,0.0,0.0,2592.1,0.0
5300.0,26.0,30.0,147.0,140.0,111.0,nan,0.24,-7.96,3.36,-0.43,-77.3,127.3,-13.03,1.42,-1.76,-0.7,0.56,-0.27,0.35,1.0,27.85,27.12,0.0747783,0.0,19.25037790598291,nan,-99.59141977011495,nan,0.0,0.0,9935.4863,0.0,0.0,2592.1,0.0
5316.0,17.0,17.0,109.0,125.0,103.0,nan,0.31,-7.74,2.46,-0.47,-77.79,127.22,-27.31,3.31,-2.32,-0.7,0.56,-0.28,0.35,1.0,27.85,27.12,0.0747783,0.0,19.25037794871795,nan,-99.59141949712642,nan,0.0,0.0,9935.4863,0.0,0.0,2592.1,0.0
5339.0,17.0,30.0,68.0,137.0,75.0,nan,0.1,-8.13,1.32,-0.53,-78.38,127.15,-27.8,2.96,-3.44,-0.69,0.57,-0.28,0.35,1.0,27.87,27.12,0.074775,0.0,19.250377991452993,nan,-99.59141922413791,nan,0.0,0.0,9935.4863,0.0,0.0,2592.1,0.0
5361.0,18.0,29.0,51.0,139.0,102.0,nan,0.52,-8.09,0.41,-0.63,-78.81,127.11,-17.37,1.42,-3.86,-0.69,0.57,-0.28,0.35,1.0,27.87,27.12,0.074775,0.0,19.250377991452993,nan,-99.59141922413791,nan,0.0,0.0,9935.4863,0.0,0.0,0.0,0.0
5385.0,28.0,28.0,78.0,140.0,110.0,nan,0.29,-8.46,1.0,-0.65,-78.79,127.1,3.35,0.51,-0.29,-0.69,0.57,-0.28,0.35,1.0,27.87,27.12,0.074775,0.0,19.250378034188035,nan,-99.59141895114941,nan,0.0,0.0,9935.4863,0.0,0.0,2592.1,0.0
5403.0,27.0,20.0,77.0,140.0,117.0,nan,0.25,-9.34,1.7,-0.62,-78.68,127.11,5.73,0.02,1.81,-0.69,0.57,-0.28,0.35,1.0,27.87,27.12,0.074775,0.0,19.250378076923077,nan,-99.59141867816092,nan,0.0,0.0,9935.4863,0.0,0.0,2592.1,0.0
5425.0,27.0,30.0,88.0,148.0,110.0,nan,-0.03,-7.23,1.6,-0.58,-78.16,127.22,19.87,-4.18,0.55,-0.69,0.57,-0.28,0.35,1.0,27.87,27.12,0.074775,0.0,19.25037811965812,nan,-99.59141840517242,nan,0.0,0.0,9935.4863,0.0,0.0,2592.1,0.0
5452.0,18.0,32.0,67.0,161.0,109.0,nan,0.47,-6.75,2.11,-0.64,-77.7,127.29,20.29,-3.55,-0.71,-0.7,0.56,-0.27,0.35,1.0,27.87,27.12,0.074775,0.0,19.250378162393165,nan,-99.59141813218392,nan,0.0,0.0,9935.4863,0.0,0.0,2592.1,0.0
5478.0,26.0,31.0,68.0,136.0,111.0,nan,0.36,-7.17,3.14,-0.67,-77.51,127.29,3.77,-0.12,-0.22,-0.7,0.56,-0.27,0.35,1.0,27.87,27.12,0.074775,0.0,19.250378205128207,nan,-99.5914178591954,nan,0.0,0.0,9935.4863,0.0,0.0,2592.1,0.0
5495.0,26.0,24.0,53.0,124.0,111.0,nan,0.26,-7.93,2.58,-0.69,-78.0,127.22,-27.24,3.31,-1.34,-0.69,0.57,-0.28,0.35,1.0,27.87,27.12,0.074775,0.0,19.250378247863246,nan,-99.5914175862069,nan,0.0,0.0,9935.4863,0.0,0.0,2592.1,0.0
5517.0,29.0,20.0,67.0,154.0,111.0,nan,0.04,-8.25,0.89,-0.71,-78.71,127.14,-32.63,3.73,-1.76,-0.69,0.57,-0.28,0.35,1.0,27.87,27.12,0.074775,0.0,19.250378247863246,nan,-99.5914175862069,nan,0.0,0.0,9935.4863,0.0,0.0,0.0,0.0
5537.0,20.0,26.0,158.0,147.0,125.0,nan,-0.06,-8.37,0.36,-0.74,-78.93,127.13,-6.52,0.02,-2.46,-0.69,0.57,-0.28,0.35,1.0,27.87,27.12,0.074775,0.0,19.250378333333334,nan,-99.5914173132184,nan,0.0,0.0,9935.4863,0.0,0.0,2592.1,0.0
5562.0,26.0,31.0,161.0,132.0,111.0,nan,0.33,-8.08,1.27,-0.78,-78.65,127.17,15.04,-2.01,-0.36,-0.69,0.57,-0.28,0.35,1.0,27.87,27.12,0.074775,0.0,19.250378333333334,nan,-99.59141704022989,nan,0.0,0.0,9935.4863,1.0,0.0,2592.1,0.0
5579.0,21.0,30.0,77.0,160.0,104.0,nan,0.34,-7.29,1.95,-0.79,-78.39,127.2,11.05,-1.8,0.62,-0.69,0.57,-0.28,0.35,1.0,27.87,27.12,0.074775,0.0,19.250378418803418,nan,-99.59141676724138,nan,0.0,0.0,9935.4863,0.0,0.0,2592.1,0.0
5602.0,21.0,21.0,52.0,125.0,112.0,nan,0.57,-6.72,1.95,-0.82,-78.3,127.22,2.16,-0.75,0.34,-0.69,0.57,-0.28,0.35,1.0,27.87,27.12,0.074775,0.0,19.25037846153846,nan,-99.59141649425285,nan,0.0,0.0,9935.4863,0.0,0.0,2592.1,0.0
5621.0,28.0,30.0,108.0,139.0,75.0,nan,0.13,-7.03,1.37,-0.86,-78.36,127.22,-2.6,-0.54,-1.55,-0.69,0.57,-0.28,0.35,1.0,27.87,27.12,0.074775,0.0,19.250378504273503,nan,-99.59141622126435,nan,0.0,0.0,9935.4863,0.0,0.0,2592.1,0.0
5651.0,16.0,28.0,60.0,138.0,103.0,nan,0.16,-8.39,1.65,-0.94,-78.67,127.16,-13.38,1.63,-2.25,-0.69,0.57,-0.28,0.35,1.0,27.87,27.12,0.074775,0.0,19.250378504273503,nan,-99.59141622126435,nan,0.0,0.0,9935.4863,0.0,0.0,0.0,0.0
5671.0,31.0,30.0,60.0,134.0,110.0,nan,0.25,-7.73,0.86,-0.98,-79.07,127.12,-17.65,2.05,-2.25,-0.69,0.57,-0.28,0.35,1.0,27.87,27.12,0.074775,0.0,19.250378547008545,nan,-99.59141594827584,nan,0.0,0.0,9935.4863,0.0,0.0,2592.1,0.0
5694.0,32.0,29.0,109.0,138.0,110.0,nan,0.08,-7.97,0.54,-1.04,-79.4,127.09,-13.03,0.65,-3.09,-0.69,0.57,-0.28,0.35,1.0,27.87,27.12,0.074775,0.0,19.250378589743587,nan,-99.59141567528737,nan,0.0,0.0,9935.4863,0.0,0.0,2592.1,0.0
5714.0,27.0,31.0,52.0,137.0,124.0,nan,0.52,-6.54,-0.13,-1.13,-79.6,127.12,-4.14,-1.66,-2.74,-0.69,0.58,-0.28,0.35,1.0,27.87,27.12,0.074775,0.0,19.25037863247863,nan,-99.59141540229885,nan,0.0,0.0,9935.4863,0.0,0.0,2592.1,0.0
5737.0,27.0,31.0,77.0,155.0,111.0,nan,0.55,-6.03,0.31,-1.25,-79.43,127.17,11.96,-3.2,-3.09,-0.69,0.58,-0.28,0.35,1.0,27.87,27.12,0.074775,0.0,19.25037867521368,nan,-99.59141512931035,nan,0.0,0.0,9935.4863,0.0,0.0,2591.9,0.0
5756.0,37.0,32.0,88.0,138.0,111.0,nan,0.68,-7.22,0.69,-1.36,-79.34,127.2,7.27,-2.08,-3.44,-0.69,0.58,-0.28,0.35,1.0,27.87,27.12,0.074775,0.0,19.25037871794872,nan,-99.59141485632185,nan,0.0,0.0,9935.4863,0.0,0.0,2591.9,0.0
5779.0,25.0,24.0,77.0,136.0,111.0,nan,0.68,-9.26,0.83,-1.37,-79.34,127.18,2.65,1.07,0.69,-0.69,0.58,-0.28,0.35,1.0,27.87,27.12,0.074775,0.0,19.25037871794872,nan,-99.59141485632185,nan,0.0,0.0,9935.4863,0.0,0.0,0.0,0.0
5798.0,27.0,26.0,67.0,174.0,136.0,nan,0.22,-10.27,0.98,-1.3,-79.31,127.17,4.26,1.49,3.14,-0.69,0.58,-0.28,0.35,1.0,27.85,27.11,0.074775,0.0,19.250378760683763,nan,-99.59141458333333,nan,0.0,0.0,9935.4863,0.0,0.0,2591.9,0.0
5824.0,14.0,18.0,39.0,213.0,174.0,nan,0.25,-8.9,3.37,-1.25,-77.88,127.32,43.32,-5.3,0.76,-0.69,0.57,-0.27,0.35,1.0,27.85,27.11,0.074775,0.0,19.250378803418805,nan,-99.59141431034483,nan,0.0,0.0,9935.4863,0.0,0.0,2591.9,0.0
5850.0,31.0,30.0,66.0,167.0,153.0,nan,0.45,-7.93,4.11,-1.24,-77.12,127.42,31.0,-4.74,2.51,-0.7,0.56,-0.27,0.35,1.0,27.85,27.11,0.074775,0.0,19.250378846153847,nan,-99.59141403735633,nan,0.0,0.0,9935.4863,0.0,0.0,2591.9,0.0
5873.0,19.0,30.0,120.0,145.0,104.0,nan,0.3,-6.91,3.41,-1.21,-76.97,127.41,0.48,0.86,2.16,-0.7,0.56,-0.27,0.35,1.0,27.85,27.11,0.074775,0.0,19.25037888888889,nan,-99.5914137643678,nan,0.0,0.0,9935.4863,0.0,0.0,2591.9,0.0
5892.0,28.0,30.0,88.0,159.0,113.0,nan,-0.01,-8.6,4.06,-1.17,-77.11,127.34,-13.1,3.52,0.41,-0.7,0.56,-0.27,0.35,1.0,27.85,27.11,0.074775,0.0,19.25037893162393,nan,-99.59141349137929,nan,0.0,0.0,9935.4863,0.0,0.0,2591.9,0.0
5915.0,26.0,17.0,51.0,138.0,111.0,nan,0.34,-9.31,2.97,-1.18,-77.68,127.26,-30.67,3.87,-1.13,-0.69,0.57,-0.27,0.35,1.0,27.85,27.11,0.074775,0.0,19.250378974358973,nan,-99.59141321839078,nan,0.0,0.0,9935.4863,0.0,0.0,2591.9,0.0
