time,p1,p2,p3,p4,p5,termite,ax,ay,az,rx,ry,rz,roll,pitch,yaw,q1,q2,q3,q4,calibration,temperature,humidity,pressure,flag_rm,lat,lacoord,lon,locoord,capacitive,o_lat,o_lon,used_lat,used_lon,altitude,flag_lm
0.0,20.0,31.0,62.0,139.0,74.0,nan,-2.0,-7.71,-0.64,15.13,-92.22,157.04,-1.55,0.37,-1.13,-0.69,0.68,-0.23,0.04,1.0,27.06,32.54,0.0746144,0.0,19.263388000000003,nan,-99.61435500000002,nan,0.0,0.0,9936.8613,1.0,1.0,2619.9,0.0
20.0,16.0,18.0,68.0,137.0,96.0,nan,-2.23,-7.65,-0.24,15.14,-92.21,157.04,0.13,-0.12,-0.43,-0.69,0.68,-0.23,0.04,1.0,27.06,32.54,0.0746144,0.0,19.263388000000003,nan,-99.61435500000002,nan,0.0,0.0,9936.8613,0.0,0.0,0.0,0.0
40.0,26.0,30.0,78.0,155.0,110.0,nan,-1.92,-7.53,-0.75,15.12,-92.27,157.03,-1.06,0.37,-0.57,-0.69,0.68,-0.23,0.04,1.0,27.06,32.54,0.0746144,0.0,19.263388000000003,nan,-99.61435500000002,nan,0.0,0.0,9936.8613,0.0,0.0,0.0,0.0
62.0,16.0,30.0,107.0,137.0,76.0,nan,-1.74,-7.84,-0.53,15.06,-92.27,157.03,0.48,-0.26,-1.41,-0.69,0.68,-0.23,0.04,1.0,27.06,32.54,0.0746144,0.0,19.263388000000003,nan,-99.61435500000002,nan,0.0,0.0,9936.8613,0.0,0.0,0.0,0.0
82.0,24.0,30.0,107.0,137.0,100.0,nan,-2.21,-7.38,-0.55,15.09,-92.3,157.02,-0.15,0.16,0.41,-0.69,0.68,-0.23,0.04,1.0,27.06,32.54,0.0746144,0.0,19.263388000000003,nan,-99.61435500000002,nan,0.0,0.0,9936.8613,0.0,0.0,0.0,0.0
104.0,19.0,30.0,68.0,139.0,119.0,nan,-1.66,-7.84,-0.29,15.03,-92.28,157.02,0.76,-0.05,-1.06,-0.69,0.68,-0.23,0.04,1.0,27.06,32.54,0.0746144,0.0,19.263388000000003,nan,-99.61435500000002,nan,0.0,0.0,9936.8613,0.0,0.0,0.0,0.0
124.0,26.0,30.0,66.0,138.0,110.0,nan,-2.39,-7.49,-0.24,15.06,-92.29,157.02,-0.57,0.02,0.2,-0.69,0.68,-0.23,0.04,1.0,27.06,32.54,0.0746144,0.0,19.263388000000003,nan,-99.61435500000002,nan,0.0,0.0,9936.8613,0.0,0.0,0.0,0.0
147.0,31.0,29.0,87.0,140.0,125.0,nan,-1.79,-7.66,-0.26,15.05,-92.23,157.04,2.44,-0.54,0.06,-0.69,0.68,-0.23,0.04,1.0,27.06,32.54,0.0746144,0.0,19.263388000000003,nan,-99.61435500000002,nan,0.0,0.0,9936.8613,0.0,0.0,0.0,0.0
166.0,31.0,25.0,77.0,139.0,111.0,nan,-2.33,-7.68,-0.17,15.06,-92.24,157.03,-0.64,0.51,0.06,-0.69,0.68,-0.23,0.04,1.0,27.06,32.54,0.0746144,0.0,19.263388000000003,nan,-99.61435500000002,nan,0.0,0.0,9936.8613,0.0,0.0,0.0,0.0
189.0,18.0,31.0,77.0,154.0,111.0,nan,-1.88,-7.98,-0.23,15.07,-92.19,157.04,0.13,0.02,-0.22,-0.69,0.68,-0.23,0.04,1.0,27.06,32.54,0.0746144,0.0,19.263388000000003,nan,-99.61435500000002,nan,0.0,0.0,9936.8613,0.0,0.0,0.0,0.0
216.0,30.0,20.0,51.0,138.0,110.0,nan,-2.77,-7.51,-0.14,15.14,-92.16,157.04,0.69,-0.05,0.69,-0.69,0.68,-0.23,0.04,1.0,27.06,32.54,0.0746144,0.0,19.26338766666667,nan,-99.61435729885058,nan,0.0,0.0,9936.8613,0.0,0.0,2619.9,0.0
239.0,19.0,31.0,55.0,132.0,76.0,nan,-2.2,-7.83,-0.01,15.14,-92.13,157.05,0.41,-0.05,-0.08,-0.69,0.68,-0.23,0.04,1.0,27.06,32.54,0.0746144,0.0,19.26338766666667,nan,-99.61435729885058,nan,0.0,0.0,9936.8613,0.0,0.0,0.0,0.0
258.0,28.0,17.0,99.0,157.0,102.0,nan,-2.29,-7.69,-0.12,15.15,-92.15,157.05,-1.27,0.3,-0.15,-0.69,0.68,-0.23,0.04,1.0,27.06,32.54,0.0746144,0.0,19.26338766666667,nan,-99.61435729885058,nan,0.0,0.0,9936.8613,0.0,0.0,0.0,0.0
281.0,31.0,30.0,109.0,159.0,120.0,nan,-2.48,-7.82,-0.29,15.18,-92.15,157.05,-0.29,-0.12,-0.15,-0.69,0.68,-0.23,0.04,1.0,27.06,32.54,0.0746144,0.0,19.26338766666667,nan,-99.61435729885058,nan,0.0,0.0,9936.8613,0.0,0.0,0.0,0.0
301.0,27.0,31.0,68.0,133.0,110.0,nan,-2.06,-7.62,-0.54,15.17,-92.16,157.04,0.41,0.09,-0.36,-0.69,0.68,-0.23,0.04,1.0,27.06,32.54,0.0746144,0.0,19.26338766666667,nan,-99.61435729885058,nan,0.0,0.0,9936.8613,0.0,0.0,0.0,0.0
326.0,26.0,30.0,78.0,134.0,110.0,nan,-2.3,-7.7,-0.27,15.17,-92.18,157.04,-0.85,0.16,-0.71,-0.69,0.68,-0.23,0.04,1.0,27.06,32.54,0.0746144,0.0,19.26338766666667,nan,-99.61435729885058,nan,0.0,0.0,9936.8613,0.0,0.0,0.0,0.0
343.0,19.0,31.0,67.0,140.0,136.0,nan,-1.92,-7.51,-0.8,15.14,-92.26,157.02,-1.83,0.3,-0.92,-0.69,0.68,-0.23,0.04,1.0,27.06,32.54,0.0746144,0.0,19.26338766666667,nan,-99.61435729885058,nan,0.0,0.0,9936.8613,0.0,0.0,0.0,0.0
366.0,31.0,26.0,77.0,148.0,126.0,nan,-1.9,-7.73,-0.53,15.11,-92.26,157.02,0.83,-0.19,-0.71,-0.69,0.68,-0.23,0.04,1.0,27.06,32.54,0.0746144,0.0,19.26338766666667,nan,-99.61435729885058,nan,0.0,0.0,9936.8613,0.0,0.0,0.0,0.0
385.0,18.0,30.0,56.0,138.0,112.0,nan,-2.03,-7.51,-0.78,15.1,-92.31,157.01,-0.92,0.3,-0.71,-0.69,0.68,-0.23,0.04,1.0,27.06,32.54,0.0746144,0.0,19.26338766666667,nan,-99.61435729885058,nan,0.0,0.0,9936.8613,0.0,0.0,0.0,0.0
410.0,26.0,31.0,135.0,148.0,109.0,nan,-1.98,-7.53,-0.45,15.05,-92.34,157.0,-1.9,0.72,-0.15,-0.69,0.68,-0.23,0.04,1.0,27.06,32.54,0.0746152,0.0,19.26338766666667,nan,-99.61435729885058,nan,0.0,0.0,9936.8613,0.0,0.0,0.0,0.0
440.0,32.0,30.0,93.0,139.0,111.0,nan,-2.05,-7.61,-0.33,15.05,-92.3,157.01,1.81,-0.47,-0.15,-0.69,0.68,-0.23,0.04,1.0,27.06,32.54,0.0746152,0.0,19.263387333333334,nan,-99.61435844827588,nan,0.0,0.0,9936.8613,0.0,0.0,2619.9,0.0
460.0,31.0,17.0,136.0,134.0,119.0,nan,-2.05,-7.56,-0.22,15.05,-92.28,157.01,0.83,0.02,-0.08,-0.69,0.68,-0.23,0.04,1.0,27.06,32.54,0.0746152,0.0,19.263387333333334,nan,-99.61435844827588,nan,0.0,0.0,9936.8613,0.0,0.0,0.0,0.0
482.0,18.0,26.0,100.0,139.0,109.0,nan,-2.14,-7.58,-0.37,15.06,-92.26,157.01,0.83,-0.12,0.48,-0.69,0.68,-0.23,0.04,1.0,27.06,32.54,0.0746152,0.0,19.263387333333334,nan,-99.61435844827588,nan,0.0,0.0,9936.8613,0.0,0.0,0.0,0.0
502.0,21.0,18.0,76.0,138.0,110.0,nan,-2.32,-7.68,-0.09,15.08,-92.25,157.01,-0.36,0.02,-0.08,-0.69,0.68,-0.23,0.04,1.0,27.06,32.54,0.0746152,0.0,19.263387333333334,nan,-99.61435844827588,nan,0.0,0.0,9936.8613,0.0,0.0,0.0,0.0
525.0,26.0,26.0,77.0,140.0,110.0,nan,-2.24,-7.66,0.01,15.11,-92.2,157.02,1.53,-0.05,0.83,-0.69,0.68,-0.23,0.04,1.0,27.06,32.54,0.0746152,0.0,19.263387333333334,nan,-99.61435844827588,nan,0.0,0.0,9936.8613,0.0,0.0,0.0,0.0
545.0,31.0,20.0,87.0,140.0,105.0,nan,-2.41,-7.82,-0.25,15.12,-92.2,157.02,-0.08,0.09,-0.36,-0.69,0.68,-0.23,0.04,1.0,27.06,32.54,0.0746152,0.0,19.263387333333334,nan,-99.61435844827588,nan,0.0,0.0,9936.8613,0.0,0.0,0.0,0.0
568.0,18.0,29.0,60.0,139.0,118.0,nan,-2.36,-7.78,-0.24,15.16,-92.18,157.03,-0.85,0.16,0.41,-0.69,0.68,-0.23,0.04,1.0,27.06,32.54,0.0746152,0.0,19.263387333333334,nan,-99.61435844827588,nan,0.0,0.0,9936.8613,0.0,0.0,0.0,0.0
594.0,27.0,30.0,135.0,155.0,111.0,nan,-2.24,-7.75,-0.29,15.15,-92.19,157.03,-0.57,0.02,-1.13,-0.69,0.68,-0.23,0.04,1.0,27.06,32.54,0.0746152,0.0,19.263387333333334,nan,-99.61435844827588,nan,0.0,0.0,9936.8613,0.0,0.0,0.0,0.0
617.0,38.0,30.0,157.0,148.0,125.0,nan,-2.28,-7.73,-0.3,15.16,-92.17,157.03,0.9,-0.26,0.06,-0.69,0.68,-0.23,0.04,1.0,27.06,32.54,0.0746152,0.0,19.263387333333334,nan,-99.61435844827588,nan,0.0,0.0,9936.8613,0.0,0.0,0.0,0.0
636.0,26.0,18.0,162.0,148.0,111.0,nan,-1.86,-7.66,-0.83,15.12,-92.25,157.01,-2.04,0.44,-1.27,-0.69,0.68,-0.23,0.04,1.0,27.06,32.54,0.0746152,0.0,19.263387333333334,nan,-99.61435844827588,nan,0.0,0.0,9936.8613,0.0,0.0,0.0,0.0
659.0,38.0,26.0,88.0,139.0,112.0,nan,-2.18,-7.66,-0.35,15.12,-92.25,157.02,0.27,-0.19,-0.5,-0.69,0.68,-0.23,0.04,1.0,27.06,32.54,0.0746152,0.0,19.263387,nan,-99.61435959770115,nan,0.0,0.0,9936.8613,0.0,0.0,2619.9,0.0
679.0,17.0,30.0,60.0,146.0,103.0,nan,-2.0,-7.49,-0.74,15.11,-92.31,157.0,-1.13,0.51,-0.22,-0.69,0.68,-0.23,0.04,1.0,27.06,32.54,0.0746152,0.0,19.26338666666667,nan,-99.61436074712643,nan,0.0,0.0,9936.8613,1.0,0.0,2619.9,0.0
702.0,31.0,16.0,146.0,134.0,111.0,nan,-1.73,-7.89,-0.4,15.05,-92.3,157.0,0.9,-0.19,-1.62,-0.69,0.68,-0.23,0.04,1.0,27.06,32.54,0.0746152,0.0,19.26338666666667,nan,-99.61436074712643,nan,0.0,0.0,9936.8613,0.0,0.0,0.0,0.0
721.0,32.0,29.0,92.0,155.0,125.0,nan,-2.22,-7.26,-0.53,15.08,-92.32,156.99,-0.43,0.23,0.34,-0.69,0.68,-0.23,0.04,1.0,27.06,32.54,0.0746152,0.0,19.263387333333334,nan,-99.61436189655173,nan,0.0,0.0,9936.8613,0.0,0.0,2619.9,0.0
744.0,27.0,30.0,52.0,138.0,111.0,nan,-1.49,-7.78,-0.4,15.01,-92.31,157.0,1.04,-0.26,-1.2,-0.69,0.68,-0.23,0.04,1.0,27.06,32.54,0.0746152,0.0,19.26338766666667,nan,-99.61436304597702,nan,0.0,0.0,9936.8613,0.0,0.0,2619.9,0.0
764.0,26.0,31.0,108.0,156.0,111.0,nan,-2.45,-7.44,-0.26,15.05,-92.32,156.99,-0.78,0.3,0.34,-0.69,0.68,-0.23,0.04,1.0,27.06,32.54,0.0746152,0.0,19.263388000000003,nan,-99.61436419540233,nan,0.0,0.0,9936.8613,0.0,0.0,2619.9,0.0
786.0,29.0,30.0,119.0,149.0,111.0,nan,-2.16,-7.86,-0.12,15.04,-92.25,157.0,0.27,0.16,0.13,-0.69,0.68,-0.23,0.04,1.0,27.06,32.54,0.0746152,0.0,19.26338833333333,nan,-99.61436534482762,nan,0.0,0.0,9936.8613,0.0,0.0,2620.0,0.0
813.0,26.0,30.0,98.0,137.0,111.0,nan,-2.7,-7.38,0.01,15.11,-92.2,157.01,1.11,-0.26,1.04,-0.69,0.68,-0.23,0.04,1.0,27.06,32.54,0.0746152,0.0,19.26338866666667,nan,-99.61436649425289,nan,0.0,0.0,9936.8613,0.0,0.0,2620.0,0.0
836.0,25.0,29.0,55.0,134.0,111.0,nan,-1.96,-7.96,-0.06,15.1,-92.19,157.01,-0.29,0.16,-0.22,-0.69,0.68,-0.23,0.04,1.0,27.06,32.54,0.0746152,0.0,19.263389,nan,-99.6143676436782,nan,0.0,0.0,9936.8613,0.0,0.0,2620.0,0.0
855.0,24.0,30.0,60.0,135.0,111.0,nan,-2.57,-7.54,-0.13,15.14,-92.18,157.02,0.06,0.02,0.13,-0.69,0.68,-0.23,0.04,1.0,27.06,32.54,0.0746152,0.0,19.263389,nan,-99.6143676436782,nan,0.0,0.0,9936.8613,0.0,0.0,0.0,0.0
878.0,26.0,18.0,109.0,162.0,104.0,nan,-2.26,-7.76,-0.25,15.15,-92.16,157.02,0.76,-0.26,-0.08,-0.69,0.68,-0.23,0.04,1.0,27.09,32.48,0.0746234,0.0,19.26338933333334,nan,-99.61436879310347,nan,0.0,0.0,9936.8613,0.0,0.0,2620.0,0.0
900.0,17.0,30.0,89.0,138.0,75.0,nan,-2.14,-7.68,-0.34,15.14,-92.17,157.02,-0.43,0.3,-0.36,-0.69,0.68,-0.23,0.04,1.0,27.09,32.48,0.0746234,0.0,19.26338966666667,nan,-99.61436994252875,nan,0.0,0.0,9936.8613,0.0,0.0,2620.0,0.0
923.0,28.0,31.0,108.0,140.0,118.0,nan,-2.38,-7.76,-0.2,15.16,-92.19,157.02,-1.06,0.16,-0.36,-0.69,0.68,-0.23,0.04,1.0,27.09,32.48,0.0746234,0.0,19.26339,nan,-99.61437109195406,nan,0.0,0.0,9936.8613,0.0,0.0,2620.0,0.0
942.0,26.0,31.0,108.0,134.0,104.0,nan,-1.99,-7.63,-0.73,15.14,-92.23,157.01,-0.71,0.02,-0.29,-0.69,0.68,-0.23,0.04,1.0,27.09,32.48,0.0746234,0.0,19.263390333333334,nan,-99.61437224137933,nan,0.0,0.0,9936.8613,0.0,0.0,2620.0,0.0
965.0,26.0,30.0,87.0,144.0,110.0,nan,-2.02,-7.43,-0.63,15.12,-92.29,156.99,-1.06,0.3,-0.71,-0.69,0.68,-0.23,0.04,1.0,27.09,32.48,0.0746234,0.0,19.263390666666663,nan,-99.6143733908046,nan,0.0,0.0,9936.8613,0.0,0.0,2620.0,0.0
992.0,18.0,30.0,56.0,138.0,110.0,nan,-1.64,-7.71,-0.24,15.06,-92.26,157.0,0.9,-0.19,-1.34,-0.69,0.68,-0.23,0.04,1.0,27.09,32.48,0.0746234,0.0,19.263391000000002,nan,-99.61437454022989,nan,0.0,0.0,9936.8613,0.0,0.0,2620.0,0.0
1014.0,26.0,29.0,124.0,135.0,125.0,nan,-2.11,-7.44,-0.62,15.06,-92.33,156.98,-2.04,0.58,-0.29,-0.69,0.68,-0.23,0.04,1.0,27.09,32.48,0.0746234,0.0,19.263391000000002,nan,-99.61437454022989,nan,0.0,0.0,9936.8613,0.0,0.0,0.0,0.0
1034.0,18.0,30.0,136.0,160.0,126.0,nan,-1.73,-7.64,-0.52,15.02,-92.3,156.99,2.51,-0.68,-0.71,-0.69,0.68,-0.23,0.04,1.0,27.09,32.48,0.0746234,0.0,19.26339133333333,nan,-99.61437568965519,nan,0.0,0.0,9936.8613,0.0,0.0,2620.0,0.0
1057.0,26.0,31.0,108.0,134.0,112.0,nan,-1.97,-7.66,-0.24,15.02,-92.28,156.99,0.41,0.23,0.06,-0.69,0.68,-0.23,0.04,1.0,27.09,32.48,0.0746234,0.0,19.26339166666667,nan,-99.61437683908046,nan,0.0,0.0,9936.8613,0.0,0.0,2620.0,0.0
1076.0,27.0,30.0,107.0,132.0,126.0,nan,-2.37,-7.51,-0.13,15.06,-92.25,156.99,0.83,-0.19,0.76,-0.69,0.68,-0.23,0.04,1.0,27.09,32.48,0.0746234,0.0,19.263392,nan,-99.61437798850574,nan,0.0,0.0,9936.8613,0.0,0.0,2620.0,0.0
1099.0,26.0,31.0,72.0,134.0,112.0,nan,-2.03,-7.81,-0.18,15.05,-92.25,156.99,-0.29,0.09,-0.15,-0.69,0.68,-0.23,0.04,1.0,27.09,32.48,0.0746234,0.0,19.263392333333332,nan,-99.61437913793104,nan,0.0,0.0,9936.8613,0.0,0.0,2620.0,0.0
1119.0,17.0,30.0,40.0,134.0,124.0,nan,-2.43,-7.58,-0.39,15.1,-92.24,156.99,0.76,0.02,0.9,-0.69,0.68,-0.23,0.04,1.0,27.09,32.48,0.0746234,0.0,19.263392333333332,nan,-99.61437913793104,nan,0.0,0.0,9936.8613,0.0,0.0,0.0,0.0
1142.0,37.0,26.0,157.0,147.0,111.0,nan,-2.28,-7.57,0.11,15.12,-92.19,157.0,0.13,0.23,0.41,-0.69,0.68,-0.23,0.04,1.0,27.09,32.48,0.0746234,0.0,19.263392666666668,nan,-99.61438028735634,nan,0.0,0.0,9936.8613,0.0,0.0,2620.0,0.0
1168.0,26.0,30.0,161.0,148.0,111.0,nan,-2.39,-7.85,-0.25,15.13,-92.21,157.0,-1.55,0.3,-0.43,-0.69,0.68,-0.23,0.04,1.0,27.09,32.48,0.0746234,0.0,19.263393,nan,-99.61438143678164,nan,0.0,0.0,9936.8613,0.0,0.0,2620.0,0.0
1192.0,38.0,26.0,89.0,155.0,110.0,nan,-2.11,-7.75,-0.31,15.12,-92.21,157.0,0.41,-0.12,-0.5,-0.69,0.68,-0.23,0.04,1.0,27.09,32.48,0.0746234,0.0,19.263393333333333,nan,-99.61438258620693,nan,0.0,0.0,9936.8613,0.0,0.0,2620.0,0.0
1211.0,17.0,30.0,56.0,154.0,109.0,nan,-2.33,-7.67,-0.45,15.15,-92.21,157.0,0.48,0.09,0.34,-0.69,0.68,-0.23,0.04,1.0,27.09,32.48,0.0746234,0.0,19.263393666666662,nan,-99.6143837356322,nan,0.0,0.0,9936.8613,0.0,0.0,2620.0,0.0
1234.0,37.0,25.0,158.0,149.0,110.0,nan,-2.1,-7.66,-0.55,15.13,-92.26,156.99,-1.34,0.23,-1.13,-0.69,0.68,-0.23,0.04,1.0,27.09,32.48,0.0746234,0.0,19.263394,nan,-99.6143848850575,nan,0.0,0.0,9936.8613,0.0,0.0,2620.0,0.0
1253.0,37.0,27.0,172.0,134.0,111.0,nan,-2.16,-7.73,-0.16,15.13,-92.24,156.99,0.34,-0.19,-0.15,-0.69,0.68,-0.23,0.04,1.0,27.09,32.48,0.0746234,0.0,19.26339433333333,nan,-99.61438603448278,nan,0.0,0.0,9936.8613,0.0,0.0,2620.0,0.0
1276.0,25.0,26.0,162.0,154.0,111.0,nan,-1.89,-7.59,-0.85,15.1,-92.33,156.97,-2.25,0.65,-0.99,-0.69,0.68,-0.23,0.04,1.0,27.09,32.48,0.0746234,0.0,19.26339433333333,nan,-99.61438603448278,nan,0.0,0.0,9936.8613,0.0,0.0,0.0,0.0
1296.0,27.0,19.0,40.0,160.0,124.0,nan,-2.05,-7.75,-0.34,15.08,-92.29,156.98,1.67,-0.33,-0.78,-0.69,0.68,-0.23,0.04,1.0,27.09,32.48,0.0746234,0.0,19.263395,nan,-99.61438833333337,nan,0.0,0.0,9936.8613,0.0,0.0,2620.0,0.0
1319.0,31.0,30.0,68.0,148.0,125.0,nan,-2.01,-7.39,-0.52,15.08,-92.31,156.97,-0.15,0.3,-0.01,-0.69,0.68,-0.23,0.04,1.0,27.09,32.48,0.0746234,0.0,19.263395,nan,-99.61438818042816,nan,0.0,0.0,9936.8633,1.0,1.0,2620.0,0.0
1338.0,18.0,30.0,88.0,159.0,126.0,nan,-2.13,-7.4,-0.46,15.04,-92.34,156.96,-1.13,0.37,0.06,-0.69,0.68,-0.23,0.04,1.0,27.08,32.5,0.074607,0.0,19.263395046948354,nan,-99.61438802752295,nan,0.0,0.0,9936.8633,0.0,0.0,2620.0,0.0
1370.0,26.0,27.0,52.0,156.0,74.0,nan,-1.7,-7.6,-0.51,15.02,-92.33,156.96,1.46,-0.26,-0.15,-0.69,0.68,-0.23,0.04,1.0,27.08,32.5,0.074607,0.0,19.263395070422536,nan,-99.61438787461775,nan,0.0,0.0,9936.8633,0.0,0.0,2620.0,0.0
1390.0,17.0,30.0,87.0,138.0,103.0,nan,-2.37,-7.58,-0.04,15.04,-92.29,156.97,0.55,-0.12,0.2,-0.69,0.68,-0.23,0.04,1.0,27.08,32.5,0.074607,0.0,19.263395093896712,nan,-99.61438772171257,nan,0.0,0.0,9936.8633,0.0,0.0,2620.0,0.0
1412.0,23.0,18.0,67.0,154.0,110.0,nan,-2.15,-7.54,0.09,15.07,-92.21,156.99,2.58,-0.47,0.76,-0.69,0.68,-0.23,0.04,1.0,27.08,32.5,0.074607,0.0,19.263395117370894,nan,-99.61438756880736,nan,0.0,0.0,9936.8633,0.0,0.0,2622.5,0.0
1432.0,17.0,30.0,48.0,139.0,110.0,nan,-2.02,-8.0,-0.1,15.05,-92.22,156.98,-1.06,0.37,-0.43,-0.69,0.68,-0.23,0.04,1.0,27.08,32.5,0.074607,0.0,19.263395140845066,nan,-99.61438741590216,nan,0.0,0.0,9936.8633,0.0,0.0,2622.5,0.0
1455.0,32.0,18.0,66.0,133.0,109.0,nan,-2.7,-7.43,-0.2,15.11,-92.21,156.99,0.34,-0.05,0.62,-0.69,0.68,-0.23,0.04,1.0,27.08,32.5,0.074607,0.0,19.263395140845066,nan,-99.61438741590216,nan,0.0,0.0,9936.8633,0.0,0.0,0.0,0.0
1474.0,30.0,30.0,48.0,138.0,112.0,nan,-2.0,-7.94,-0.08,15.1,-92.17,156.99,0.9,-0.26,-0.01,-0.69,0.68,-0.23,0.04,1.0,27.08,32.5,0.074607,0.0,19.26339516431925,nan,-99.61438726299696,nan,0.0,0.0,9936.8633,0.0,0.0,2622.5,0.0
1497.0,18.0,22.0,68.0,134.0,110.0,nan,-2.61,-7.65,0.09,15.15,-92.13,157.0,0.62,0.02,0.27,-0.69,0.68,-0.23,0.04,1.0,27.08,32.5,0.074607,0.0,19.263395187793424,nan,-99.61438711009174,nan,0.0,0.0,9936.8633,0.0,0.0,2622.5,0.0
1516.0,27.0,30.0,98.0,160.0,125.0,nan,-2.36,-7.83,-0.12,15.16,-92.13,157.01,-0.57,-0.05,-0.15,-0.69,0.68,-0.23,0.04,1.0,27.08,32.5,0.074607,0.0,19.263395211267603,nan,-99.61438695718657,nan,0.0,0.0,9936.8633,0.0,0.0,2622.5,0.0
1540.0,26.0,16.0,88.0,148.0,110.0,nan,-2.32,-7.75,-0.39,15.15,-92.21,156.99,-0.08,-0.05,-0.64,-0.69,0.68,-0.23,0.04,1.0,27.08,32.5,0.074607,0.0,19.263395234741786,nan,-99.61438680428137,nan,0.0,0.0,9936.8633,0.0,0.0,2622.5,0.0
1566.0,28.0,18.0,78.0,154.0,111.0,nan,-1.88,-7.56,-0.6,15.13,-92.23,156.98,-0.08,0.02,-0.64,-0.69,0.68,-0.23,0.04,1.0,27.08,32.5,0.074607,0.0,19.26339525821596,nan,-99.61438665137615,nan,0.0,0.0,9936.8633,0.0,0.0,2622.5,0.0
1589.0,25.0,30.0,88.0,153.0,118.0,nan,-2.04,-7.77,-0.32,15.11,-92.24,156.98,-0.15,0.02,-0.92,-0.69,0.68,-0.23,0.04,1.0,27.08,32.5,0.074607,0.0,19.26339525821596,nan,-99.61438665137615,nan,0.0,0.0,9936.8633,0.0,0.0,0.0,0.0
1608.0,26.0,18.0,78.0,155.0,104.0,nan,-2.06,-7.48,-0.81,15.1,-92.33,156.96,-2.53,0.44,-0.57,-0.69,0.68,-0.23,0.04,1.0,27.08,32.5,0.074607,0.0,19.263395281690137,nan,-99.61438649847095,nan,0.0,0.0,9936.8633,0.0,0.0,2622.5,0.0
1631.0,26.0,27.0,77.0,161.0,118.0,nan,-1.82,-7.7,-0.46,15.07,-92.3,156.97,1.88,-0.4,-0.71,-0.69,0.68,-0.23,0.04,1.0,27.08,32.5,0.074607,0.0,19.26339530516432,nan,-99.61438634556578,nan,0.0,0.0,9936.8633,0.0,0.0,2622.5,0.0
1651.0,26.0,17.0,67.0,157.0,104.0,nan,-2.17,-7.53,-0.39,15.07,-92.31,156.96,-0.29,0.3,-0.15,-0.69,0.68,-0.23,0.04,1.0,27.08,32.5,0.074607,0.0,19.2633953286385,nan,-99.61438619266059,nan,0.0,0.0,9936.8633,0.0,0.0,2622.5,0.0
1674.0,36.0,26.0,88.0,139.0,118.0,nan,-1.95,-7.58,-0.27,15.06,-92.28,156.97,1.32,-0.4,-0.36,-0.69,0.68,-0.23,0.04,1.0,27.08,32.5,0.074607,0.0,19.26339535211268,nan,-99.61438603975536,nan,0.0,0.0,9936.8633,0.0,0.0,2622.5,0.0
1693.0,29.0,18.0,67.0,137.0,104.0,nan,-1.93,-7.57,-0.51,15.04,-92.32,156.96,-0.99,0.23,-0.36,-0.69,0.68,-0.23,0.04,1.0,27.08,32.5,0.074607,0.0,19.26339537558685,nan,-99.61438588685017,nan,0.0,0.0,9936.8633,0.0,0.0,2622.5,0.0
1716.0,26.0,31.0,68.0,159.0,74.0,nan,-2.13,-7.65,-0.49,15.05,-92.31,156.96,1.04,-0.12,0.34,-0.69,0.68,-0.23,0.04,1.0,27.08,32.5,0.074607,0.0,19.26339537558685,nan,-99.61438588685017,nan,0.0,0.0,9936.8633,0.0,0.0,0.0,0.0
1735.0,15.0,18.0,77.0,138.0,102.0,nan,-2.06,-7.77,-0.07,15.05,-92.27,156.97,1.25,-0.05,-0.22,-0.69,0.68,-0.23,0.04,1.0,27.08,32.5,0.074607,0.0,19.263395399061032,nan,-99.614385733945,nan,0.0,0.0,9936.8633,0.0,0.0,2622.5,0.0
1759.0,17.0,29.0,109.0,149.0,111.0,nan,-2.39,-7.77,-0.16,15.09,-92.26,156.97,-1.27,0.23,-0.22,-0.69,0.68,-0.23,0.04,1.0,27.08,32.5,0.074607,0.0,19.26339542253521,nan,-99.61438558103977,nan,0.0,0.0,9936.8633,0.0,0.0,2622.5,0.0
1785.0,32.0,26.0,136.0,148.0,111.0,nan,-2.39,-7.65,-0.05,15.13,-92.2,156.97,1.6,-0.19,1.04,-0.69,0.68,-0.23,0.04,1.0,27.08,32.5,0.074607,0.0,19.263395446009387,nan,-99.61438542813458,nan,0.0,0.0,9936.8633,0.0,0.0,2622.5,0.0
1808.0,29.0,17.0,77.0,161.0,111.0,nan,-2.39,-7.83,-0.25,15.15,-92.22,156.97,-0.71,0.3,-0.15,-0.69,0.68,-0.23,0.04,1.0,27.09,32.45,0.0746168,0.0,19.26339546948357,nan,-99.61438527522938,nan,0.0,0.0,9936.8633,0.0,0.0,2622.5,0.0
1830.0,38.0,26.0,52.0,137.0,125.0,nan,-2.37,-7.56,0.02,15.17,-92.17,156.98,0.83,-0.26,-0.29,-0.69,0.68,-0.23,0.04,1.0,27.09,32.45,0.0746168,0.0,19.263395492957745,nan,-99.61438512232417,nan,0.0,0.0,9936.8633,0.0,0.0,2622.5,0.0
1852.0,27.0,30.0,68.0,137.0,111.0,nan,-2.17,-7.81,-0.26,15.18,-92.19,156.97,-0.71,0.37,0.41,-0.69,0.68,-0.23,0.04,1.0,27.09,32.45,0.0746168,0.0,19.263395516431924,nan,-99.61438496941899,nan,0.0,0.0,9936.8633,0.0,0.0,2622.5,0.0
1872.0,17.0,30.0,108.0,133.0,98.0,nan,-2.23,-7.77,-0.42,15.16,-92.22,156.97,-1.2,0.23,-1.06,-0.69,0.68,-0.23,0.04,1.0,27.09,32.45,0.0746168,0.0,19.2633955399061,nan,-99.61438481651379,nan,0.0,0.0,9936.8633,0.0,0.0,2622.5,0.0
1898.0,27.0,30.0,52.0,138.0,111.0,nan,-2.38,-7.72,-0.36,15.18,-92.2,156.97,1.04,-0.33,0.06,-0.69,0.68,-0.23,0.04,1.0,27.09,32.45,0.0746168,0.0,19.2633955399061,nan,-99.61438481651379,nan,0.0,0.0,9936.8633,0.0,0.0,0.0,0.0
1914.0,37.0,26.0,78.0,139.0,112.0,nan,-1.79,-7.65,-0.7,15.15,-92.27,156.95,-1.62,0.58,-0.92,-0.69,0.68,-0.23,0.04,1.0,27.09,32.45,0.0746168,0.0,19.263395563380282,nan,-99.61438466360858,nan,0.0,0.0,9936.8633,0.0,0.0,2622.5,0.0
1937.0,27.0,31.0,109.0,138.0,120.0,nan,-2.02,-7.5,-0.78,15.15,-92.34,156.94,-1.2,0.37,-0.22,-0.69,0.68,-0.23,0.04,1.0,27.09,32.45,0.0746168,0.0,19.263395586854458,nan,-99.61438451070337,nan,0.0,0.0,9936.8633,0.0,0.0,2622.5,0.0
1964.0,26.0,26.0,147.0,134.0,111.0,nan,-1.89,-7.85,-0.37,15.11,-92.33,156.94,0.62,-0.05,-1.41,-0.69,0.68,-0.23,0.04,1.0,27.09,32.45,0.0746168,0.0,19.263395610328637,nan,-99.6143843577982,nan,0.0,0.0,9936.8633,0.0,0.0,2622.5,0.0
1987.0,32.0,30.0,77.0,155.0,125.0,nan,-2.11,-7.34,-0.69,15.11,-92.37,156.93,-0.64,0.16,-0.08,-0.69,0.68,-0.23,0.04,1.0,27.09,32.45,0.0746168,0.0,19.26339563380282,nan,-99.61438420489299,nan,0.0,0.0,9936.8633,0.0,0.0,2622.5,0.0
2006.0,26.0,31.0,55.0,155.0,111.0,nan,-1.63,-7.73,-0.36,15.06,-92.34,156.94,1.53,-0.4,-0.85,-0.69,0.68,-0.23,0.04,1.0,27.09,32.45,0.0746168,0.0,19.263395657276995,nan,-99.61438405198778,nan,0.0,0.0,9936.8633,0.0,0.0,2622.5,0.0
2029.0,27.0,26.0,146.0,133.0,112.0,nan,-2.24,-7.53,-0.42,15.08,-92.38,156.92,-1.34,0.44,-0.01,-0.69,0.68,-0.23,0.04,1.0,27.09,32.45,0.0746168,0.0,19.263395657276995,nan,-99.61438405198778,nan,0.0,0.0,9936.8633,0.0,0.0,0.0,0.0
2049.0,38.0,26.0,40.0,135.0,111.0,nan,-1.86,-7.6,-0.39,15.06,-92.34,156.93,1.88,-0.47,-0.29,-0.69,0.68,-0.23,0.04,1.0,27.09,32.45,0.0746168,0.0,19.26339568075117,nan,-99.61438389908258,nan,0.0,0.0,9936.8633,0.0,0.0,2622.5,0.0
2071.0,26.0,29.0,109.0,140.0,112.0,nan,-2.01,-7.63,-0.3,15.05,-92.34,156.93,-0.08,0.09,-0.29,-0.69,0.68,-0.23,0.04,1.0,27.09,32.45,0.0746168,0.0,19.263395704225353,nan,-99.61438374617737,nan,0.0,0.0,9936.8633,0.0,0.0,2622.5,0.0
2091.0,31.0,21.0,135.0,138.0,111.0,nan,-2.26,-7.56,-0.35,15.08,-92.32,156.94,1.53,-0.26,0.69,-0.69,0.68,-0.23,0.04,1.0,27.09,32.45,0.0746168,0.0,19.263395727699532,nan,-99.6143835932722,nan,0.0,0.0,9936.8633,0.0,0.0,2622.5,0.0
2113.0,37.0,30.0,157.0,152.0,110.0,nan,-2.07,-7.8,-0.07,15.07,-92.3,156.94,-0.15,0.16,-0.29,-0.69,0.68,-0.23,0.04,1.0,27.09,32.45,0.0746168,0.0,19.263395751173707,nan,-99.61438344036699,nan,0.0,0.0,9936.8633,0.0,0.0,2622.5,0.0
2133.0,37.0,17.0,161.0,134.0,125.0,nan,-2.33,-7.6,-0.23,15.11,-92.28,156.94,0.76,-0.05,0.76,-0.69,0.68,-0.23,0.04,1.0,27.09,32.45,0.0746168,0.0,19.263395751173707,nan,-99.61438344036699,nan,0.0,0.0,9936.8633,0.0,0.0,0.0,0.0
2156.0,38.0,26.0,40.0,155.0,111.0,nan,-2.34,-7.6,0.12,15.16,-92.2,156.95,1.81,-0.26,0.76,-0.69,0.68,-0.23,0.04,1.0,27.09,32.45,0.0746168,0.0,19.263395774647883,nan,-99.61438328746178,nan,0.0,0.0,9936.8633,0.0,0.0,2622.5,0.0
2182.0,17.0,29.0,109.0,138.0,110.0,nan,-2.43,-7.85,-0.19,15.18,-92.22,156.95,-0.99,0.3,0.06,-0.69,0.68,-0.23,0.04,1.0,27.09,32.45,0.0746168,0.0,19.263395798122065,nan,-99.61438313455658,nan,0.0,0.0,9936.8633,0.0,0.0,2622.5,0.0
2205.0,18.0,31.0,108.0,138.0,125.0,nan,-2.24,-7.61,-0.24,15.17,-92.22,156.95,-0.5,-0.12,-0.71,-0.69,0.68,-0.23,0.04,1.0,27.09,32.45,0.0746168,0.0,19.263395821596244,nan,-99.6143829816514,nan,0.0,0.0,9936.8633,0.0,0.0,2622.5,0.0
2225.0,17.0,30.0,108.0,159.0,116.0,nan,-2.24,-7.77,-0.42,15.19,-92.24,156.95,-0.43,0.16,0.48,-0.69,0.68,-0.23,0.04,1.0,27.09,32.45,0.0746168,0.0,19.26339584507042,nan,-99.61438282874619,nan,0.0,0.0,9936.8633,0.0,0.0,2622.5,0.0
2247.0,29.0,29.0,88.0,147.0,97.0,nan,-2.27,-7.72,-0.44,15.19,-92.26,156.94,-0.5,0.16,-0.85,-0.69,0.68,-0.23,0.04,1.0,27.09,32.45,0.0746168,0.0,19.263395868544603,nan,-99.61438267584099,nan,0.0,0.0,9936.8633,0.0,0.0,2622.0,0.0
2267.0,38.0,30.0,119.0,150.0,111.0,nan,-2.32,-7.75,-0.11,15.2,-92.23,156.95,0.62,-0.33,-0.08,-0.69,0.68,-0.23,0.04,1.0,27.11,32.41,0.0746168,0.0,19.263395892018778,nan,-99.6143825229358,nan,0.0,0.0,9936.8633,0.0,0.0,2622.0,0.0
2292.0,30.0,17.0,134.0,138.0,109.0,nan,-1.96,-7.6,-0.77,15.17,-92.31,156.93,-1.83,0.58,-0.92,-0.69,0.68,-0.23,0.04,1.0,27.11,32.41,0.0746168,0.0,19.263395915492957,nan,-99.61438237003057,nan,0.0,0.0,9936.8633,0.0,0.0,2622.0,0.0
2312.0,26.0,26.0,73.0,132.0,110.0,nan,-2.07,-7.81,-0.46,15.15,-92.32,156.93,-0.01,-0.12,-0.99,-0.69,0.68,-0.23,0.04,1.0,27.11,32.41,0.0746168,0.0,19.263395915492957,nan,-99.61438237003057,nan,0.0,0.0,9936.8633,0.0,0.0,0.0,0.0
2335.0,31.0,17.0,147.0,135.0,111.0,nan,-1.77,-7.89,-0.34,15.1,-92.35,156.92,0.9,-0.19,-1.55,-0.69,0.68,-0.23,0.04,1.0,27.11,32.41,0.0746168,0.0,19.263395938967133,nan,-99.6143822171254,nan,0.0,0.0,9936.8633,0.0,0.0,2622.0,0.0
2361.0,32.0,18.0,77.0,138.0,105.0,nan,-2.15,-7.33,-0.54,15.11,-92.4,156.91,-1.34,0.37,-0.01,-0.69,0.68,-0.23,0.04,1.0,27.11,32.41,0.0746168,0.0,19.263395962441315,nan,-99.61438206422021,nan,0.0,0.0,9936.8633,0.0,0.0,2622.0,0.0
2384.0,21.0,18.0,77.0,137.0,76.0,nan,-1.63,-7.67,-0.5,15.06,-92.38,156.91,1.18,-0.26,-0.71,-0.69,0.68,-0.23,0.04,1.0,27.11,32.41,0.0746168,0.0,19.26339598591549,nan,-99.61438191131501,nan,0.0,0.0,9936.8633,0.0,0.0,2622.0,0.0
2404.0,17.0,29.0,98.0,136.0,101.0,nan,-2.23,-7.52,-0.46,15.07,-92.42,156.9,-0.92,0.44,-0.15,-0.69,0.68,-0.23,0.04,1.0,27.11,32.41,0.0746168,0.0,19.26339600938967,nan,-99.61438175840979,nan,0.0,0.0,9936.8633,0.0,0.0,2622.0,0.0
2427.0,32.0,17.0,125.0,146.0,110.0,nan,-2.0,-7.49,-0.37,15.08,-92.37,156.91,2.37,-0.54,0.2,-0.69,0.68,-0.23,0.04,1.0,27.11,32.41,0.0746168,0.0,19.263396032863852,nan,-99.61438160550462,nan,0.0,0.0,9936.8633,0.0,0.0,2622.0,0.0
2446.0,18.0,31.0,41.0,156.0,125.0,nan,-1.8,-7.86,-0.19,15.04,-92.36,156.91,0.2,0.09,-0.57,-0.69,0.68,-0.23,0.04,1.0,27.11,32.41,0.0746168,0.0,19.263396056338028,nan,-99.61438145259942,nan,0.0,0.0,9936.8633,0.0,0.0,2622.0,0.0
2469.0,38.0,30.0,53.0,159.0,110.0,nan,-2.59,-7.45,-0.09,15.11,-92.32,156.92,0.83,-0.12,1.11,-0.69,0.68,-0.23,0.04,1.0,27.11,32.41,0.0746168,0.0,19.263396056338028,nan,-99.61438145259942,nan,0.0,0.0,9936.8633,0.0,0.0,0.0,0.0
2488.0,26.0,30.0,108.0,141.0,111.0,nan,-2.03,-7.91,-0.07,15.09,-92.3,156.92,0.13,0.09,-0.36,-0.69,0.68,-0.23,0.04,1.0,27.11,32.41,0.0746168,0.0,19.263396079812203,nan,-99.6143812996942,nan,0.0,0.0,9936.8633,0.0,0.0,2622.0,0.0
2511.0,17.0,30.0,55.0,137.0,111.0,nan,-2.43,-7.66,-0.2,15.13,-92.28,156.92,0.9,0.02,0.83,-0.69,0.68,-0.23,0.04,1.0,27.11,32.41,0.0746168,0.0,19.263396103286382,nan,-99.614381146789,nan,0.0,0.0,9936.8633,0.0,0.0,2622.0,0.0
2531.0,19.0,30.0,67.0,139.0,124.0,nan,-2.4,-7.8,-0.19,15.15,-92.26,156.93,0.13,-0.19,-0.08,-0.69,0.68,-0.23,0.04,1.0,27.11,32.41,0.0746168,0.0,19.263396126760565,nan,-99.61438099388383,nan,0.0,0.0,9936.8633,0.0,0.0,2622.0,0.0
2554.0,17.0,25.0,51.0,156.0,97.0,nan,-2.42,-7.81,-0.4,15.19,-92.3,156.92,-2.04,0.51,-0.57,-0.69,0.68,-0.23,0.04,1.0,27.11,32.41,0.0746168,0.0,19.26339615023474,nan,-99.61438084097861,nan,0.0,0.0,9936.8633,0.0,0.0,2622.0,0.0
2580.0,27.0,31.0,77.0,155.0,105.0,nan,-2.02,-7.7,-0.48,15.17,-92.31,156.92,-0.01,-0.12,-0.71,-0.69,0.68,-0.23,0.04,1.0,27.11,32.41,0.0746168,0.0,19.263396173708916,nan,-99.61438068807341,nan,0.0,0.0,9936.8633,0.0,0.0,2622.0,0.0
2604.0,27.0,31.0,77.0,137.0,76.0,nan,-2.31,-7.72,-0.41,15.2,-92.3,156.92,0.69,-0.12,0.34,-0.69,0.68,-0.23,0.04,1.0,27.11,32.41,0.0746168,0.0,19.2633961971831,nan,-99.61438053516821,nan,0.0,0.0,9936.8633,0.0,0.0,2622.0,0.0
2623.0,27.0,31.0,108.0,153.0,103.0,nan,-1.96,-7.73,-0.53,15.16,-92.35,156.91,-1.69,0.23,-1.34,-0.69,0.68,-0.23,0.04,1.0,27.11,32.41,0.0746168,0.0,19.2633961971831,nan,-99.61438053516821,nan,0.0,0.0,9936.8633,0.0,0.0,0.0,0.0
2646.0,22.0,17.0,66.0,154.0,119.0,nan,-2.21,-7.64,-0.22,15.16,-92.34,156.92,0.41,-0.19,-0.36,-0.69,0.68,-0.23,0.04,1.0,27.11,32.41,0.0746168,0.0,19.263396220657278,nan,-99.614380382263,nan,0.0,0.0,9936.8633,0.0,0.0,2622.0,0.0
2665.0,21.0,28.0,124.0,134.0,75.0,nan,-1.79,-7.6,-0.86,15.12,-92.42,156.89,-2.11,0.58,-0.99,-0.69,0.68,-0.23,0.04,1.0,27.11,32.41,0.0746168,0.0,19.263396244131453,nan,-99.61438022935782,nan,0.0,0.0,9936.8633,0.0,0.0,2622.0,0.0
2688.0,28.0,30.0,87.0,139.0,117.0,nan,-2.06,-7.69,-0.48,15.11,-92.4,156.9,1.53,-0.4,-0.5,-0.69,0.68,-0.23,0.04,1.0,27.11,32.41,0.0746168,0.0,19.263396267605636,nan,-99.61438007645262,nan,0.0,0.0,9936.8633,0.0,0.0,2622.0,0.0
2708.0,27.0,26.0,67.0,161.0,126.0,nan,-2.07,-7.41,-0.37,15.11,-92.4,156.89,0.2,0.23,-0.08,-0.69,0.68,-0.23,0.04,1.0,27.11,32.41,0.0746168,0.0,19.26339629107981,nan,-99.6143799235474,nan,0.0,0.0,9936.8633,0.0,0.0,2622.0,0.0
2730.0,31.0,28.0,52.0,150.0,110.0,nan,-2.32,-7.38,-0.5,15.09,-92.42,156.89,-0.85,0.3,0.48,-0.69,0.68,-0.23,0.04,1.0,27.11,32.41,0.0746184,0.0,19.26339631455399,nan,-99.6143797706422,nan,0.0,0.0,9936.8633,0.0,0.0,2622.0,0.0
2762.0,38.0,26.0,88.0,139.0,111.0,nan,-1.67,-7.71,-0.6,15.06,-92.4,156.89,2.02,-0.33,-0.01,-0.69,0.68,-0.23,0.04,1.0,27.11,32.41,0.0746184,0.0,19.263396338028166,nan,-99.61437961773703,nan,0.0,0.0,9936.8633,0.0,0.0,2622.0,0.0
2782.0,18.0,21.0,78.0,137.0,111.0,nan,-2.46,-7.68,0.02,15.09,-92.37,156.9,0.34,-0.05,-0.01,-0.69,0.68,-0.23,0.04,1.0,27.11,32.41,0.0746184,0.0,19.263396338028166,nan,-99.61437961773703,nan,0.0,0.0,9936.8633,0.0,0.0,0.0,0.0
2805.0,27.0,31.0,78.0,134.0,125.0,nan,-2.2,-7.55,0.18,15.12,-92.3,156.91,1.67,-0.33,0.62,-0.69,0.68,-0.23,0.04,1.0,27.11,32.41,0.0746184,0.0,19.26339636150235,nan,-99.61437946483181,nan,0.0,0.0,9936.8633,0.0,0.0,2622.0,0.0
2824.0,26.0,30.0,77.0,141.0,111.0,nan,-2.14,-7.92,-0.13,15.11,-92.31,156.91,-1.34,0.44,-0.22,-0.69,0.68,-0.23,0.04,1.0,27.11,32.41,0.0746184,0.0,19.263396384976524,nan,-99.61437931192661,nan,0.0,0.0,9936.8633,0.0,0.0,2622.0,0.0
2848.0,21.0,31.0,108.0,139.0,126.0,nan,-2.64,-7.52,-0.21,15.16,-92.28,156.92,1.25,-0.33,0.48,-0.69,0.68,-0.23,0.04,1.0,27.11,32.41,0.0746184,0.0,19.263396408450703,nan,-99.61437915902142,nan,0.0,0.0,9936.8633,0.0,0.0,2622.0,0.0
2867.0,18.0,26.0,78.0,138.0,112.0,nan,-2.04,-7.9,-0.1,15.16,-92.24,156.92,0.97,0.02,-0.01,-0.69,0.68,-0.23,0.04,1.0,27.11,32.41,0.0746184,0.0,19.263396431924885,nan,-99.61437900611622,nan,0.0,0.0,9936.8633,0.0,0.0,2622.0,0.0
2890.0,31.0,18.0,78.0,162.0,110.0,nan,-2.37,-7.8,-0.19,15.2,-92.22,156.93,-0.5,-0.05,0.06,-0.69,0.68,-0.23,0.04,1.0,27.11,32.41,0.0746184,0.0,19.26339645539906,nan,-99.61437885321102,nan,0.0,0.0,9936.8633,0.0,0.0,2622.0,0.0
2916.0,31.0,18.0,99.0,160.0,104.0,nan,-2.06,-7.66,-0.74,15.19,-92.28,156.91,-1.06,0.3,-0.64,-0.69,0.68,-0.23,0.04,1.0,27.11,32.41,0.0746184,0.0,19.263396478873236,nan,-99.61437870030583,nan,0.0,0.0,9936.8633,0.0,0.0,2622.0,0.0
2939.0,25.0,29.0,52.0,124.0,116.0,nan,-2.35,-7.73,-0.34,15.19,-92.27,156.91,0.48,-0.12,-0.64,-0.69,0.68,-0.23,0.04,1.0,27.11,32.41,0.0746184,0.0,19.263396478873236,nan,-99.61437870030583,nan,0.0,0.0,9936.8633,0.0,0.0,0.0,0.0
2959.0,31.0,30.0,55.0,154.0,111.0,nan,-1.85,-7.5,-0.64,15.16,-92.32,156.9,-1.06,0.16,-0.71,-0.69,0.68,-0.23,0.04,1.0,27.11,32.41,0.0746184,0.0,19.263396502347415,nan,-99.6143785474006,nan,0.0,0.0,9936.8633,0.0,0.0,2622.0,0.0
2982.0,31.0,17.0,136.0,138.0,110.0,nan,-2.05,-7.71,-0.39,15.14,-92.33,156.9,-0.15,0.02,-0.99,-0.69,0.68,-0.23,0.04,1.0,27.11,32.41,0.0746184,0.0,19.263396525821598,nan,-99.61437839449543,nan,0.0,0.0,9936.8633,0.0,0.0,2622.0,0.0
3001.0,38.0,26.0,39.0,132.0,112.0,nan,-1.94,-7.45,-0.81,15.12,-92.4,156.89,-1.62,0.44,-0.85,-0.69,0.68,-0.23,0.04,1.0,27.11,32.41,0.0746184,0.0,19.263396549295773,nan,-99.61437824159025,nan,0.0,0.0,9936.8633,0.0,0.0,2622.0,0.0
3024.0,27.0,27.0,52.0,136.0,104.0,nan,-1.67,-7.62,-0.51,15.07,-92.37,156.89,2.02,-0.4,-0.78,-0.69,0.68,-0.23,0.04,1.0,27.11,32.41,0.0746184,0.0,19.26339657276995,nan,-99.61437808868502,nan,0.0,0.0,9936.8633,0.0,0.0,2622.0,0.0
3044.0,17.0,31.0,108.0,138.0,74.0,nan,-2.08,-7.55,-0.35,15.08,-92.38,156.88,-0.22,0.23,-0.01,-0.69,0.68,-0.23,0.04,1.0,27.11,32.41,0.0746184,0.0,19.26339659624413,nan,-99.61437793577983,nan,0.0,0.0,9936.8633,0.0,0.0,2622.0,0.0
3066.0,20.0,31.0,68.0,138.0,80.0,nan,-2.02,-7.56,-0.24,15.08,-92.34,156.9,1.53,-0.54,0.06,-0.69,0.68,-0.23,0.04,1.0,27.11,32.41,0.0746184,0.0,19.26339659624413,nan,-99.61437793577983,nan,0.0,0.0,9936.8633,0.0,0.0,0.0,0.0
3086.0,16.0,29.0,78.0,153.0,101.0,nan,-1.99,-7.66,-0.39,15.06,-92.36,156.89,-0.71,0.37,-0.43,-0.69,0.68,-0.23,0.04,1.0,27.11,32.41,0.0746184,0.0,19.26339661971831,nan,-99.61437778287466,nan,0.0,0.0,9936.8633,0.0,0.0,2622.0,0.0
3109.0,38.0,26.0,52.0,153.0,111.0,nan,-2.18,-7.74,0.06,15.1,-92.29,156.9,1.11,-0.19,-0.08,-0.69,0.68,-0.23,0.04,1.0,27.11,32.41,0.0746184,0.0,19.26339666666667,nan,-99.61437762996945,nan,0.0,0.0,9936.8633,0.0,0.0,2622.0,0.0
3135.0,30.0,30.0,119.0,148.0,104.0,nan,-2.3,-7.62,0.09,15.13,-92.24,156.91,1.18,-0.12,0.62,-0.69,0.68,-0.23,0.04,1.0,27.11,32.41,0.0746184,0.0,19.26339666666667,nan,-99.61437747706424,nan,0.0,0.0,9936.8633,1.0,0.0,2622.0,0.0
3158.0,28.0,30.0,64.0,138.0,110.0,nan,-2.34,-7.77,-0.25,15.13,-92.26,156.91,-1.34,0.23,-0.5,-0.69,0.68,-0.23,0.04,1.0,27.11,32.41,0.0746184,0.0,19.263396703296703,nan,-99.61437732415904,nan,0.0,0.0,9936.8633,0.0,0.0,2622.0,0.0
3178.0,31.0,19.0,66.0,147.0,110.0,nan,-2.21,-7.66,-0.15,15.15,-92.23,156.91,0.97,-0.19,0.34,-0.69,0.68,-0.23,0.04,1.0,27.11,32.41,0.0746184,0.0,19.26339672161172,nan,-99.61437717125386,nan,0.0,0.0,9936.8633,0.0,0.0,2622.0,0.0
3200.0,30.0,17.0,66.0,137.0,111.0,nan,-2.57,-7.74,-0.22,15.19,-92.23,156.91,-0.08,0.09,0.41,-0.69,0.68,-0.23,0.04,1.0,27.13,32.42,0.0746142,0.0,19.26339673992674,nan,-99.61437701834865,nan,0.0,0.0,9936.8633,0.0,0.0,2622.0,0.0
3222.0,25.0,31.0,77.0,159.0,110.0,nan,-2.1,-7.65,-0.22,15.17,-92.22,156.92,-0.22,-0.05,-1.27,-0.69,0.68,-0.23,0.04,1.0,27.13,32.42,0.0746142,0.0,19.26339673992674,nan,-99.61437701834865,nan,0.0,0.0,9936.8633,0.0,0.0,0.0,0.0
3245.0,26.0,17.0,52.0,135.0,111.0,nan,-2.28,-7.66,-0.42,15.18,-92.25,156.91,-0.64,0.23,-0.01,-0.69,0.68,-0.23,0.04,1.0,27.13,32.42,0.0746142,0.0,19.26339675824176,nan,-99.61437686544345,nan,0.0,0.0,9936.8633,0.0,0.0,2622.0,0.0
3265.0,28.0,26.0,77.0,140.0,110.0,nan,-1.92,-7.66,-0.92,15.14,-92.35,156.89,-2.74,0.44,-1.41,-0.69,0.68,-0.23,0.04,1.0,27.13,32.42,0.0746142,0.0,19.263396776556775,nan,-99.61437671253825,nan,0.0,0.0,9936.8633,0.0,0.0,2621.5,0.0
3288.0,26.0,18.0,66.0,154.0,111.0,nan,-1.7,-7.56,-0.51,15.1,-92.34,156.89,-0.64,0.51,-0.92,-0.69,0.68,-0.23,0.04,1.0,27.13,32.42,0.0746142,0.0,19.263396794871795,nan,-99.61437655963303,nan,0.0,0.0,9936.8633,0.0,0.0,2621.5,0.0
3314.0,26.0,30.0,77.0,154.0,111.0,nan,-1.93,-7.76,-0.27,15.07,-92.34,156.89,-0.15,-0.12,-0.92,-0.69,0.68,-0.23,0.04,1.0,27.13,32.42,0.0746142,0.0,19.26339681318681,nan,-99.61437640672786,nan,0.0,0.0,9936.8633,0.0,0.0,2621.5,0.0
3337.0,27.0,18.0,136.0,134.0,111.0,nan,-2.18,-7.34,-0.62,15.09,-92.37,156.89,-0.29,0.02,0.41,-0.69,0.68,-0.23,0.04,1.0,27.13,32.42,0.0746142,0.0,19.26339683150183,nan,-99.61437625382266,nan,0.0,0.0,9936.8633,0.0,0.0,2621.5,0.0
3356.0,26.0,17.0,87.0,137.0,111.0,nan,-1.65,-7.88,-0.38,15.04,-92.34,156.89,1.53,-0.33,-0.92,-0.69,0.68,-0.23,0.05,1.0,27.13,32.42,0.0746142,0.0,19.263396849816846,nan,-99.61437610091744,nan,0.0,0.0,9936.8633,0.0,0.0,2621.5,0.0
3382.0,26.0,30.0,78.0,133.0,111.0,nan,-2.49,-7.51,-0.06,15.08,-92.31,156.9,0.55,-0.05,0.34,-0.69,0.68,-0.23,0.04,1.0,27.13,32.42,0.0746142,0.0,19.263396849816846,nan,-99.61437610091744,nan,0.0,0.0,9936.8633,0.0,0.0,0.0,0.0
3398.0,27.0,30.0,48.0,139.0,126.0,nan,-1.77,-7.78,-0.29,15.06,-92.3,156.9,0.55,0.02,-0.01,-0.69,0.68,-0.23,0.04,1.0,27.13,32.42,0.0746142,0.0,19.26339686813187,nan,-99.61437594801224,nan,0.0,0.0,9936.8633,0.0,0.0,2621.5,0.0
3421.0,26.0,31.0,119.0,148.0,111.0,nan,-2.38,-7.7,-0.39,15.07,-92.33,156.89,-1.34,0.23,-0.15,-0.69,0.68,-0.23,0.04,1.0,27.13,32.42,0.0746142,0.0,19.263396886446888,nan,-99.61437579510707,nan,0.0,0.0,9936.8633,0.0,0.0,2621.5,0.0
3441.0,22.0,18.0,103.0,138.0,110.0,nan,-2.23,-7.58,-0.17,15.1,-92.27,156.91,2.3,-0.61,0.76,-0.69,0.68,-0.23,0.04,1.0,27.13,32.42,0.0746142,0.0,19.26339690476191,nan,-99.61437564220185,nan,0.0,0.0,9936.8633,0.0,0.0,2621.5,0.0
3465.0,26.0,26.0,52.0,138.0,125.0,nan,-2.09,-7.96,0.07,15.1,-92.24,156.91,-0.01,0.16,-0.01,-0.69,0.68,-0.23,0.04,1.0,27.13,32.42,0.0746142,0.0,19.26339692307692,nan,-99.61437548929665,nan,0.0,0.0,9936.8633,0.0,0.0,2621.5,0.0
3483.0,30.0,31.0,48.0,161.0,110.0,nan,-2.71,-7.52,0.15,15.15,-92.2,156.92,0.27,-0.05,0.27,-0.69,0.68,-0.23,0.04,1.0,27.13,32.42,0.0746142,0.0,19.26339692307692,nan,-99.61437548929665,nan,0.0,0.0,9936.8633,0.0,0.0,0.0,0.0
3506.0,26.0,29.0,88.0,140.0,111.0,nan,-2.26,-7.72,-0.38,15.16,-92.23,156.91,-0.78,0.23,-0.64,-0.69,0.68,-0.23,0.04,1.0,27.13,32.42,0.0746142,0.0,19.263396941391942,nan,-99.61437533639146,nan,0.0,0.0,9936.8633,0.0,0.0,2621.5,0.0
3533.0,26.0,30.0,79.0,138.0,124.0,nan,-2.33,-7.66,-0.23,15.17,-92.22,156.92,0.48,-0.12,-0.43,-0.69,0.68,-0.23,0.04,1.0,27.13,32.42,0.0746142,0.0,19.263396959706956,nan,-99.61437518348623,nan,0.0,0.0,9936.8633,0.0,0.0,2621.5,0.0
3556.0,27.0,31.0,88.0,138.0,110.0,nan,-1.81,-7.59,-0.78,15.13,-92.3,156.9,-2.18,0.58,-0.85,-0.69,0.68,-0.23,0.04,1.0,27.13,32.42,0.0746142,0.0,19.263396978021976,nan,-99.61437503058106,nan,0.0,0.0,9936.8633,0.0,0.0,2621.5,0.0
3575.0,19.0,25.0,78.0,152.0,110.0,nan,-2.17,-7.78,-0.53,15.12,-92.32,156.9,-0.36,-0.19,-0.92,-0.69,0.68,-0.23,0.04,1.0,27.13,32.42,0.0746142,0.0,19.263396996336997,nan,-99.61437487767587,nan,0.0,0.0,9936.8633,0.0,0.0,2621.5,0.0
3598.0,30.0,21.0,79.0,155.0,112.0,nan,-2.06,-7.44,-0.69,15.12,-92.36,156.89,-0.57,0.23,-0.08,-0.69,0.68,-0.23,0.04,1.0,27.13,32.42,0.0746142,0.0,19.263397014652014,nan,-99.61437472477064,nan,0.0,0.0,9936.8633,0.0,0.0,2621.5,0.0
3618.0,31.0,29.0,136.0,134.0,111.0,nan,-1.76,-7.82,-0.16,15.08,-92.33,156.89,1.11,-0.05,-0.99,-0.69,0.68,-0.23,0.04,1.0,27.13,32.42,0.0746142,0.0,19.263397032967035,nan,-99.61437457186545,nan,0.0,0.0,9936.8633,0.0,0.0,2621.5,0.0
3640.0,32.0,30.0,87.0,137.0,111.0,nan,-2.21,-7.46,-0.51,15.09,-92.37,156.88,-1.2,0.23,-0.08,-0.69,0.68,-0.23,0.04,1.0,27.13,32.42,0.0746142,0.0,19.263397032967035,nan,-99.61437457186545,nan,0.0,0.0,9936.8633,0.0,0.0,0.0,0.0
3660.0,28.0,37.0,77.0,159.0,123.0,nan,-1.67,-7.67,-0.49,15.05,-92.34,156.89,1.95,-0.47,-0.57,-0.69,0.68,-0.23,0.04,1.0,27.13,32.38,0.0746176,0.0,19.26339705128205,nan,-99.61437441896028,nan,0.0,0.0,9936.8633,0.0,0.0,2621.5,0.0
3685.0,25.0,30.0,77.0,149.0,75.0,nan,-2.17,-7.51,-0.4,15.06,-92.36,156.88,0.83,-0.19,0.2,-0.69,0.68,-0.23,0.04,1.0,27.13,32.38,0.0746176,0.0,19.26339706959707,nan,-99.61437426605505,nan,0.0,0.0,9936.8633,0.0,0.0,2621.5,0.0
3711.0,16.0,26.0,124.0,138.0,101.0,nan,-1.86,-7.85,-0.19,15.04,-92.35,156.88,-0.08,0.02,-0.43,-0.69,0.68,-0.23,0.05,1.0,27.13,32.38,0.0746176,0.0,19.263397087912082,nan,-99.61437411314986,nan,0.0,0.0,9936.8633,0.0,0.0,2621.5,0.0
3734.0,27.0,29.0,157.0,146.0,111.0,nan,-2.49,-7.5,-0.24,15.09,-92.31,156.88,1.46,-0.19,0.9,-0.69,0.68,-0.23,0.04,1.0,27.13,32.38,0.0746176,0.0,19.26339710622711,nan,-99.61437396024466,nan,0.0,0.0,9936.8633,0.0,0.0,2621.5,0.0
3754.0,32.0,29.0,216.0,134.0,111.0,nan,-2.28,-7.83,0.03,15.1,-92.28,156.89,0.2,0.02,-0.01,-0.69,0.68,-0.23,0.04,1.0,27.13,32.38,0.0746176,0.0,19.263397124542124,nan,-99.61437380733945,nan,0.0,0.0,9936.8633,0.0,0.0,2621.5,0.0
3776.0,27.0,30.0,88.0,124.0,111.0,nan,-2.38,-7.61,0.05,15.14,-92.25,156.9,0.34,-0.05,0.83,-0.69,0.68,-0.23,0.04,1.0,27.13,32.38,0.0746176,0.0,19.263397142857144,nan,-99.61437365443427,nan,0.0,0.0,9936.8633,0.0,0.0,2621.5,0.0
3796.0,26.0,31.0,108.0,137.0,111.0,nan,-2.39,-7.84,-0.31,15.15,-92.26,156.9,-0.36,-0.05,-0.29,-0.69,0.68,-0.23,0.04,1.0,27.13,32.38,0.0746176,0.0,19.263397142857144,nan,-99.61437365443427,nan,0.0,0.0,9936.8633,0.0,0.0,0.0,0.0
3819.0,17.0,31.0,52.0,160.0,103.0,nan,-2.17,-7.67,-0.23,15.15,-92.24,156.9,0.83,-0.05,-0.15,-0.69,0.68,-0.23,0.04,1.0,27.13,32.38,0.0746176,0.0,19.26339716117216,nan,-99.61437350152907,nan,0.0,0.0,9936.8633,0.0,0.0,2621.5,0.0
3839.0,17.0,17.0,78.0,144.0,111.0,nan,-2.49,-7.76,-0.2,15.18,-92.24,156.9,-0.71,0.37,0.13,-0.69,0.68,-0.23,0.04,1.0,27.13,32.38,0.0746176,0.0,19.263397179487182,nan,-99.61437334862387,nan,0.0,0.0,9936.8633,0.0,0.0,2621.5,0.0
3861.0,19.0,30.0,108.0,155.0,112.0,nan,-1.96,-7.68,-0.45,15.14,-92.3,156.89,-2.11,0.3,-1.55,-0.69,0.68,-0.23,0.04,1.0,27.13,32.38,0.0746176,0.0,19.263397197802195,nan,-99.61437319571866,nan,0.0,0.0,9936.8633,0.0,0.0,2621.5,0.0
3881.0,27.0,30.0,88.0,138.0,75.0,nan,-2.3,-7.68,-0.5,15.16,-92.3,156.89,0.55,-0.12,0.2,-0.69,0.68,-0.23,0.04,1.0,27.13,32.38,0.0746176,0.0,19.263397216117216,nan,-99.61437304281348,nan,0.0,0.0,9936.8633,0.0,0.0,2621.5,0.0
3904.0,15.0,26.0,78.0,152.0,103.0,nan,-2.1,-7.64,-0.23,15.11,-92.35,156.88,0.69,-0.33,-0.57,-0.69,0.68,-0.23,0.04,1.0,27.13,32.38,0.0746176,0.0,19.263397234432237,nan,-99.61437288990828,nan,0.0,0.0,9936.8633,0.0,0.0,2621.5,0.0
3930.0,28.0,27.0,88.0,154.0,111.0,nan,-1.94,-7.43,-0.67,15.1,-92.41,156.86,-1.62,0.51,-0.43,-0.69,0.68,-0.23,0.04,1.0,27.13,32.38,0.0746176,0.0,19.26339725274725,nan,-99.61437273700307,nan,0.0,0.0,9936.8633,0.0,0.0,2621.5,0.0
3953.0,21.0,29.0,59.0,138.0,109.0,nan,-1.67,-7.86,-0.44,15.04,-92.4,156.87,0.76,-0.26,-1.27,-0.69,0.68,-0.23,0.05,1.0,27.13,32.38,0.0746176,0.0,19.26339725274725,nan,-99.61437273700307,nan,0.0,0.0,9936.8633,0.0,0.0,0.0,0.0
3973.0,18.0,30.0,135.0,160.0,124.0,nan,-2.28,-7.37,-0.44,15.08,-92.39,156.86,1.04,0.02,0.55,-0.69,0.68,-0.23,0.04,1.0,27.13,32.38,0.0746176,0.0,19.26339727106227,nan,-99.61437258409786,nan,0.0,0.0,9936.8633,0.0,0.0,2621.5,0.0
3995.0,26.0,29.0,147.0,148.0,111.0,nan,-1.67,-7.81,-0.25,15.03,-92.36,156.87,0.97,-0.26,-0.71,-0.69,0.68,-0.23,0.05,1.0,27.13,32.38,0.0746176,0.0,19.263397289377288,nan,-99.61437243119269,nan,0.0,0.0,9936.8633,0.0,0.0,2621.5,0.0
4015.0,32.0,29.0,40.0,156.0,126.0,nan,-2.47,-7.52,-0.13,15.07,-92.38,156.87,-1.34,0.3,0.13,-0.69,0.68,-0.23,0.04,1.0,27.13,32.38,0.0746176,0.0,19.26339730769231,nan,-99.61437227828748,nan,0.0,0.0,9936.8633,0.0,0.0,2621.5,0.0
4038.0,26.0,18.0,146.0,131.0,110.0,nan,-1.91,-7.69,-0.32,15.06,-92.34,156.87,1.95,-0.26,0.34,-0.69,0.68,-0.23,0.05,1.0,27.13,32.38,0.0746176,0.0,19.263397326007322,nan,-99.61437212538227,nan,0.0,0.0,9936.8633,0.0,0.0,2621.5,0.0
4057.0,28.0,30.0,158.0,134.0,124.0,nan,-2.36,-7.7,-0.19,15.08,-92.33,156.87,-0.01,0.16,-0.08,-0.69,0.68,-0.23,0.04,1.0,27.13,32.38,0.0746176,0.0,19.263397344322343,nan,-99.61437197247709,nan,0.0,0.0,9936.8633,0.0,0.0,2621.5,0.0
4081.0,31.0,30.0,161.0,148.0,125.0,nan,-2.41,-7.43,0.15,15.12,-92.26,156.89,1.88,-0.33,0.48,-0.69,0.68,-0.23,0.04,1.0,27.13,32.38,0.0746176,0.0,19.263397344322343,nan,-99.61437197247709,nan,0.0,0.0,9936.8633,0.0,0.0,0.0,0.0
4100.0,29.0,21.0,99.0,162.0,109.0,nan,-1.98,-7.97,-0.11,15.1,-92.25,156.89,-0.5,0.23,-0.08,-0.69,0.68,-0.23,0.04,1.0,27.13,32.38,0.0746176,0.0,19.263397362637363,nan,-99.61437181957186,nan,0.0,0.0,9936.8633,0.0,0.0,2621.5,0.0
4123.0,38.0,26.0,87.0,139.0,113.0,nan,-2.29,-7.8,-0.33,15.16,-92.23,156.89,0.97,-0.26,0.13,-0.69,0.68,-0.23,0.04,1.0,27.15,32.38,0.0746184,0.0,19.263397380952384,nan,-99.61437166666668,nan,0.0,0.0,9936.8623,0.0,1.0,2621.5,0.0
4154.0,17.0,21.0,52.0,138.0,102.0,nan,-2.13,-7.73,-0.38,15.15,-92.27,156.88,-1.55,0.51,-0.64,-0.69,0.68,-0.23,0.04,1.0,27.15,32.38,0.0746184,0.0,19.263397380952384,nan,-99.61437166666668,nan,0.0,0.0,9936.8623,0.0,0.0,0.0,0.0
4174.0,17.0,30.0,107.0,138.0,110.0,nan,-2.54,-7.79,-0.17,15.17,-92.27,156.88,-0.64,-0.05,-0.22,-0.69,0.68,-0.23,0.04,1.0,27.15,32.38,0.0746184,0.0,19.263397399267397,nan,-99.61437169012433,nan,0.0,0.0,9936.8623,0.0,0.0,2621.5,0.0
4197.0,26.0,29.0,83.0,156.0,110.0,nan,-1.92,-7.57,-0.75,15.15,-92.33,156.87,-0.92,0.23,-0.71,-0.69,0.68,-0.23,0.04,1.0,27.15,32.38,0.0746184,0.0,19.263397399267397,nan,-99.61437169012433,nan,0.0,0.0,9936.8623,0.0,0.0,0.0,0.0
4217.0,27.0,19.0,60.0,155.0,111.0,nan,-2.03,-7.72,-0.4,15.12,-92.32,156.87,0.48,-0.05,-1.13,-0.69,0.68,-0.23,0.04,1.0,27.15,32.38,0.0746184,0.0,19.263397399267397,nan,-99.61437169012433,nan,0.0,0.0,9936.8623,0.0,0.0,0.0,0.0
4239.0,38.0,31.0,136.0,159.0,110.0,nan,-2.03,-7.36,-0.73,15.12,-92.37,156.86,-0.64,0.16,-0.22,-0.69,0.68,-0.23,0.04,1.0,27.15,32.38,0.0746184,0.0,19.263397399267397,nan,-99.61437169012433,nan,0.0,0.0,9936.8623,0.0,0.0,0.0,0.0
4259.0,31.0,21.0,98.0,148.0,111.0,nan,-1.63,-7.82,-0.37,15.06,-92.36,156.86,0.62,-0.19,-1.27,-0.69,0.68,-0.23,0.05,1.0,27.15,32.38,0.0746184,0.0,19.263397399267397,nan,-99.61437169012433,nan,0.0,0.0,9936.8623,0.0,0.0,0.0,0.0
4282.0,25.0,30.0,67.0,139.0,109.0,nan,-1.7,-7.67,-0.45,15.04,-92.37,156.86,2.37,-0.47,-0.57,-0.69,0.68,-0.23,0.05,1.0,27.15,32.38,0.0746184,0.0,19.263397399267397,nan,-99.61437169012433,nan,0.0,0.0,9936.8623,0.0,0.0,0.0,0.0
4308.0,27.0,30.0,77.0,154.0,116.0,nan,-2.18,-7.63,-0.18,15.05,-92.37,156.85,-0.22,0.23,0.13,-0.69,0.68,-0.23,0.05,1.0,27.15,32.38,0.0746184,0.0,19.263397399267397,nan,-99.61437169012433,nan,0.0,0.0,9936.8623,0.0,0.0,0.0,0.0
4331.0,37.0,26.0,67.0,138.0,111.0,nan,-2.29,-7.55,-0.29,15.07,-92.34,156.86,1.11,-0.33,0.34,-0.69,0.68,-0.23,0.04,1.0,27.15,32.38,0.0746184,0.0,19.263397399267397,nan,-99.61437169012433,nan,0.0,0.0,9936.8623,0.0,0.0,0.0,0.0
4350.0,21.0,30.0,108.0,156.0,111.0,nan,-1.9,-7.84,-0.25,15.05,-92.35,156.86,-0.43,0.23,-0.36,-0.69,0.68,-0.23,0.05,1.0,27.15,32.38,0.0746184,0.0,19.263397399267397,nan,-99.61437169012433,nan,0.0,0.0,9936.8623,0.0,0.0,0.0,0.0
4373.0,26.0,30.0,78.0,134.0,110.0,nan,-2.5,-7.51,-0.28,15.1,-92.33,156.86,0.97,-0.12,0.9,-0.69,0.68,-0.23,0.04,1.0,27.15,32.38,0.0746184,0.0,19.263397399267397,nan,-99.61437169012433,nan,0.0,0.0,9936.8623,0.0,0.0,0.0,0.0
4393.0,27.0,30.0,87.0,117.0,110.0,nan,-2.26,-7.76,-0.07,15.11,-92.29,156.87,0.76,-0.26,-0.22,-0.69,0.68,-0.23,0.04,1.0,27.15,32.38,0.0746184,0.0,19.263397417582418,nan,-99.61437170185319,nan,0.0,0.0,9936.8623,0.0,0.0,2621.5,0.0
4416.0,19.0,31.0,68.0,124.0,124.0,nan,-2.32,-7.63,0.06,15.14,-92.25,156.87,0.69,0.16,0.76,-0.69,0.68,-0.23,0.04,1.0,27.15,32.38,0.0746184,0.0,19.263397417582418,nan,-99.61437170185319,nan,0.0,0.0,9936.8623,0.0,0.0,0.0,0.0
4435.0,26.0,26.0,77.0,137.0,111.0,nan,-2.44,-7.83,-0.33,15.16,-92.28,156.87,-1.41,0.23,-0.29,-0.69,0.68,-0.23,0.04,1.0,27.15,32.38,0.0746184,0.0,19.263397417582418,nan,-99.61437170185319,nan,0.0,0.0,9936.8623,0.0,0.0,0.0,0.0
4458.0,28.0,30.0,55.0,154.0,112.0,nan,-2.11,-7.65,-0.25,15.15,-92.27,156.87,0.27,-0.12,-0.5,-0.69,0.68,-0.23,0.04,1.0,27.15,32.38,0.0746184,0.0,19.263397417582418,nan,-99.61437170185319,nan,0.0,0.0,9936.8623,0.0,0.0,0.0,0.0
4478.0,17.0,29.0,108.0,154.0,125.0,nan,-2.46,-7.7,-0.3,15.19,-92.27,156.87,-0.01,0.09,0.48,-0.69,0.68,-0.23,0.04,1.0,27.15,32.38,0.0746184,0.0,19.263397435897435,nan,-99.614371713582,nan,0.0,0.0,9936.8623,0.0,0.0,2621.5,0.0
4500.0,27.0,26.0,125.0,134.0,125.0,nan,-2.23,-7.67,-0.39,15.16,-92.3,156.87,0.13,-0.05,-0.22,-0.69,0.68,-0.23,0.04,1.0,27.15,32.38,0.0746184,0.0,19.263397454212456,nan,-99.61437172531083,nan,0.0,0.0,9936.8623,0.0,0.0,2621.5,0.0
4527.0,31.0,29.0,39.0,138.0,110.0,nan,-1.76,-7.62,-0.95,15.11,-92.39,156.84,-2.04,0.51,-1.27,-0.69,0.68,-0.23,0.04,1.0,27.15,32.38,0.0746184,0.0,19.263397472527476,nan,-99.61437173703965,nan,0.0,0.0,9936.8623,0.0,0.0,2621.5,0.0
4550.0,28.0,30.0,136.0,133.0,112.0,nan,-2.04,-7.62,-0.44,15.1,-92.38,156.85,1.18,-0.47,-0.78,-0.69,0.68,-0.23,0.04,1.0,27.15,32.38,0.0746184,0.0,19.263397472527476,nan,-99.61437173703965,nan,0.0,0.0,9936.8623,0.0,0.0,0.0,0.0
4569.0,17.0,30.0,40.0,155.0,111.0,nan,-2.04,-7.44,-0.54,15.1,-92.41,156.84,-0.64,0.37,-0.01,-0.69,0.68,-0.23,0.04,1.0,27.15,32.38,0.0746184,0.0,19.26339749084249,nan,-99.6143717487685,nan,0.0,0.0,9936.8623,0.0,0.0,2621.5,0.0
4592.0,29.0,26.0,157.0,147.0,119.0,nan,-1.68,-7.89,-0.34,15.04,-92.4,156.84,0.41,-0.19,-1.48,-0.69,0.68,-0.23,0.05,1.0,27.13,32.41,0.0746158,0.0,19.26339750915751,nan,-99.61437176049732,nan,0.0,0.0,9936.8623,0.0,0.0,2621.5,0.0
4614.0,18.0,29.0,216.0,149.0,110.0,nan,-2.23,-7.32,-0.49,15.06,-92.43,156.84,-0.5,0.23,0.34,-0.69,0.68,-0.23,0.05,1.0,27.13,32.41,0.0746158,0.0,19.263397527472524,nan,-99.61437177222615,nan,0.0,0.0,9936.8623,0.0,0.0,2620.7,0.0
4637.0,22.0,30.0,89.0,160.0,123.0,nan,-1.65,-7.69,-0.41,15.03,-92.39,156.84,2.16,-0.4,-0.43,-0.69,0.68,-0.23,0.05,1.0,27.13,32.41,0.0746158,0.0,19.263397545787544,nan,-99.61437178395497,nan,0.0,0.0,9936.8623,0.0,0.0,2620.7,0.0
4657.0,26.0,26.0,88.0,155.0,125.0,nan,-2.38,-7.53,-0.08,15.05,-92.38,156.84,-0.43,0.23,0.13,-0.69,0.68,-0.23,0.05,1.0,27.13,32.41,0.0746158,0.0,19.26339756410256,nan,-99.61437179568382,nan,0.0,0.0,9936.8623,0.0,0.0,2620.7,0.0
4679.0,27.0,31.0,67.0,138.0,111.0,nan,-2.14,-7.89,-0.24,15.06,-92.33,156.85,-0.36,0.23,-0.08,-0.69,0.68,-0.23,0.05,1.0,27.13,32.41,0.0746158,0.0,19.26339756410256,nan,-99.61437179568382,nan,0.0,0.0,9936.8623,0.0,0.0,0.0,0.0
4706.0,22.0,29.0,67.0,160.0,109.0,nan,-2.69,-7.33,-0.13,15.13,-92.29,156.86,1.6,-0.33,0.9,-0.69,0.68,-0.23,0.04,1.0,27.13,32.41,0.0746158,0.0,19.263397582417582,nan,-99.61437180741262,nan,0.0,0.0,9936.8623,0.0,0.0,2620.7,0.0
4728.0,17.0,29.0,68.0,139.0,111.0,nan,-1.91,-7.95,-0.02,15.1,-92.27,156.86,-0.08,0.23,-0.64,-0.69,0.68,-0.23,0.04,1.0,27.13,32.41,0.0746158,0.0,19.263397600732603,nan,-99.61437181914147,nan,0.0,0.0,9936.8623,0.0,0.0,2620.7,0.0
4748.0,25.0,30.0,107.0,125.0,123.0,nan,-2.45,-7.53,-0.08,15.13,-92.26,156.86,-0.5,0.16,-0.15,-0.69,0.68,-0.23,0.04,1.0,27.13,32.41,0.0746158,0.0,19.263397619047623,nan,-99.61437183087027,nan,0.0,0.0,9936.8623,0.0,0.0,2620.7,0.0
4771.0,19.0,30.0,67.0,161.0,110.0,nan,-2.26,-7.75,-0.29,15.14,-92.25,156.87,0.48,-0.33,-0.08,-0.69,0.68,-0.23,0.04,1.0,27.13,32.41,0.0746158,0.0,19.263397637362637,nan,-99.61437184259913,nan,0.0,0.0,9936.8623,0.0,0.0,2620.7,0.0
4791.0,25.0,30.0,146.0,132.0,76.0,nan,-2.16,-7.68,-0.39,15.14,-92.25,156.86,0.27,0.16,-0.01,-0.69,0.68,-0.23,0.04,1.0,27.13,32.41,0.0746158,0.0,19.263397655677657,nan,-99.61437185432797,nan,0.0,0.0,9936.8623,0.0,0.0,2620.7,0.0
4813.0,26.0,17.0,111.0,154.0,101.0,nan,-2.41,-7.75,-0.21,15.16,-92.26,156.86,-0.71,0.16,-0.43,-0.69,0.68,-0.23,0.04,1.0,27.13,32.41,0.0746158,0.0,19.26339767399267,nan,-99.61437186605677,nan,0.0,0.0,9936.8623,0.0,0.0,2620.7,0.0
4833.0,29.0,31.0,52.0,137.0,110.0,nan,-2.0,-7.62,-0.7,15.14,-92.32,156.85,-1.34,0.23,-0.36,-0.69,0.68,-0.23,0.04,1.0,27.13,32.41,0.0746158,0.0,19.26339767399267,nan,-99.61437186605677,nan,0.0,0.0,9936.8623,0.0,0.0,0.0,0.0
4856.0,31.0,28.0,83.0,156.0,111.0,nan,-2.0,-7.46,-0.64,15.12,-92.38,156.84,-0.78,0.23,-0.78,-0.69,0.68,-0.23,0.04,1.0,27.13,32.41,0.0746158,0.0,19.26339769230769,nan,-99.61437187778563,nan,0.0,0.0,9936.8623,0.0,0.0,2620.7,0.0
4883.0,36.0,26.0,109.0,138.0,110.0,nan,-1.82,-7.71,-0.2,15.08,-92.34,156.84,1.25,-0.12,-1.06,-0.69,0.68,-0.23,0.05,1.0,27.13,32.41,0.0746158,0.0,19.26339771062271,nan,-99.61437188951444,nan,0.0,0.0,9936.8623,0.0,0.0,2620.7,0.0
4905.0,37.0,30.0,78.0,154.0,109.0,nan,-2.03,-7.45,-0.74,15.07,-92.43,156.82,-2.53,0.58,-0.57,-0.69,0.68,-0.23,0.05,1.0,27.13,32.41,0.0746158,0.0,19.26339772893773,nan,-99.61437190124327,nan,0.0,0.0,9936.8623,0.0,0.0,2620.7,0.0
4925.0,38.0,29.0,60.0,138.0,110.0,nan,-1.82,-7.64,-0.46,15.04,-92.39,156.84,2.16,-0.68,-0.78,-0.69,0.68,-0.23,0.05,1.0,27.13,32.41,0.0746158,0.0,19.26339774725275,nan,-99.61437191297209,nan,0.0,0.0,9936.8623,0.0,0.0,2620.7,0.0
4950.0,26.0,30.0,136.0,148.0,111.0,nan,-1.9,-7.5,-0.45,15.03,-92.41,156.82,-0.08,0.44,-0.15,-0.69,0.68,-0.23,0.05,1.0,27.13,32.41,0.0746158,0.0,19.263397765567763,nan,-99.61437192470095,nan,0.0,0.0,9936.8623,0.0,0.0,2620.7,0.0
4967.0,37.0,29.0,98.0,137.0,111.0,nan,-2.06,-7.65,-0.35,15.02,-92.4,156.82,0.27,0.02,-0.15,-0.69,0.68,-0.23,0.05,1.0,27.13,32.41,0.0746158,0.0,19.263397765567763,nan,-99.61437192470095,nan,0.0,0.0,9936.8623,0.0,0.0,0.0,0.0
4990.0,26.0,31.0,68.0,160.0,112.0,nan,-2.08,-7.64,-0.16,15.03,-92.39,156.83,0.34,-0.12,0.2,-0.69,0.68,-0.23,0.05,1.0,27.13,32.41,0.0746158,0.0,19.263397783882784,nan,-99.61437193642976,nan,0.0,0.0,9936.8623,0.0,0.0,2620.7,0.0
5010.0,25.0,26.0,66.0,153.0,111.0,nan,-2.21,-7.56,-0.23,15.06,-92.35,156.83,1.46,-0.12,0.69,-0.69,0.68,-0.23,0.05,1.0,27.13,32.41,0.0746158,0.0,19.263397802197805,nan,-99.61437194815859,nan,0.0,0.0,9936.8623,0.0,0.0,2620.7,0.0
5034.0,26.0,30.0,67.0,154.0,112.0,nan,-2.39,-7.77,0.07,15.07,-92.31,156.84,0.34,0.02,-0.22,-0.69,0.68,-0.23,0.05,1.0,27.13,32.41,0.0746158,0.0,19.263397820512818,nan,-99.61437195988741,nan,0.0,0.0,9936.8623,0.0,0.0,2620.7,0.0
5052.0,18.0,26.0,67.0,153.0,111.0,nan,-2.19,-7.58,0.1,15.1,-92.26,156.85,1.18,-0.12,0.69,-0.69,0.68,-0.23,0.05,1.0,27.15,32.43,0.0746117,0.0,19.26339783882784,nan,-99.61437197161627,nan,0.0,0.0,9936.8623,0.0,0.0,2620.7,0.0
5077.0,30.0,29.0,82.0,160.0,110.0,nan,-2.37,-7.63,-0.08,15.13,-92.23,156.86,1.53,-0.4,0.13,-0.69,0.68,-0.23,0.04,1.0,27.15,32.43,0.0746117,0.0,19.26339785714286,nan,-99.61437198334507,nan,0.0,0.0,9936.8623,0.0,0.0,2620.7,0.0
5103.0,31.0,29.0,40.0,144.0,75.0,nan,-2.17,-7.85,-0.13,15.13,-92.23,156.85,-0.36,0.3,0.2,-0.69,0.68,-0.23,0.04,1.0,27.15,32.43,0.0746117,0.0,19.263397875457876,nan,-99.61437199507391,nan,0.0,0.0,9936.8623,0.0,0.0,2620.7,0.0
5127.0,17.0,18.0,157.0,134.0,110.0,nan,-2.34,-7.7,-0.2,15.14,-92.24,156.85,-1.13,0.09,-0.71,-0.69,0.68,-0.23,0.04,1.0,27.15,32.43,0.0746117,0.0,19.263397893772897,nan,-99.61437200680271,nan,0.0,0.0,9936.8623,0.0,0.0,2620.7,0.0
5146.0,18.0,31.0,138.0,155.0,117.0,nan,-2.33,-7.77,-0.33,15.16,-92.23,156.86,0.69,-0.26,0.34,-0.69,0.68,-0.23,0.04,1.0,27.15,32.43,0.0746117,0.0,19.263397893772897,nan,-99.61437200680271,nan,0.0,0.0,9936.8623,0.0,0.0,0.0,0.0
5169.0,25.0,30.0,157.0,146.0,111.0,nan,-2.0,-7.7,-0.64,15.14,-92.28,156.84,-0.92,0.37,-0.78,-0.69,0.68,-0.23,0.04,1.0,27.15,32.43,0.0746117,0.0,19.26339791208791,nan,-99.61437201853157,nan,0.0,0.0,9936.8623,0.0,0.0,2620.7,0.0
5189.0,17.0,25.0,161.0,134.0,111.0,nan,-2.35,-7.75,-0.18,15.14,-92.27,156.85,-0.22,0.02,-0.57,-0.69,0.68,-0.23,0.04,1.0,27.15,32.43,0.0746117,0.0,19.26339793040293,nan,-99.61437203026038,nan,0.0,0.0,9936.8623,0.0,0.0,2620.7,0.0
5211.0,25.0,26.0,99.0,141.0,75.0,nan,-1.9,-7.52,-0.81,15.12,-92.36,156.83,-2.25,0.51,-0.43,-0.69,0.68,-0.23,0.04,1.0,27.15,32.43,0.0746117,0.0,19.263397948717945,nan,-99.61437204198921,nan,0.0,0.0,9936.8623,0.0,0.0,2620.7,0.0
5231.0,17.0,25.0,88.0,138.0,102.0,nan,-2.1,-7.77,-0.5,15.1,-92.36,156.83,0.55,-0.19,-1.13,-0.69,0.68,-0.23,0.04,1.0,27.15,32.43,0.0746117,0.0,19.263397967032965,nan,-99.61437205371807,nan,0.0,0.0,9936.8623,0.0,0.0,2620.7,0.0
5254.0,21.0,30.0,77.0,157.0,110.0,nan,-1.7,-7.76,-0.18,15.05,-92.36,156.83,1.18,-0.33,-0.99,-0.69,0.68,-0.23,0.05,1.0,27.15,32.43,0.0746117,0.0,19.263397985347986,nan,-99.61437206544689,nan,0.0,0.0,9936.8623,0.0,0.0,2620.4,0.0
5280.0,26.0,30.0,77.0,154.0,110.0,nan,-2.2,-7.47,-0.56,15.06,-92.42,156.81,-2.04,0.51,-0.01,-0.69,0.68,-0.23,0.05,1.0,27.15,32.43,0.0746117,0.0,19.263398003663006,nan,-99.61437207717572,nan,0.0,0.0,9936.8623,0.0,0.0,2620.4,0.0
5303.0,17.0,30.0,78.0,155.0,123.0,nan,-1.81,-7.64,-0.57,15.04,-92.4,156.81,1.95,-0.4,-0.36,-0.69,0.68,-0.23,0.05,1.0,27.15,32.43,0.0746117,0.0,19.263398003663006,nan,-99.61437207717572,nan,0.0,0.0,9936.8623,0.0,0.0,0.0,0.0
5323.0,37.0,26.0,52.0,139.0,111.0,nan,-1.98,-7.64,-0.29,15.03,-92.39,156.81,0.55,0.16,-0.43,-0.69,0.68,-0.23,0.05,1.0,27.15,32.43,0.0746117,0.0,19.263398021978023,nan,-99.61437208890453,nan,0.0,0.0,9936.8623,0.0,0.0,2620.4,0.0
5345.0,21.0,30.0,108.0,156.0,111.0,nan,-2.15,-7.56,-0.03,15.04,-92.33,156.82,1.6,-0.33,0.34,-0.69,0.68,-0.23,0.05,1.0,27.15,32.43,0.0746117,0.0,19.263398040293044,nan,-99.61437210063339,nan,0.0,0.0,9936.8623,0.0,0.0,2620.4,0.0
5365.0,17.0,31.0,82.0,134.0,119.0,nan,-2.08,-7.63,-0.16,15.04,-92.34,156.82,-1.06,0.23,-0.29,-0.69,0.68,-0.23,0.05,1.0,27.15,32.43,0.0746117,0.0,19.263398058608058,nan,-99.6143721123622,nan,0.0,0.0,9936.8623,0.0,0.0,2620.4,0.0
5388.0,17.0,26.0,121.0,154.0,75.0,nan,-2.16,-7.69,-0.48,15.05,-92.33,156.82,1.11,-0.12,0.55,-0.69,0.68,-0.23,0.05,1.0,27.15,32.43,0.0746117,0.0,19.263398076923078,nan,-99.61437212409103,nan,0.0,0.0,9936.8623,0.0,0.0,2620.4,0.0
5407.0,28.0,30.0,82.0,138.0,95.0,nan,-2.34,-7.73,-0.07,15.07,-92.3,156.83,0.69,-0.26,-0.15,-0.69,0.68,-0.23,0.05,1.0,27.15,32.43,0.0746117,0.0,19.263398076923078,nan,-99.61437212409103,nan,0.0,0.0,9936.8623,0.0,0.0,0.0,0.0
5430.0,31.0,30.0,39.0,154.0,118.0,nan,-2.25,-7.59,0.15,15.1,-92.23,156.85,1.74,-0.4,0.83,-0.69,0.68,-0.23,0.05,1.0,27.15,32.43,0.0746117,0.0,19.2633980952381,nan,-99.61437213581985,nan,0.0,0.0,9936.8623,0.0,0.0,2620.4,0.0
5449.0,27.0,29.0,59.0,156.0,111.0,nan,-2.43,-7.8,-0.11,15.12,-92.25,156.84,-1.76,0.51,-0.01,-0.69,0.68,-0.23,0.04,1.0,27.15,32.43,0.0746117,0.0,19.263398113553112,nan,-99.6143721475487,nan,0.0,0.0,9936.8623,0.0,0.0,2620.4,0.0
5472.0,27.0,37.0,147.0,154.0,119.0,nan,-2.2,-7.85,-0.27,15.15,-92.2,156.85,0.9,-0.19,0.27,-0.69,0.68,-0.23,0.04,1.0,27.15,32.43,0.0746117,0.0,19.263398131868133,nan,-99.61437215927751,nan,0.0,0.0,9936.8623,0.0,0.0,2620.4,0.0
5499.0,18.0,28.0,120.0,139.0,96.0,nan,-2.32,-7.64,-0.11,15.15,-92.19,156.86,-0.22,0.09,-0.78,-0.69,0.68,-0.23,0.04,1.0,27.15,32.43,0.0746117,0.0,19.26339815018315,nan,-99.61437217100635,nan,0.0,0.0,9936.8623,0.0,0.0,2620.4,0.0
5522.0,26.0,31.0,77.0,149.0,109.0,nan,-2.3,-7.67,-0.24,15.16,-92.2,156.85,-0.5,0.09,-0.01,-0.69,0.68,-0.23,0.04,1.0,27.16,32.4,0.0746158,0.0,19.26339816849817,nan,-99.61437218273515,nan,0.0,0.0,9936.8623,0.0,0.0,2620.4,0.0
5543.0,30.0,29.0,52.0,139.0,125.0,nan,-2.01,-7.74,-0.81,15.14,-92.29,156.83,-2.32,0.58,-0.92,-0.69,0.68,-0.23,0.04,1.0,27.16,32.4,0.0746158,0.0,19.263398186813184,nan,-99.61437219446401,nan,0.0,0.0,9936.8623,0.0,0.0,2620.4,0.0
5567.0,27.0,26.0,67.0,137.0,111.0,nan,-2.32,-7.77,-0.37,15.14,-92.28,156.84,0.48,-0.4,-0.43,-0.69,0.68,-0.23,0.04,1.0,27.16,32.4,0.0746158,0.0,19.263398205128205,nan,-99.61437220619283,nan,0.0,0.0,9936.8623,0.0,0.0,2620.4,0.0
5587.0,20.0,30.0,108.0,153.0,124.0,nan,-2.03,-7.51,-0.59,15.14,-92.3,156.84,0.27,-0.05,-0.08,-0.69,0.68,-0.23,0.04,1.0,27.16,32.4,0.0746158,0.0,19.263398205128205,nan,-99.61437220619283,nan,0.0,0.0,9936.8623,0.0,0.0,0.0,0.0
5609.0,37.0,25.0,76.0,139.0,111.0,nan,-2.07,-7.81,-0.28,15.11,-92.31,156.83,-0.71,0.16,-1.2,-0.69,0.68,-0.23,0.04,1.0,27.16,32.4,0.0746158,0.0,19.263398223443225,nan,-99.61437221792166,nan,0.0,0.0,9936.8623,0.0,0.0,2620.4,0.0
5629.0,17.0,30.0,107.0,139.0,109.0,nan,-2.04,-7.4,-0.84,15.11,-92.4,156.82,-2.25,0.44,-0.43,-0.69,0.68,-0.23,0.04,1.0,27.16,32.4,0.0746158,0.0,19.263398241758246,nan,-99.61437222965051,nan,0.0,0.0,9936.8623,0.0,0.0,2620.4,0.0
5652.0,19.0,30.0,108.0,154.0,111.0,nan,-2.14,-7.48,-0.57,15.07,-92.4,156.81,-0.36,0.3,-0.22,-0.69,0.68,-0.23,0.05,1.0,27.16,32.4,0.0746158,0.0,19.26339826007326,nan,-99.61437224137933,nan,0.0,0.0,9936.8623,0.0,0.0,2620.4,0.0
5678.0,17.0,30.0,55.0,138.0,110.0,nan,-1.68,-7.64,-0.31,15.02,-92.36,156.82,1.53,-0.4,-0.85,-0.69,0.68,-0.23,0.05,1.0,27.16,32.4,0.0746158,0.0,19.26339827838828,nan,-99.61437225310816,nan,0.0,0.0,9936.8623,0.0,0.0,2620.4,0.0
5701.0,30.0,30.0,135.0,134.0,125.0,nan,-2.04,-7.55,-0.47,15.02,-92.41,156.8,-1.83,0.58,-0.15,-0.69,0.68,-0.23,0.05,1.0,27.16,32.4,0.0746158,0.0,19.263398296703297,nan,-99.61437226483697,nan,0.0,0.0,9936.8623,0.0,0.0,2620.4,0.0
5720.0,38.0,25.0,90.0,140.0,111.0,nan,-2.08,-7.57,-0.35,15.03,-92.39,156.81,1.32,-0.4,0.27,-0.69,0.68,-0.23,0.05,1.0,27.16,32.4,0.0746158,0.0,19.263398296703297,nan,-99.61437226483697,nan,0.0,0.0,9936.8623,0.0,0.0,0.0,0.0
5743.0,22.0,17.0,66.0,159.0,110.0,nan,-2.11,-7.56,-0.13,15.04,-92.35,156.82,1.39,-0.05,0.06,-0.69,0.68,-0.23,0.05,1.0,27.16,32.4,0.0746158,0.0,19.263398315018318,nan,-99.61437227656583,nan,0.0,0.0,9936.8623,0.0,0.0,2620.4,0.0
5762.0,28.0,25.0,78.0,140.0,126.0,nan,-2.12,-7.61,-0.25,15.05,-92.32,156.82,0.97,-0.12,0.34,-0.69,0.68,-0.23,0.05,1.0,27.16,32.4,0.0746158,0.0,19.26339833333333,nan,-99.61437228829465,nan,0.0,0.0,9936.8623,0.0,0.0,2620.4,0.0
5785.0,27.0,30.0,67.0,137.0,105.0,nan,-2.29,-7.71,-0.08,15.06,-92.32,156.82,-0.92,0.02,-0.29,-0.69,0.68,-0.23,0.05,1.0,27.16,32.4,0.0746158,0.0,19.263398351648352,nan,-99.61437230002348,nan,0.0,0.0,9936.8623,0.0,0.0,2620.4,0.0
5805.0,29.0,17.0,72.0,144.0,120.0,nan,-2.14,-7.59,-0.09,15.08,-92.28,156.83,1.32,-0.19,0.55,-0.69,0.68,-0.23,0.05,1.0,27.16,32.4,0.0746158,0.0,19.263398369963372,nan,-99.61437231175229,nan,0.0,0.0,9936.8623,0.0,0.0,2620.4,0.0
5828.0,37.0,25.0,77.0,138.0,111.0,nan,-2.33,-7.78,-0.15,15.09,-92.27,156.83,-0.22,0.16,-0.15,-0.69,0.68,-0.23,0.05,1.0,27.16,32.4,0.0746158,0.0,19.263398388278386,nan,-99.61437232348115,nan,0.0,0.0,9936.8623,0.0,0.0,2620.4,0.0
