time,p1,p2,p3,p4,p5,termite,ax,ay,az,rx,ry,rz,roll,pitch,yaw,q1,q2,q3,q4,calibration,temperature,humidity,pressure,flag_rm,lat,lacoord,lon,locoord,capacitive,o_lat,o_lon,used_lat,used_lon,altitude,flag_lm
0.0,38.0,30.0,147.0,138.0,67.0,nan,-0.49,-7.9,0.98,2.9,-82.85,271.68,0.41,-0.19,-0.22,0.51,-0.47,-0.46,0.55,1.0,28.85,29.65,0.0746012,0.0,19.263329974358975,nan,-99.61437159056315,nan,0.0,0.0,9936.8623,1.0,1.0,2612.5,0.0
23.0,17.0,30.0,108.0,138.0,89.0,nan,-0.5,-7.99,0.95,2.9,-82.83,271.69,0.9,-0.19,-0.29,0.51,-0.47,-0.46,0.55,1.0,28.85,29.65,0.0746012,0.0,19.263329974358975,nan,-99.61437159056315,nan,0.0,0.0,9936.8623,0.0,0.0,0.0,0.0
42.0,26.0,27.0,88.0,140.0,112.0,nan,-0.48,-7.83,0.96,2.9,-82.86,271.68,-1.2,0.23,-0.36,0.51,-0.47,-0.46,0.55,1.0,28.85,29.65,0.0746012,0.0,19.263329974358975,nan,-99.61437159056315,nan,0.0,0.0,9936.8623,0.0,0.0,0.0,0.0
65.0,27.0,26.0,87.0,139.0,110.0,nan,-0.5,-7.94,0.97,2.9,-82.84,271.69,1.04,-0.33,-0.22,0.51,-0.47,-0.46,0.55,1.0,28.85,29.65,0.0746012,0.0,19.263329974358975,nan,-99.61437159056315,nan,0.0,0.0,9936.8623,0.0,0.0,0.0,0.0
85.0,29.0,29.0,60.0,137.0,111.0,nan,-0.47,-7.91,0.95,2.9,-82.84,271.69,0.27,-0.19,-0.43,0.51,-0.47,-0.46,0.55,1.0,28.85,29.65,0.0746012,0.0,19.263329974358975,nan,-99.61437159056315,nan,0.0,0.0,9936.8623,0.0,0.0,0.0,0.0
108.0,27.0,31.0,60.0,154.0,110.0,nan,-0.48,-7.89,0.96,2.9,-82.86,271.68,-1.13,0.23,-0.22,0.51,-0.47,-0.46,0.55,1.0,28.85,29.65,0.0746012,0.0,19.263329974358975,nan,-99.61437159056315,nan,0.0,0.0,9936.8623,0.0,0.0,0.0,0.0
127.0,27.0,30.0,125.0,155.0,98.0,nan,-0.5,-7.98,0.93,2.9,-82.83,271.69,1.6,-0.4,-0.29,0.51,-0.47,-0.46,0.55,1.0,28.85,29.65,0.0746012,0.0,19.263329974358975,nan,-99.61437159056315,nan,0.0,0.0,9936.8623,0.0,0.0,0.0,0.0
150.0,27.0,26.0,99.0,137.0,111.0,nan,-0.51,-7.91,0.89,2.91,-82.86,271.68,-0.43,0.02,-0.22,0.51,-0.47,-0.46,0.55,1.0,28.85,29.65,0.0746012,0.0,19.263329974358975,nan,-99.61437159056315,nan,0.0,0.0,9936.8623,0.0,0.0,0.0,0.0
176.0,27.0,30.0,78.0,155.0,110.0,nan,-0.51,-7.91,0.89,2.91,-82.86,271.68,0.0,0.0,0.0,0.51,-0.47,-0.46,0.55,1.0,28.85,29.65,0.0746012,0.0,19.263329974358975,nan,-99.61437159056315,nan,0.0,0.0,9936.8623,0.0,0.0,0.0,0.0
194.0,29.0,29.0,88.0,138.0,109.0,nan,-0.51,-7.84,0.93,2.9,-82.87,271.68,-1.83,0.3,-0.36,0.51,-0.47,-0.46,0.55,1.0,28.85,29.65,0.0746012,0.0,19.263329974358975,nan,-99.61437159056315,nan,0.0,0.0,9936.8623,0.0,0.0,0.0,0.0
219.0,37.0,26.0,87.0,139.0,111.0,nan,-0.46,-7.93,0.99,2.9,-82.84,271.69,1.32,-0.33,-0.22,0.51,-0.47,-0.46,0.55,1.0,28.85,29.65,0.0746012,0.0,19.26332994871795,nan,-99.61437151445968,nan,0.0,0.0,9936.8623,0.0,0.0,2612.5,0.0
242.0,31.0,30.0,52.0,125.0,76.0,nan,-0.5,-7.95,0.95,2.9,-82.84,271.69,0.27,0.02,-0.36,0.51,-0.47,-0.46,0.55,1.0,28.85,29.65,0.0746012,0.0,19.26332994871795,nan,-99.61437151445968,nan,0.0,0.0,9936.8623,0.0,0.0,0.0,0.0
261.0,16.0,30.0,108.0,139.0,101.0,nan,-0.46,-7.89,1.0,2.9,-82.86,271.68,-1.13,0.23,-0.29,0.51,-0.47,-0.46,0.55,1.0,28.85,29.65,0.0746012,0.0,19.26332994871795,nan,-99.61437151445968,nan,0.0,0.0,9936.8623,0.0,0.0,0.0,0.0
284.0,19.0,30.0,60.0,138.0,97.0,nan,-0.51,-8.0,0.97,2.9,-82.83,271.69,1.74,-0.4,-0.36,0.51,-0.47,-0.46,0.55,1.0,28.85,29.65,0.0746012,0.0,19.26332994871795,nan,-99.61437151445968,nan,0.0,0.0,9936.8623,0.0,0.0,0.0,0.0
304.0,18.0,17.0,98.0,137.0,111.0,nan,-0.48,-7.85,1.01,2.9,-82.84,271.69,-0.92,0.16,-0.29,0.51,-0.47,-0.46,0.55,1.0,28.85,29.7,0.0746012,0.0,19.26332994871795,nan,-99.61437151445968,nan,0.0,0.0,9936.8623,0.0,0.0,0.0,0.0
329.0,27.0,30.0,77.0,139.0,104.0,nan,-0.5,-7.9,0.95,2.9,-82.83,271.69,1.18,-0.19,-0.29,0.51,-0.47,-0.46,0.55,1.0,28.85,29.7,0.0746012,0.0,19.26332994871795,nan,-99.61437151445968,nan,0.0,0.0,9936.8623,0.0,0.0,0.0,0.0
355.0,17.0,29.0,88.0,137.0,117.0,nan,-0.5,-7.9,0.95,2.9,-82.83,271.69,0.0,0.0,0.0,0.51,-0.47,-0.46,0.55,1.0,28.85,29.7,0.0746012,0.0,19.26332994871795,nan,-99.61437151445968,nan,0.0,0.0,9936.8623,0.0,0.0,0.0,0.0
372.0,32.0,30.0,108.0,153.0,111.0,nan,-0.48,-7.9,0.98,2.9,-82.82,271.69,1.6,-0.4,-0.43,0.51,-0.47,-0.46,0.55,1.0,28.85,29.7,0.0746012,0.0,19.26332994871795,nan,-99.61437151445968,nan,0.0,0.0,9936.8623,0.0,0.0,0.0,0.0
397.0,31.0,18.0,77.0,137.0,111.0,nan,-0.49,-7.93,0.96,2.9,-82.84,271.69,-0.99,0.23,-0.29,0.51,-0.47,-0.46,0.55,1.0,28.85,29.7,0.0746012,0.0,19.26332994871795,nan,-99.61437151445968,nan,0.0,0.0,9936.8623,0.0,0.0,0.0,0.0
420.0,29.0,30.0,77.0,153.0,110.0,nan,-0.51,-7.95,0.93,2.9,-82.86,271.69,-0.5,0.02,-0.29,0.51,-0.47,-0.46,0.55,1.0,28.85,29.7,0.0746012,0.0,19.26332994871795,nan,-99.61437151445968,nan,0.0,0.0,9936.8623,0.0,0.0,0.0,0.0
440.0,26.0,31.0,52.0,137.0,109.0,nan,-0.49,-7.98,0.97,2.9,-82.82,271.69,2.09,-0.47,-0.43,0.51,-0.47,-0.46,0.55,1.0,28.85,29.7,0.0746012,0.0,19.263329923076927,nan,-99.61437143835616,nan,0.0,0.0,9936.8623,0.0,0.0,2612.5,0.0
462.0,29.0,30.0,108.0,133.0,103.0,nan,-0.49,-7.85,0.92,2.9,-82.86,271.69,-1.97,0.37,-0.29,0.51,-0.47,-0.46,0.55,1.0,28.85,29.7,0.0746012,0.0,19.263329923076927,nan,-99.61437143835616,nan,0.0,0.0,9936.8623,0.0,0.0,0.0,0.0
482.0,25.0,26.0,135.0,140.0,74.0,nan,-0.48,-7.97,0.95,2.9,-82.85,271.69,0.76,-0.19,-0.01,0.51,-0.47,-0.46,0.55,1.0,28.85,29.7,0.0746012,0.0,19.263329923076927,nan,-99.61437143835616,nan,0.0,0.0,9936.8623,0.0,0.0,0.0,0.0
505.0,32.0,31.0,109.0,138.0,101.0,nan,-0.54,-7.93,0.96,2.9,-82.82,271.69,1.53,-0.33,-0.43,0.51,-0.47,-0.46,0.55,1.0,28.85,29.7,0.0746012,0.0,19.263329923076927,nan,-99.61437143835616,nan,0.0,0.0,9936.8623,0.0,0.0,0.0,0.0
524.0,29.0,30.0,52.0,138.0,108.0,nan,-0.44,-7.78,1.02,2.9,-82.85,271.69,-1.55,0.23,-0.5,0.51,-0.47,-0.46,0.55,1.0,28.85,29.7,0.0746012,0.0,19.263329923076927,nan,-99.61437143835616,nan,0.0,0.0,9936.8623,0.0,0.0,0.0,0.0
547.0,26.0,30.0,68.0,125.0,104.0,nan,-0.48,-7.98,0.99,2.9,-82.83,271.69,0.06,0.09,-0.29,0.51,-0.47,-0.46,0.55,1.0,28.85,29.7,0.0746012,0.0,19.263329923076927,nan,-99.61437143835616,nan,0.0,0.0,9936.8623,0.0,0.0,0.0,0.0
574.0,17.0,30.0,78.0,140.0,116.0,nan,-0.48,-7.98,0.99,2.9,-82.83,271.69,0.0,0.0,0.0,0.51,-0.47,-0.46,0.55,1.0,28.85,29.7,0.0746012,0.0,19.263329923076927,nan,-99.61437143835616,nan,0.0,0.0,9936.8623,0.0,0.0,0.0,0.0
591.0,30.0,21.0,135.0,160.0,124.0,nan,-0.49,-7.92,1.02,2.89,-82.8,271.69,1.6,-0.33,-0.29,0.51,-0.47,-0.46,0.55,1.0,28.85,29.7,0.0746012,0.0,19.263329923076927,nan,-99.61437143835616,nan,0.0,0.0,9936.8623,0.0,0.0,0.0,0.0
616.0,17.0,30.0,93.0,139.0,110.0,nan,-0.48,-7.9,0.93,2.9,-82.84,271.69,-1.62,0.3,-0.15,0.51,-0.47,-0.46,0.55,1.0,28.85,29.7,0.0746012,0.0,19.263329923076927,nan,-99.61437143835616,nan,0.0,0.0,9936.8623,0.0,0.0,0.0,0.0
639.0,22.0,17.0,136.0,134.0,109.0,nan,-0.51,-7.94,0.98,2.9,-82.82,271.69,1.25,-0.26,-0.15,0.51,-0.47,-0.46,0.55,1.0,28.85,29.7,0.0746012,0.0,19.263329923076927,nan,-99.61437143835616,nan,0.0,0.0,9936.8623,0.0,0.0,0.0,0.0
658.0,38.0,26.0,87.0,138.0,110.0,nan,-0.54,-7.91,0.98,2.9,-82.81,271.69,0.62,-0.12,-0.5,0.51,-0.47,-0.46,0.55,1.0,28.85,29.7,0.0746012,0.0,19.263329923076927,nan,-99.61437143835616,nan,0.0,0.0,9936.8623,0.0,0.0,0.0,0.0
681.0,37.0,25.0,78.0,138.0,111.0,nan,-0.44,-7.78,0.94,2.9,-82.84,271.69,-1.48,0.16,-0.5,0.51,-0.47,-0.46,0.55,1.0,28.85,29.7,0.0746012,0.0,19.263329897435895,nan,-99.61437136225268,nan,0.0,0.0,9936.8623,0.0,0.0,2612.5,0.0
701.0,20.0,21.0,82.0,134.0,105.0,nan,-0.48,-7.98,0.96,2.9,-82.82,271.7,1.25,-0.33,0.06,0.51,-0.47,-0.46,0.55,1.0,28.85,29.7,0.0746012,0.0,19.263329871794873,nan,-99.61437128614917,nan,0.0,0.0,9936.8623,0.0,0.0,2612.5,0.0
724.0,25.0,17.0,110.0,140.0,117.0,nan,-0.49,-8.0,0.95,2.9,-82.83,271.7,-0.36,-0.05,-0.5,0.51,-0.47,-0.46,0.55,1.0,28.85,29.7,0.0746012,0.0,19.263329846153848,nan,-99.61437121004569,nan,0.0,0.0,9936.8623,0.0,0.0,2612.5,0.0
743.0,26.0,30.0,52.0,129.0,111.0,nan,-0.5,-7.88,0.95,2.9,-82.84,271.69,-0.57,0.16,-0.43,0.51,-0.47,-0.46,0.55,1.0,28.85,29.7,0.0746012,0.0,19.26332982051282,nan,-99.61437113394217,nan,0.0,0.0,9936.8623,0.0,0.0,2612.5,0.0
766.0,32.0,29.0,82.0,154.0,112.0,nan,-0.48,-7.95,0.95,2.9,-82.84,271.69,-0.29,0.09,-0.01,0.51,-0.47,-0.46,0.55,1.0,28.85,29.66,0.0745997,0.0,19.263329794871794,nan,-99.6143710578387,nan,0.0,0.0,9936.8623,0.0,0.0,2612.5,0.0
798.0,26.0,29.0,38.0,160.0,110.0,nan,-0.51,-7.87,0.94,2.9,-82.85,271.7,-0.22,-0.12,-0.43,0.51,-0.47,-0.46,0.55,1.0,28.85,29.66,0.0745997,0.0,19.26332976923077,nan,-99.61437098173516,nan,0.0,0.0,9936.8623,0.0,0.0,2612.5,0.0
817.0,38.0,27.0,53.0,153.0,111.0,nan,-0.46,-7.97,0.99,2.89,-82.82,271.7,1.18,-0.26,-0.5,0.51,-0.47,-0.46,0.55,1.0,28.85,29.66,0.0745997,0.0,19.263329743589747,nan,-99.61437090563167,nan,0.0,0.0,9936.8623,0.0,0.0,2612.5,0.0
840.0,29.0,27.0,67.0,137.0,111.0,nan,-0.49,-7.8,0.93,2.9,-82.85,271.69,-1.27,0.23,-0.22,0.51,-0.47,-0.46,0.55,1.0,28.85,29.66,0.0745997,0.0,19.263329743589747,nan,-99.61437090563167,nan,0.0,0.0,9936.8623,0.0,0.0,0.0,0.0
860.0,31.0,29.0,52.0,138.0,126.0,nan,-0.48,-7.98,0.98,2.9,-82.83,271.7,0.97,-0.26,-0.08,0.51,-0.47,-0.46,0.55,1.0,28.85,29.66,0.0745997,0.0,19.26332971794872,nan,-99.61437082952817,nan,0.0,0.0,9936.8623,0.0,0.0,2612.5,0.0
883.0,27.0,27.0,53.0,136.0,76.0,nan,-0.54,-7.98,0.95,2.9,-82.82,271.7,0.76,-0.12,-0.5,0.51,-0.47,-0.46,0.55,1.0,28.85,29.66,0.0745997,0.0,19.263329692307693,nan,-99.61437075342468,nan,0.0,0.0,9936.8623,0.0,0.0,2612.5,0.0
902.0,16.0,25.0,78.0,137.0,103.0,nan,-0.48,-7.82,0.98,2.9,-82.85,271.69,-1.2,0.23,-0.36,0.51,-0.47,-0.46,0.55,1.0,28.85,29.66,0.0745997,0.0,19.263329666666667,nan,-99.61437067732118,nan,0.0,0.0,9936.8623,0.0,0.0,2612.5,0.0
925.0,27.0,30.0,88.0,154.0,110.0,nan,-0.47,-7.93,1.01,2.9,-82.81,271.7,0.2,0.02,-0.36,0.51,-0.47,-0.46,0.55,1.0,28.85,29.66,0.0745997,0.0,19.263329641025642,nan,-99.61437060121769,nan,0.0,0.0,9936.8623,0.0,0.0,2612.5,0.0
951.0,37.0,25.0,87.0,137.0,110.0,nan,-0.47,-7.93,0.96,2.89,-82.85,271.69,-1.48,0.3,-0.5,0.51,-0.47,-0.46,0.55,1.0,28.85,29.66,0.0745997,0.0,19.26332961538462,nan,-99.61437052511415,nan,0.0,0.0,9936.8623,0.0,0.0,2612.5,0.0
974.0,30.0,30.0,108.0,132.0,74.0,nan,-0.48,-7.92,0.98,2.89,-82.81,271.7,2.02,-0.54,-0.36,0.51,-0.47,-0.46,0.55,1.0,28.85,29.66,0.0745997,0.0,19.263329589743595,nan,-99.61437044901066,nan,0.0,0.0,9936.8623,0.0,0.0,2612.5,0.0
994.0,17.0,30.0,60.0,137.0,116.0,nan,-0.49,-7.89,0.96,2.9,-82.84,271.7,-1.27,0.3,-0.15,0.51,-0.47,-0.46,0.55,1.0,28.85,29.66,0.0745997,0.0,19.263329589743595,nan,-99.61437044901066,nan,0.0,0.0,9936.8623,0.0,0.0,0.0,0.0
1017.0,26.0,29.0,135.0,146.0,111.0,nan,-0.48,-7.96,0.96,2.9,-82.84,271.7,-0.08,-0.12,-0.29,0.51,-0.47,-0.46,0.55,1.0,28.85,29.66,0.0745997,0.0,19.263329564102566,nan,-99.61437037290716,nan,0.0,0.0,9936.8623,0.0,0.0,2612.5,0.0
1036.0,28.0,31.0,82.0,157.0,111.0,nan,-0.55,-7.92,0.94,2.9,-82.82,271.7,1.18,-0.19,-0.36,0.51,-0.47,-0.46,0.55,1.0,28.85,29.66,0.0745997,0.0,19.26332953846154,nan,-99.61437029680367,nan,0.0,0.0,9936.8623,0.0,0.0,2612.5,0.0
1059.0,28.0,30.0,77.0,138.0,112.0,nan,-0.49,-7.81,0.89,2.9,-82.87,271.69,-2.11,0.3,-0.36,0.51,-0.47,-0.46,0.55,1.0,28.85,29.66,0.0745997,0.0,19.263329512820512,nan,-99.61437022070017,nan,0.0,0.0,9936.8623,0.0,0.0,2612.5,0.0
1079.0,26.0,31.0,67.0,160.0,110.0,nan,-0.48,-7.94,0.94,2.9,-82.84,271.7,1.81,-0.47,-0.01,0.51,-0.47,-0.46,0.55,1.0,28.85,29.66,0.0745997,0.0,19.263329487179487,nan,-99.61437014459668,nan,0.0,0.0,9936.8623,0.0,0.0,2612.5,0.0
1102.0,25.0,19.0,98.0,138.0,110.0,nan,-0.5,-7.9,0.9,2.9,-82.85,271.7,-0.57,0.09,-0.43,0.51,-0.47,-0.46,0.55,1.0,28.85,29.66,0.0745997,0.0,19.263329487179487,nan,-99.61437014459668,nan,0.0,0.0,9936.8623,0.0,0.0,0.0,0.0
1121.0,27.0,30.0,78.0,139.0,111.0,nan,-0.45,-7.89,0.97,2.9,-82.87,271.69,-0.64,0.16,-0.5,0.51,-0.47,-0.46,0.55,1.0,28.85,29.66,0.0745997,0.0,19.26332946153846,nan,-99.61437006849317,nan,0.0,0.0,9936.8623,0.0,0.0,2612.5,0.0
1144.0,30.0,21.0,123.0,139.0,111.0,nan,-0.46,-7.91,0.97,2.9,-82.87,271.7,-1.2,0.3,-0.15,0.51,-0.47,-0.46,0.55,1.0,28.85,29.66,0.0745997,0.0,19.26332943589744,nan,-99.61436999238968,nan,0.0,0.0,9936.8623,0.0,0.0,2612.5,0.0
1171.0,31.0,30.0,136.0,137.0,110.0,nan,-0.52,-8.0,0.95,2.9,-82.85,271.7,0.97,-0.19,-0.36,0.51,-0.47,-0.46,0.55,1.0,28.85,29.66,0.0745997,0.0,19.263329410256414,nan,-99.61436991628615,nan,0.0,0.0,9936.8623,0.0,0.0,2612.5,0.0
1194.0,26.0,31.0,108.0,139.0,110.0,nan,-0.48,-7.88,1.02,2.89,-82.83,271.7,1.25,-0.26,-0.43,0.51,-0.47,-0.46,0.55,1.0,28.85,29.66,0.0745997,0.0,19.263329384615385,nan,-99.61436984018268,nan,0.0,0.0,9936.8623,0.0,0.0,2612.5,0.0
1213.0,25.0,19.0,77.0,137.0,111.0,nan,-0.48,-7.89,0.96,2.9,-82.86,271.69,-1.69,0.37,-0.15,0.51,-0.47,-0.46,0.55,1.0,28.85,29.66,0.0745997,0.0,19.26332935897436,nan,-99.61436976407916,nan,0.0,0.0,9936.8623,0.0,0.0,2612.5,0.0
1236.0,23.0,30.0,119.0,148.0,110.0,nan,-0.48,-7.94,1.0,2.9,-82.81,271.7,2.44,-0.47,-0.15,0.51,-0.47,-0.46,0.55,1.0,28.85,29.62,0.0746005,0.0,19.263329333333335,nan,-99.61436968797565,nan,0.0,0.0,9936.8623,0.0,0.0,2612.5,0.0
1258.0,27.0,26.0,103.0,137.0,110.0,nan,-0.49,-7.9,0.99,2.9,-82.83,271.7,-0.71,0.23,-0.5,0.51,-0.47,-0.46,0.55,1.0,28.85,29.62,0.0746005,0.0,19.263329307692306,nan,-99.61436961187216,nan,0.0,0.0,9936.8623,0.0,0.0,2612.5,0.0
1281.0,30.0,29.0,52.0,138.0,110.0,nan,-0.45,-7.85,0.96,2.89,-82.84,271.7,-0.36,-0.05,-0.36,0.51,-0.47,-0.46,0.55,1.0,28.85,29.62,0.0746005,0.0,19.263329307692306,nan,-99.61436961187216,nan,0.0,0.0,9936.8623,0.0,0.0,0.0,0.0
1300.0,30.0,29.0,88.0,138.0,111.0,nan,-0.5,-7.96,0.96,2.9,-82.81,271.7,1.46,-0.26,-0.15,0.51,-0.47,-0.46,0.55,1.0,28.85,29.62,0.0746005,0.0,19.26332928205128,nan,-99.61436953576863,nan,0.0,0.0,9936.8623,0.0,0.0,2612.5,0.0
1323.0,31.0,29.0,77.0,138.0,118.0,nan,-0.5,-7.94,0.97,2.9,-82.83,271.7,0.97,-0.19,-0.36,0.51,-0.47,-0.46,0.55,1.0,28.85,29.62,0.0746005,0.0,19.26332925641026,nan,-99.61436945966516,nan,0.0,0.0,9936.8623,0.0,0.0,2612.5,0.0
1349.0,28.0,30.0,77.0,144.0,111.0,nan,-0.51,-7.87,0.89,2.9,-82.85,271.7,-0.5,0.02,-0.29,0.51,-0.47,-0.46,0.55,1.0,28.85,29.62,0.0746005,0.0,19.263329230769234,nan,-99.61436938356164,nan,0.0,0.0,9936.8623,0.0,0.0,2612.5,0.0
1372.0,27.0,30.0,77.0,139.0,97.0,nan,-0.46,-7.88,0.96,2.9,-82.86,271.69,-0.85,0.16,-0.01,0.51,-0.47,-0.46,0.55,1.0,28.85,29.62,0.0746005,0.0,19.26332920512821,nan,-99.61436930745816,nan,0.0,0.0,9936.8623,0.0,0.0,2612.5,0.0
1392.0,27.0,31.0,67.0,126.0,110.0,nan,-0.53,-7.95,0.94,2.9,-82.85,271.7,1.18,-0.33,-0.36,0.51,-0.47,-0.46,0.55,1.0,28.85,29.62,0.0746005,0.0,19.26332917948718,nan,-99.61436923135464,nan,0.0,0.0,9936.8623,0.0,0.0,2612.5,0.0
1415.0,29.0,30.0,113.0,137.0,110.0,nan,-0.45,-7.88,0.98,2.9,-82.86,271.69,-0.78,0.23,-0.57,0.51,-0.47,-0.46,0.55,1.0,28.85,29.62,0.0746005,0.0,19.263329153846154,nan,-99.61436915525117,nan,0.0,0.0,9936.8623,0.0,0.0,2612.5,0.0
1434.0,31.0,30.0,52.0,138.0,125.0,nan,-0.48,-7.9,0.91,2.9,-82.88,271.69,-0.43,-0.05,-0.22,0.51,-0.47,-0.46,0.55,1.0,28.85,29.62,0.0746005,0.0,19.263329153846154,nan,-99.61436915525117,nan,0.0,0.0,9936.8623,0.0,0.0,0.0,0.0
1457.0,27.0,30.0,77.0,137.0,111.0,nan,-0.44,-8.0,0.98,2.89,-82.85,271.7,1.46,-0.33,-0.15,0.51,-0.47,-0.46,0.55,1.0,28.85,29.62,0.0746005,0.0,19.263329128205125,nan,-99.61436907914765,nan,0.0,0.0,9936.8623,0.0,0.0,2612.5,0.0
1477.0,27.0,31.0,66.0,132.0,110.0,nan,-0.5,-7.94,0.95,2.9,-82.87,271.69,-0.99,0.3,-0.36,0.51,-0.47,-0.46,0.55,1.0,28.85,29.62,0.0746005,0.0,19.2633291025641,nan,-99.61436900304417,nan,0.0,0.0,9936.8623,0.0,0.0,2612.5,0.0
1500.0,19.0,30.0,135.0,134.0,105.0,nan,-0.47,-7.88,0.98,2.89,-82.85,271.7,1.18,-0.33,-0.29,0.51,-0.47,-0.46,0.55,1.0,28.85,29.62,0.0746005,0.0,19.26332907692308,nan,-99.61436892694064,nan,0.0,0.0,9936.8623,0.0,0.0,2612.5,0.0
1519.0,20.0,21.0,98.0,125.0,74.0,nan,-0.51,-7.96,0.95,2.9,-82.84,271.7,0.76,-0.12,-0.15,0.51,-0.47,-0.46,0.55,1.0,28.85,29.62,0.0746005,0.0,19.263329051282053,nan,-99.61436885083715,nan,0.0,0.0,9936.8623,0.0,0.0,2612.5,0.0
1542.0,17.0,30.0,107.0,138.0,95.0,nan,-0.54,-7.92,0.99,2.9,-82.81,271.7,1.81,-0.4,-0.36,0.51,-0.47,-0.46,0.55,1.0,28.85,29.62,0.0746005,0.0,19.263329025641028,nan,-99.61436877473365,nan,0.0,0.0,9936.8623,0.0,0.0,2612.5,0.0
1568.0,29.0,18.0,78.0,138.0,112.0,nan,-0.49,-7.83,0.97,2.9,-82.81,271.7,-0.08,-0.05,-0.43,0.51,-0.47,-0.46,0.55,1.0,28.85,29.62,0.0746005,0.0,19.263329025641028,nan,-99.61436877473365,nan,0.0,0.0,9936.8623,0.0,0.0,0.0,0.0
1591.0,16.0,30.0,109.0,155.0,118.0,nan,-0.49,-7.87,1.0,2.91,-82.82,271.7,-0.22,0.09,-0.08,0.51,-0.47,-0.46,0.55,1.0,28.85,29.62,0.0746005,0.0,19.263329,nan,-99.61436869863016,nan,0.0,0.0,9936.8623,0.0,0.0,2612.5,0.0
1611.0,21.0,30.0,158.0,150.0,111.0,nan,-0.51,-8.0,1.0,2.91,-82.78,271.71,1.74,-0.4,-0.36,0.51,-0.47,-0.46,0.55,1.0,28.85,29.62,0.0746005,0.0,19.263328974358974,nan,-99.61436862252665,nan,0.0,0.0,9936.8623,0.0,0.0,2612.5,0.0
1634.0,18.0,30.0,102.0,136.0,110.0,nan,-0.49,-7.9,1.02,2.9,-82.8,271.71,-0.85,0.16,-0.5,0.51,-0.47,-0.46,0.55,1.0,28.85,29.62,0.0746005,0.0,19.26332894871795,nan,-99.61436854642317,nan,0.0,0.0,9936.8623,0.0,0.0,2612.5,0.0
1653.0,19.0,25.0,77.0,139.0,112.0,nan,-0.49,-7.92,0.94,2.9,-82.81,271.71,-0.36,-0.05,-0.29,0.51,-0.47,-0.46,0.55,1.0,28.85,29.62,0.0746005,0.0,19.26332892307692,nan,-99.61436847031966,nan,0.0,0.0,9936.8623,0.0,0.0,2612.5,0.0
1676.0,21.0,29.0,76.0,130.0,104.0,nan,-0.46,-7.97,1.02,2.9,-82.78,271.71,1.53,-0.33,-0.22,0.51,-0.47,-0.46,0.55,1.0,28.85,29.62,0.0746005,0.0,19.263328897435898,nan,-99.61436839421617,nan,0.0,0.0,9936.8623,0.0,0.0,2612.5,0.0
1695.0,28.0,30.0,66.0,138.0,75.0,nan,-0.49,-7.91,0.97,2.9,-82.82,271.7,-2.25,0.37,-0.43,0.51,-0.47,-0.46,0.55,1.0,28.85,29.67,0.0745989,0.0,19.263328897435898,nan,-99.61436839421617,nan,0.0,0.0,9936.8623,0.0,0.0,0.0,0.0
1720.0,17.0,31.0,109.0,137.0,101.0,nan,-0.48,-7.91,0.94,2.89,-82.83,271.7,-0.85,0.16,-0.29,0.51,-0.47,-0.46,0.55,1.0,28.85,29.67,0.0745989,0.0,19.263328871794872,nan,-99.61436831811264,nan,0.0,0.0,9936.8623,0.0,0.0,2612.5,0.0
1747.0,29.0,30.0,67.0,137.0,76.0,nan,-0.45,-7.89,0.97,2.89,-82.86,271.7,-1.13,0.09,-0.15,0.51,-0.47,-0.46,0.55,1.0,28.85,29.67,0.0745989,0.0,19.263328846153847,nan,-99.61436824200915,nan,0.0,0.0,9936.8623,0.0,0.0,2612.5,0.0
1770.0,18.0,26.0,52.0,137.0,102.0,nan,-0.53,-8.01,0.95,2.89,-82.85,271.7,0.76,-0.26,-0.36,0.51,-0.47,-0.46,0.55,1.0,28.85,29.67,0.0745989,0.0,19.263328820512825,nan,-99.61436816590565,nan,0.0,0.0,9936.8623,0.0,0.0,2612.5,0.0
1789.0,25.0,29.0,77.0,153.0,111.0,nan,-0.49,-7.82,0.93,2.89,-82.87,271.7,-1.27,0.23,-0.36,0.51,-0.47,-0.46,0.55,1.0,28.85,29.67,0.0745989,0.0,19.263328794871793,nan,-99.61436808980216,nan,0.0,0.0,9936.8623,0.0,0.0,2612.5,0.0
1812.0,32.0,29.0,53.0,137.0,111.0,nan,-0.51,-7.93,0.94,2.9,-82.87,271.7,0.55,-0.19,-0.08,0.51,-0.47,-0.46,0.55,1.0,28.85,29.67,0.0745989,0.0,19.26332876923077,nan,-99.61436801369865,nan,0.0,0.0,9936.8623,0.0,0.0,2612.5,0.0
1832.0,24.0,29.0,107.0,140.0,111.0,nan,-0.47,-7.85,0.96,2.9,-82.84,271.71,1.39,-0.26,-0.29,0.51,-0.47,-0.46,0.55,1.0,28.85,29.67,0.0745989,0.0,19.263328743589746,nan,-99.61436793759512,nan,0.0,0.0,9936.8623,0.0,0.0,2612.5,0.0
1854.0,17.0,30.0,107.0,138.0,111.0,nan,-0.48,-7.87,0.98,2.9,-82.86,271.7,-0.85,0.16,-0.29,0.51,-0.47,-0.46,0.55,1.0,28.85,29.67,0.0745989,0.0,19.263328743589746,nan,-99.61436793759512,nan,0.0,0.0,9936.8623,0.0,0.0,0.0,0.0
1874.0,18.0,31.0,48.0,138.0,111.0,nan,-0.47,-7.92,0.95,2.9,-82.82,271.71,2.23,-0.54,-0.36,0.51,-0.47,-0.46,0.55,1.0,28.85,29.67,0.0745989,0.0,19.26332871794872,nan,-99.61436786149163,nan,0.0,0.0,9936.8623,0.0,0.0,2612.5,0.0
1897.0,26.0,26.0,78.0,137.0,111.0,nan,-0.48,-7.89,0.98,2.9,-82.81,271.71,0.27,0.02,-0.22,0.51,-0.47,-0.46,0.55,1.0,28.85,29.67,0.0745989,0.0,19.2633286923077,nan,-99.61436778538813,nan,0.0,0.0,9936.8623,0.0,0.0,2612.5,0.0
1916.0,27.0,31.0,77.0,133.0,124.0,nan,-0.51,-7.97,0.95,2.9,-82.81,271.71,0.06,-0.05,-0.22,0.51,-0.47,-0.46,0.55,1.0,28.85,29.67,0.0745989,0.0,19.263328666666666,nan,-99.61436770928464,nan,0.0,0.0,9936.8623,0.0,0.0,2612.5,0.0
1939.0,30.0,17.0,112.0,126.0,109.0,nan,-0.52,-7.89,0.96,2.9,-82.81,271.71,-1.62,0.3,-0.22,0.51,-0.47,-0.46,0.55,1.0,28.85,29.67,0.0745989,0.0,19.263328641025645,nan,-99.61436763318113,nan,0.0,0.0,9936.8623,0.0,0.0,2612.5,0.0
1966.0,26.0,30.0,68.0,137.0,97.0,nan,-0.48,-7.93,1.02,2.9,-82.78,271.72,1.46,-0.4,-0.15,0.51,-0.47,-0.46,0.55,1.0,28.85,29.67,0.0745989,0.0,19.263328615384612,nan,-99.61436755707764,nan,0.0,0.0,9936.8623,0.0,0.0,2612.5,0.0
1989.0,27.0,30.0,78.0,160.0,111.0,nan,-0.51,-7.93,0.98,2.9,-82.79,271.72,-0.36,0.02,-0.43,0.51,-0.47,-0.46,0.55,1.0,28.85,29.67,0.0745989,0.0,19.26332858974359,nan,-99.61436748097414,nan,0.0,0.0,9936.8623,0.0,0.0,2612.5,0.0
2008.0,37.0,26.0,77.0,138.0,110.0,nan,-0.44,-7.83,1.0,2.9,-82.81,271.71,-1.34,0.23,-0.43,0.51,-0.47,-0.46,0.55,1.0,28.85,29.67,0.0745989,0.0,19.26332858974359,nan,-99.61436748097414,nan,0.0,0.0,9936.8623,0.0,0.0,0.0,0.0
2031.0,27.0,31.0,65.0,156.0,109.0,nan,-0.49,-7.95,0.96,2.9,-82.8,271.72,0.76,-0.26,-0.29,0.51,-0.47,-0.46,0.55,1.0,28.85,29.67,0.0745989,0.0,19.263328564102565,nan,-99.61436740487065,nan,0.0,0.0,9936.8623,0.0,0.0,2612.5,0.0
2051.0,27.0,29.0,77.0,137.0,125.0,nan,-0.47,-7.87,0.97,2.89,-82.83,271.71,-1.62,0.23,-0.36,0.51,-0.47,-0.46,0.55,1.0,28.85,29.67,0.0745989,0.0,19.26332853846154,nan,-99.61436732876712,nan,0.0,0.0,9936.8623,0.0,0.0,2612.5,0.0
2073.0,18.0,31.0,108.0,140.0,111.0,nan,-0.5,-7.96,0.94,2.89,-82.85,271.71,-0.36,0.02,-0.36,0.51,-0.47,-0.46,0.55,1.0,28.85,29.67,0.0745989,0.0,19.263328512820518,nan,-99.61436725266364,nan,0.0,0.0,9936.8623,0.0,0.0,2612.5,0.0
2093.0,30.0,29.0,77.0,139.0,110.0,nan,-0.49,-7.9,0.97,2.89,-82.83,271.71,1.04,-0.33,-0.43,0.51,-0.47,-0.46,0.55,1.0,28.85,29.67,0.0745989,0.0,19.263328487179486,nan,-99.61436717656012,nan,0.0,0.0,9936.8623,0.0,0.0,2612.5,0.0
2116.0,31.0,29.0,147.0,137.0,110.0,nan,-0.48,-7.88,0.92,2.9,-82.87,271.71,-1.69,0.3,-0.15,0.51,-0.47,-0.46,0.55,1.0,28.85,29.67,0.0745989,0.0,19.263328461538464,nan,-99.61436710045665,nan,0.0,0.0,9936.8623,0.0,0.0,2612.5,0.0
2136.0,30.0,21.0,98.0,139.0,111.0,nan,-0.49,-7.94,0.95,2.9,-82.83,271.71,1.67,-0.33,-0.22,0.51,-0.47,-0.46,0.55,1.0,28.85,29.67,0.0745989,0.0,19.263328461538464,nan,-99.61436710045665,nan,0.0,0.0,9936.8623,0.0,0.0,0.0,0.0
2158.0,32.0,29.0,60.0,138.0,111.0,nan,-0.43,-7.86,0.93,2.89,-82.85,271.71,-0.85,0.16,-0.29,0.51,-0.47,-0.46,0.55,1.0,28.85,29.62,0.0745955,0.0,19.26332843589744,nan,-99.61436702435313,nan,0.0,0.0,9936.8623,0.0,0.0,2612.5,0.0
2190.0,18.0,30.0,135.0,160.0,110.0,nan,-0.48,-8.0,0.96,2.89,-82.81,271.71,2.09,-0.4,-0.15,0.51,-0.47,-0.46,0.55,1.0,28.85,29.62,0.0745955,0.0,19.26332841025641,nan,-99.61436694824965,nan,0.0,0.0,9936.8623,0.0,0.0,2612.5,0.0
2210.0,21.0,30.0,86.0,133.0,110.0,nan,-0.52,-7.94,0.91,2.9,-82.83,271.71,-0.5,0.09,-0.29,0.51,-0.47,-0.46,0.55,1.0,28.85,29.62,0.0745955,0.0,19.263328384615384,nan,-99.61436687214612,nan,0.0,0.0,9936.8623,0.0,0.0,2612.5,0.0
2233.0,27.0,30.0,77.0,137.0,125.0,nan,-0.5,-7.89,1.0,2.9,-82.81,271.71,0.9,-0.05,-0.36,0.51,-0.47,-0.46,0.55,1.0,28.85,29.62,0.0745955,0.0,19.26332835897436,nan,-99.61436679604263,nan,0.0,0.0,9936.8623,0.0,0.0,2612.5,0.0
2252.0,24.0,26.0,87.0,134.0,110.0,nan,-0.52,-7.91,0.92,2.9,-82.8,271.72,0.62,-0.19,-0.15,0.51,-0.47,-0.46,0.55,1.0,28.85,29.62,0.0745955,0.0,19.263328333333337,nan,-99.61436671993913,nan,0.0,0.0,9936.8623,1.0,0.0,2612.5,0.0
2275.0,27.0,30.0,77.0,124.0,111.0,nan,-0.49,-7.89,0.99,2.91,-82.82,271.71,-0.57,0.16,-0.01,0.51,-0.47,-0.46,0.55,1.0,28.85,29.62,0.0745955,0.0,19.26332841666667,nan,-99.61436664383564,nan,0.0,0.0,9936.8623,0.0,0.0,2612.5,0.0
2295.0,25.0,20.0,67.0,154.0,111.0,nan,-0.53,-7.89,0.97,2.91,-82.8,271.72,0.9,-0.33,-0.29,0.51,-0.47,-0.46,0.55,1.0,28.85,29.62,0.0745955,0.0,19.26332841666667,nan,-99.61436664383564,nan,0.0,0.0,9936.8623,0.0,0.0,0.0,0.0
2317.0,21.0,19.0,98.0,138.0,110.0,nan,-0.47,-7.87,0.95,2.9,-82.83,271.71,-1.69,0.3,-0.29,0.51,-0.47,-0.46,0.55,1.0,28.85,29.62,0.0745955,0.0,19.263328458333334,nan,-99.61436656773213,nan,0.0,0.0,9936.8623,0.0,0.0,2612.5,0.0
2344.0,19.0,17.0,124.0,133.0,75.0,nan,-0.49,-7.99,0.99,2.9,-82.8,271.72,1.39,-0.33,-0.22,0.51,-0.47,-0.46,0.55,1.0,28.85,29.62,0.0745955,0.0,19.2633285,nan,-99.61436649162864,nan,0.0,0.0,9936.8623,0.0,0.0,2612.5,0.0
2367.0,18.0,26.0,109.0,123.0,102.0,nan,-0.5,-7.96,0.98,2.9,-82.8,271.71,-0.22,0.09,-0.64,0.51,-0.47,-0.46,0.55,1.0,28.85,29.62,0.0745955,0.0,19.26332854166667,nan,-99.61436641552514,nan,0.0,0.0,9936.8623,0.0,0.0,2612.5,0.0
2386.0,30.0,29.0,51.0,137.0,110.0,nan,-0.45,-7.87,0.97,2.89,-82.83,271.71,-1.13,0.16,-0.43,0.51,-0.47,-0.46,0.55,1.0,28.85,29.62,0.0745955,0.0,19.263328583333333,nan,-99.61436633942165,nan,0.0,0.0,9936.8623,0.0,0.0,2612.5,0.0
2409.0,32.0,29.0,52.0,139.0,125.0,nan,-0.5,-8.01,0.95,2.9,-82.81,271.71,1.32,-0.26,-0.01,0.51,-0.47,-0.46,0.55,1.0,28.85,29.62,0.0745955,0.0,19.263328625000003,nan,-99.61436626331812,nan,0.0,0.0,9936.8623,0.0,0.0,2612.5,0.0
2429.0,21.0,17.0,77.0,139.0,111.0,nan,-0.48,-7.91,0.97,2.9,-82.83,271.71,-1.06,0.23,-0.36,0.51,-0.47,-0.46,0.55,1.0,28.85,29.62,0.0745955,0.0,19.263328666666666,nan,-99.61436618721463,nan,0.0,0.0,9936.8623,0.0,0.0,2612.9,0.0
2454.0,27.0,30.0,67.0,154.0,111.0,nan,-0.47,-7.91,0.97,2.89,-82.82,271.71,0.62,-0.26,-0.36,0.51,-0.47,-0.46,0.55,1.0,28.85,29.62,0.0745955,0.0,19.263328666666666,nan,-99.61436618721463,nan,0.0,0.0,9936.8623,0.0,0.0,0.0,0.0
2471.0,37.0,30.0,66.0,136.0,103.0,nan,-0.45,-7.88,0.91,2.89,-82.82,271.71,0.13,-0.12,-0.36,0.51,-0.47,-0.46,0.55,1.0,28.85,29.62,0.0745955,0.0,19.263328708333333,nan,-99.61436611111112,nan,0.0,0.0,9936.8623,0.0,0.0,2612.9,0.0
2494.0,37.0,26.0,53.0,125.0,76.0,nan,-0.55,-7.99,0.88,2.9,-82.82,271.72,1.81,-0.4,-0.29,0.51,-0.47,-0.46,0.55,1.0,28.85,29.62,0.0745955,0.0,19.263328750000003,nan,-99.61436603500762,nan,0.0,0.0,9936.8623,0.0,0.0,2612.9,0.0
2520.0,17.0,30.0,77.0,137.0,102.0,nan,-0.55,-7.99,0.88,2.9,-82.82,271.72,0.0,0.0,0.0,0.51,-0.47,-0.46,0.55,1.0,28.85,29.62,0.0745955,0.0,19.263328791666666,nan,-99.61436595890413,nan,0.0,0.0,9936.8623,0.0,0.0,2612.9,0.0
2538.0,17.0,26.0,67.0,154.0,111.0,nan,-0.53,-7.87,0.89,2.9,-82.86,271.71,-0.85,0.09,-0.08,0.51,-0.47,-0.46,0.55,1.0,28.85,29.62,0.0745955,0.0,19.263328833333336,nan,-99.6143658828006,nan,0.0,0.0,9936.8623,0.0,0.0,2612.9,0.0
2563.0,31.0,21.0,51.0,138.0,110.0,nan,-0.5,-7.92,0.98,2.91,-82.8,271.72,2.86,-0.54,-0.08,0.51,-0.47,-0.46,0.55,1.0,28.85,29.62,0.0745955,0.0,19.263328875,nan,-99.61436580669711,nan,0.0,0.0,9936.8623,0.0,0.0,2612.9,0.0
2586.0,18.0,30.0,108.0,159.0,111.0,nan,-0.55,-7.87,0.96,2.91,-82.83,271.71,-1.13,0.37,-0.43,0.51,-0.47,-0.46,0.55,1.0,28.85,29.62,0.0745955,0.0,19.26332891666667,nan,-99.6143657305936,nan,0.0,0.0,9936.8623,0.0,0.0,2612.9,0.0
2605.0,29.0,29.0,52.0,134.0,76.0,nan,-0.57,-7.92,1.05,2.91,-82.79,271.72,1.67,-0.26,-0.36,0.51,-0.47,-0.46,0.55,1.0,28.85,29.62,0.0745955,0.0,19.26332891666667,nan,-99.6143657305936,nan,0.0,0.0,9936.8623,0.0,0.0,0.0,0.0
2628.0,17.0,30.0,108.0,137.0,79.0,nan,-0.72,-8.06,0.96,2.93,-82.8,271.72,-0.08,0.02,-0.22,0.51,-0.47,-0.46,0.55,1.0,28.86,29.65,0.0745981,0.0,19.263328958333336,nan,-99.61436565449011,nan,0.0,0.0,9936.8623,0.0,0.0,2612.9,0.0
2650.0,28.0,30.0,77.0,137.0,103.0,nan,-0.72,-7.99,0.9,2.95,-82.84,271.71,-1.69,0.37,-0.08,0.51,-0.47,-0.46,0.55,1.0,28.86,29.65,0.0745981,0.0,19.263329,nan,-99.61436557838661,nan,0.0,0.0,9936.8623,0.0,0.0,2612.9,0.0
2672.0,20.0,30.0,68.0,153.0,123.0,nan,-0.77,-8.05,0.9,2.97,-82.8,271.72,2.23,-0.4,-0.08,0.51,-0.47,-0.46,0.55,1.0,28.86,29.65,0.0745981,0.0,19.26332904166667,nan,-99.61436550228312,nan,0.0,0.0,9936.8623,0.0,0.0,2612.9,0.0
2692.0,28.0,30.0,56.0,138.0,105.0,nan,-0.66,-7.79,0.97,2.99,-82.8,271.71,-0.15,0.09,-0.01,0.51,-0.47,-0.46,0.55,1.0,28.86,29.65,0.0745981,0.0,19.263329083333332,nan,-99.61436542617962,nan,0.0,0.0,9936.8623,0.0,0.0,2612.9,0.0
2715.0,24.0,21.0,109.0,137.0,111.0,nan,-0.64,-7.74,0.93,3.03,-82.8,271.72,1.25,-0.4,-0.22,0.51,-0.47,-0.46,0.55,1.0,28.86,29.65,0.0745981,0.0,19.263329125,nan,-99.61436535007613,nan,0.0,0.0,9936.8623,0.0,0.0,2612.9,0.0
2741.0,24.0,18.0,124.0,154.0,102.0,nan,-0.71,-7.85,0.91,3.04,-82.85,271.71,-2.11,0.44,-0.5,0.51,-0.47,-0.46,0.55,1.0,28.86,29.65,0.0745981,0.0,19.26332916666667,nan,-99.6143652739726,nan,0.0,0.0,9936.8623,0.0,0.0,2612.9,0.0
2764.0,37.0,30.0,40.0,138.0,111.0,nan,-0.67,-7.8,0.81,3.05,-82.86,271.71,-0.08,-0.12,-0.29,0.51,-0.48,-0.46,0.55,1.0,28.86,29.65,0.0745981,0.0,19.26332916666667,nan,-99.6143652739726,nan,0.0,0.0,9936.8623,0.0,0.0,0.0,0.0
2784.0,31.0,29.0,137.0,156.0,125.0,nan,-0.81,-8.09,0.95,3.07,-82.84,271.71,1.11,-0.12,-0.22,0.51,-0.48,-0.46,0.55,1.0,28.86,29.65,0.0745981,0.0,19.26332920833334,nan,-99.61436519786912,nan,0.0,0.0,9936.8623,0.0,0.0,2612.9,0.0
2809.0,27.0,30.0,77.0,139.0,111.0,nan,-0.82,-7.92,0.87,3.1,-82.88,271.71,-1.41,0.23,-0.15,0.51,-0.48,-0.46,0.55,1.0,28.86,29.65,0.0745981,0.0,19.26332925,nan,-99.6143651217656,nan,0.0,0.0,9936.8623,0.0,0.0,2612.9,0.0
2826.0,18.0,30.0,52.0,125.0,97.0,nan,-0.81,-7.95,0.96,3.12,-82.85,271.71,1.67,-0.33,-0.22,0.51,-0.48,-0.46,0.55,1.0,28.86,29.65,0.0745981,0.0,19.263329291666665,nan,-99.61436504566213,nan,0.0,0.0,9936.8623,0.0,0.0,2612.9,0.0
2849.0,26.0,29.0,78.0,133.0,111.0,nan,-0.75,-7.79,0.86,3.14,-82.86,271.71,-0.29,0.02,-0.01,0.51,-0.48,-0.46,0.55,1.0,28.86,29.65,0.0745981,0.0,19.263329333333335,nan,-99.61436496955861,nan,0.0,0.0,9936.8623,0.0,0.0,2612.9,0.0
2869.0,27.0,30.0,78.0,138.0,109.0,nan,-0.67,-7.79,0.98,3.16,-82.86,271.71,0.13,0.02,-0.15,0.51,-0.48,-0.46,0.55,1.0,28.86,29.65,0.0745981,0.0,19.263329375,nan,-99.61436489345513,nan,0.0,0.0,9936.8623,0.0,0.0,2612.9,0.0
2894.0,37.0,25.0,51.0,137.0,111.0,nan,-0.63,-7.8,1.02,3.17,-82.84,271.71,-0.92,0.3,-0.64,0.51,-0.48,-0.46,0.55,1.0,28.86,29.65,0.0745981,0.0,19.263329375,nan,-99.61436489345513,nan,0.0,0.0,9936.8623,0.0,0.0,0.0,0.0
2918.0,26.0,30.0,68.0,137.0,111.0,nan,-0.63,-7.8,1.02,3.17,-82.84,271.71,0.0,0.0,0.0,0.51,-0.48,-0.46,0.55,1.0,28.86,29.65,0.0745981,0.0,19.263329416666664,nan,-99.61436481735161,nan,0.0,0.0,9936.8623,0.0,0.0,2612.9,0.0
2935.0,29.0,17.0,67.0,152.0,111.0,nan,-0.7,-7.93,0.97,3.2,-82.83,271.71,0.83,-0.19,-0.36,0.51,-0.48,-0.46,0.55,1.0,28.86,29.65,0.0745981,0.0,19.263329458333335,nan,-99.61436474124814,nan,0.0,0.0,9936.8623,0.0,0.0,2612.9,0.0
2960.0,17.0,30.0,72.0,156.0,75.0,nan,-0.81,-7.97,0.94,3.22,-82.85,271.7,-1.13,0.3,-0.36,0.51,-0.48,-0.46,0.55,1.0,28.86,29.65,0.0745981,0.0,19.263329500000005,nan,-99.6143646651446,nan,0.0,0.0,9936.8623,0.0,0.0,2612.9,0.0
2983.0,17.0,26.0,78.0,138.0,104.0,nan,-0.69,-7.84,0.93,3.23,-82.85,271.7,0.48,-0.12,-0.36,0.51,-0.48,-0.46,0.55,1.0,28.86,29.65,0.0745981,0.0,19.263329541666668,nan,-99.61436458904112,nan,0.0,0.0,9936.8623,0.0,0.0,2612.9,0.0
3002.0,31.0,29.0,98.0,155.0,75.0,nan,-0.75,-7.91,1.0,3.25,-82.84,271.7,0.13,0.09,-0.22,0.51,-0.48,-0.46,0.55,1.0,28.86,29.65,0.0745981,0.0,19.263329583333334,nan,-99.61436451293761,nan,0.0,0.0,9936.8623,0.0,0.0,2612.9,0.0
3025.0,24.0,17.0,146.0,159.0,117.0,nan,-0.64,-7.85,0.93,3.25,-82.88,271.7,-1.62,0.02,-0.36,0.51,-0.48,-0.46,0.55,1.0,28.86,29.65,0.0745981,0.0,19.263329625000004,nan,-99.61436443683412,nan,0.0,0.0,9936.8623,0.0,0.0,2612.9,0.0
3045.0,32.0,29.0,158.0,161.0,110.0,nan,-0.71,-7.99,0.93,3.26,-82.89,271.7,-0.08,0.02,-0.5,0.51,-0.48,-0.46,0.55,1.0,28.86,29.65,0.0745981,0.0,19.263329625000004,nan,-99.61436443683412,nan,0.0,0.0,9936.8623,0.0,0.0,0.0,0.0
3068.0,26.0,31.0,72.0,154.0,111.0,nan,-0.66,-7.8,0.84,3.27,-82.91,271.69,-0.78,0.09,-0.36,0.51,-0.48,-0.46,0.55,1.0,28.86,29.65,0.0745981,0.0,19.263329666666667,nan,-99.61436436073062,nan,0.0,0.0,9936.8623,0.0,0.0,2612.9,0.0
3087.0,29.0,30.0,157.0,146.0,123.0,nan,-0.76,-7.99,0.94,3.29,-82.91,271.69,0.2,-0.05,-0.08,0.51,-0.48,-0.46,0.55,1.0,28.86,29.62,0.0745989,0.0,19.26332970833333,nan,-99.61436428462713,nan,0.0,0.0,9936.8623,0.0,0.0,2612.9,0.0
3112.0,37.0,30.0,151.0,133.0,111.0,nan,-0.76,-7.91,1.02,3.32,-82.89,271.7,0.41,-0.05,-0.43,0.51,-0.48,-0.46,0.55,1.0,28.86,29.62,0.0745989,0.0,19.26332975,nan,-99.6143642085236,nan,0.0,0.0,9936.8623,0.0,0.0,2612.9,0.0
3139.0,21.0,17.0,86.0,138.0,96.0,nan,-0.76,-7.84,0.93,3.34,-82.87,271.71,1.25,-0.4,-0.08,0.51,-0.48,-0.46,0.55,1.0,28.86,29.62,0.0745989,0.0,19.26332979166667,nan,-99.61436413242009,nan,0.0,0.0,9936.8623,0.0,0.0,2612.9,0.0
3162.0,17.0,30.0,108.0,138.0,110.0,nan,-0.72,-7.91,0.99,3.35,-82.84,271.71,1.53,-0.33,-0.29,0.51,-0.48,-0.46,0.55,1.0,28.86,29.62,0.0745989,0.0,19.263329833333337,nan,-99.6143640563166,nan,0.0,0.0,9936.8623,0.0,0.0,2612.9,0.0
3181.0,29.0,30.0,56.0,132.0,110.0,nan,-0.76,-7.92,0.98,3.36,-82.84,271.71,-0.01,-0.05,-0.36,0.51,-0.48,-0.46,0.55,1.0,28.86,29.62,0.0745989,0.0,19.263329833333337,nan,-99.6143640563166,nan,0.0,0.0,9936.8623,0.0,0.0,0.0,0.0
3204.0,18.0,31.0,147.0,159.0,125.0,nan,-0.67,-7.91,1.02,3.37,-82.79,271.72,2.16,-0.61,-0.5,0.51,-0.48,-0.46,0.55,1.0,28.86,29.62,0.0745989,0.0,19.263329875,nan,-99.6143639802131,nan,0.0,0.0,9936.8623,0.0,0.0,2612.9,0.0
3224.0,27.0,29.0,78.0,161.0,124.0,nan,-0.75,-7.96,0.94,3.38,-82.8,271.72,-0.22,-0.05,-0.08,0.51,-0.48,-0.46,0.55,1.0,28.86,29.62,0.0745989,0.0,19.263329916666663,nan,-99.61436390410961,nan,0.0,0.0,9936.8623,0.0,0.0,2612.9,0.0
3249.0,27.0,30.0,52.0,134.0,111.0,nan,-0.72,-7.93,1.0,3.4,-82.82,271.73,-0.78,-0.12,-0.29,0.51,-0.48,-0.46,0.55,1.0,28.86,29.62,0.0745989,0.0,19.26333,nan,-99.6143638280061,nan,0.0,0.0,9936.8623,0.0,0.0,2612.9,0.0
3266.0,26.0,27.0,87.0,138.0,111.0,nan,-0.82,-8.02,0.94,3.41,-82.81,271.73,0.76,-0.33,-0.29,0.51,-0.48,-0.46,0.55,1.0,28.86,29.62,0.0745989,0.0,19.26333,nan,-99.61436375190262,nan,0.0,0.0,9936.8623,1.0,0.0,2612.9,0.0
3289.0,21.0,17.0,67.0,161.0,75.0,nan,-0.77,-8.0,0.91,3.44,-82.88,271.73,-0.43,-0.19,-0.01,0.51,-0.48,-0.46,0.55,1.0,28.86,29.62,0.0745989,0.0,19.263330085470088,nan,-99.61436367579908,nan,0.0,0.0,9936.8623,0.0,0.0,2612.9,0.0
3315.0,16.0,29.0,77.0,138.0,102.0,nan,-0.65,-7.84,0.93,3.45,-82.9,271.73,-0.57,-0.19,-0.36,0.51,-0.48,-0.46,0.55,1.0,28.86,29.62,0.0745989,0.0,19.26333012820513,nan,-99.6143635996956,nan,0.0,0.0,9936.8623,0.0,0.0,2612.9,0.0
3341.0,26.0,30.0,77.0,155.0,109.0,nan,-0.72,-7.93,0.93,3.46,-82.95,271.73,-2.25,0.16,-0.36,0.51,-0.48,-0.46,0.55,1.0,28.86,29.62,0.0745989,0.0,19.263330170940172,nan,-99.61436352359209,nan,0.0,0.0,9936.8623,0.0,0.0,2612.9,0.0
3358.0,27.0,30.0,108.0,139.0,97.0,nan,-0.66,-7.78,0.83,3.47,-82.94,271.74,0.69,-0.54,-0.22,0.51,-0.48,-0.46,0.55,1.0,28.86,29.62,0.0745989,0.0,19.263330170940172,nan,-99.61436352359209,nan,0.0,0.0,9936.8623,0.0,0.0,0.0,0.0
3381.0,26.0,30.0,72.0,125.0,104.0,nan,-0.76,-7.97,0.88,3.48,-82.95,271.74,-0.08,-0.05,-0.15,0.51,-0.48,-0.46,0.55,1.0,28.86,29.62,0.0745989,0.0,19.263330213675214,nan,-99.6143634474886,nan,0.0,0.0,9936.8623,0.0,0.0,2612.9,0.0
3400.0,26.0,30.0,39.0,136.0,111.0,nan,-0.73,-7.81,0.86,3.5,-82.96,271.74,-0.15,-0.26,-0.15,0.51,-0.48,-0.46,0.55,1.0,28.86,29.62,0.0745989,0.0,19.263330256410256,nan,-99.6143633713851,nan,0.0,0.0,9936.8623,0.0,0.0,2612.9,0.0
3425.0,26.0,30.0,135.0,155.0,110.0,nan,-0.77,-7.98,0.94,3.51,-82.91,271.75,2.65,-0.68,-0.36,0.51,-0.48,-0.46,0.55,1.0,28.86,29.62,0.0745989,0.0,19.2633302991453,nan,-99.6143632952816,nan,0.0,0.0,9936.8623,0.0,0.0,2612.9,0.0
3443.0,29.0,27.0,120.0,138.0,111.0,nan,-0.75,-7.81,0.9,3.52,-82.92,271.76,-0.43,-0.19,-0.08,0.51,-0.48,-0.46,0.55,1.0,28.86,29.62,0.0745989,0.0,19.26333034188034,nan,-99.61436321917807,nan,0.0,0.0,9936.8623,0.0,0.0,2613.0,0.0
3465.0,30.0,18.0,68.0,133.0,108.0,nan,-0.7,-7.99,0.96,3.53,-82.88,271.77,2.16,-0.68,-0.22,0.51,-0.48,-0.46,0.55,1.0,28.86,29.62,0.0745989,0.0,19.26333034188034,nan,-99.61436321917807,nan,0.0,0.0,9936.8623,0.0,0.0,0.0,0.0
3485.0,31.0,29.0,124.0,154.0,111.0,nan,-0.71,-7.9,0.94,3.55,-82.84,271.78,2.23,-0.54,-0.08,0.51,-0.48,-0.46,0.55,1.0,28.86,29.62,0.0745989,0.0,19.263330384615383,nan,-99.6143631430746,nan,0.0,0.0,9936.8623,0.0,0.0,2613.0,0.0
3509.0,30.0,31.0,109.0,139.0,119.0,nan,-0.72,-7.91,1.02,3.57,-82.76,271.8,2.86,-0.75,-0.01,0.51,-0.48,-0.46,0.55,1.0,28.86,29.62,0.0745989,0.0,19.263330427350425,nan,-99.61436306697108,nan,0.0,0.0,9936.8623,0.0,0.0,2613.0,0.0
3534.0,25.0,30.0,77.0,160.0,111.0,nan,-0.66,-7.78,1.08,3.57,-82.76,271.8,-0.29,-0.26,-0.43,0.51,-0.48,-0.46,0.55,1.0,28.86,29.62,0.0745989,0.0,19.263330470085474,nan,-99.6143629908676,nan,0.0,0.0,9936.8623,0.0,0.0,2613.0,0.0
3557.0,37.0,22.0,53.0,148.0,97.0,nan,-0.74,-7.97,1.03,3.58,-82.77,271.81,-0.57,-0.26,-0.43,0.51,-0.48,-0.46,0.55,1.0,28.86,29.66,0.0745989,0.0,19.26333051282051,nan,-99.61436291476409,nan,0.0,0.0,9936.8623,0.0,0.0,2613.0,0.0
3579.0,30.0,30.0,52.0,135.0,76.0,nan,-0.65,-7.89,0.98,3.58,-82.79,271.82,-0.71,-0.4,-0.57,0.51,-0.48,-0.46,0.55,1.0,28.86,29.66,0.0745989,0.0,19.26333055555555,nan,-99.61436283866061,nan,0.0,0.0,9936.8623,0.0,0.0,2613.0,0.0
3603.0,16.0,29.0,52.0,125.0,103.0,nan,-0.72,-8.04,0.92,3.58,-82.86,271.81,-3.16,0.09,-0.43,0.51,-0.48,-0.46,0.55,1.0,28.86,29.66,0.0745989,0.0,19.2633305982906,nan,-99.61436276255709,nan,0.0,0.0,9936.8623,0.0,0.0,2613.0,0.0
3621.0,24.0,30.0,108.0,138.0,110.0,nan,-0.58,-7.96,0.88,3.58,-82.89,271.82,-1.2,-0.47,-0.36,0.51,-0.48,-0.46,0.55,1.0,28.86,29.66,0.0745989,0.0,19.2633305982906,nan,-99.61436276255709,nan,0.0,0.0,9936.8623,0.0,0.0,0.0,0.0
3644.0,24.0,29.0,107.0,136.0,111.0,nan,-0.66,-8.07,0.9,3.58,-82.94,271.82,-2.11,-0.12,-0.36,0.51,-0.48,-0.46,0.55,1.0,28.86,29.66,0.0745989,0.0,19.263330641025643,nan,-99.61436268645362,nan,0.0,0.0,9936.8623,0.0,0.0,2613.0,0.0
3664.0,26.0,31.0,68.0,139.0,111.0,nan,-0.6,-7.85,0.81,3.59,-83.0,271.82,-2.67,-0.19,-0.22,0.51,-0.48,-0.46,0.55,1.0,28.86,29.66,0.0745989,0.0,19.263330683760685,nan,-99.61436261035008,nan,0.0,0.0,9936.8623,0.0,0.0,2613.0,0.0
3687.0,30.0,30.0,66.0,139.0,75.0,nan,-0.58,-7.85,0.82,3.6,-83.01,271.85,0.13,-0.54,-0.08,0.51,-0.48,-0.46,0.55,1.0,28.86,29.66,0.0745989,0.0,19.263330726495727,nan,-99.6143625342466,nan,0.0,0.0,9936.8623,0.0,0.0,2613.0,0.0
3713.0,28.0,30.0,67.0,138.0,101.0,nan,-0.57,-7.9,1.0,3.6,-82.97,271.86,1.88,-0.75,-0.08,0.51,-0.48,-0.46,0.55,1.0,28.86,29.66,0.0745989,0.0,19.26333076923077,nan,-99.61436245814309,nan,0.0,0.0,9936.8623,0.0,0.0,2613.0,0.0
3736.0,19.0,21.0,135.0,133.0,110.0,nan,-0.58,-7.86,1.02,3.6,-82.91,271.88,2.3,-0.89,-0.01,0.51,-0.48,-0.46,0.55,1.0,28.86,29.66,0.0745989,0.0,19.26333081196581,nan,-99.61436238203957,nan,0.0,0.0,9936.8623,0.0,0.0,2613.0,0.0
3755.0,38.0,29.0,120.0,153.0,125.0,nan,-0.54,-7.83,1.09,3.6,-82.92,271.89,-0.71,-0.4,-0.15,0.51,-0.48,-0.46,0.55,1.0,28.86,29.66,0.0745989,0.0,19.263330854700854,nan,-99.6143623059361,nan,0.0,0.0,9936.8623,0.0,0.0,2613.0,0.0
3778.0,37.0,30.0,78.0,137.0,110.0,nan,-0.62,-7.86,0.91,3.6,-82.92,271.9,0.06,-0.54,-0.15,0.51,-0.48,-0.46,0.55,1.0,28.86,29.66,0.0745989,0.0,19.263330854700854,nan,-99.6143623059361,nan,0.0,0.0,9936.8623,0.0,0.0,0.0,0.0
3798.0,26.0,30.0,67.0,137.0,111.0,nan,-0.55,-7.81,0.84,3.6,-82.9,271.91,1.74,-0.68,-0.36,0.51,-0.48,-0.46,0.55,1.0,28.86,29.66,0.0745989,0.0,19.263330897435896,nan,-99.61436222983257,nan,0.0,0.0,9936.8623,0.0,0.0,2613.0,0.0
3821.0,26.0,27.0,99.0,156.0,110.0,nan,-0.64,-8.01,0.85,3.61,-82.86,271.92,2.3,-0.68,-0.15,0.51,-0.48,-0.46,0.55,1.0,28.86,29.66,0.0745989,0.0,19.26333094017094,nan,-99.61436215372908,nan,0.0,0.0,9936.8623,0.0,0.0,2613.0,0.0
3840.0,27.0,30.0,88.0,139.0,111.0,nan,-0.54,-7.95,1.01,3.6,-82.8,271.94,3.07,-0.89,-0.15,0.51,-0.48,-0.46,0.55,1.0,28.86,29.66,0.0745989,0.0,19.263330982905988,nan,-99.61436207762557,nan,0.0,0.0,9936.8623,0.0,0.0,2613.0,0.0
3863.0,31.0,17.0,98.0,154.0,110.0,nan,-0.64,-8.04,1.1,3.61,-82.77,271.95,1.25,-0.54,-0.08,0.51,-0.48,-0.46,0.55,1.0,28.86,29.66,0.0745989,0.0,19.26333102564103,nan,-99.61436200152208,nan,0.0,0.0,9936.8623,0.0,0.0,2613.0,0.0
3883.0,37.0,30.0,78.0,139.0,116.0,nan,-0.53,-7.85,1.03,3.61,-82.78,271.96,-0.99,-0.47,-0.22,0.51,-0.48,-0.46,0.55,1.0,28.86,29.66,0.0745989,0.0,19.26333102564103,nan,-99.61436200152208,nan,0.0,0.0,9936.8623,0.0,0.0,0.0,0.0
3905.0,17.0,30.0,109.0,138.0,76.0,nan,-0.63,-7.7,0.85,3.62,-82.86,271.97,-2.53,-0.26,-0.29,0.51,-0.48,-0.46,0.55,1.0,28.86,29.66,0.0745989,0.0,19.263331068376065,nan,-99.61436192541858,nan,0.0,0.0,9936.8623,0.0,0.0,2613.0,0.0
3932.0,16.0,17.0,112.0,137.0,102.0,nan,-0.71,-7.93,0.94,3.62,-82.89,271.98,-1.06,-0.47,-0.5,0.51,-0.48,-0.46,0.55,1.0,28.86,29.66,0.0745989,0.0,19.263331111111114,nan,-99.61436184931509,nan,0.0,0.0,9936.8623,0.0,0.0,2613.0,0.0
3955.0,27.0,30.0,66.0,154.0,75.0,nan,-0.67,-7.87,0.91,3.62,-82.92,271.99,-1.41,-0.4,-0.43,0.51,-0.48,-0.46,0.55,1.0,28.86,29.66,0.0745989,0.0,19.263331153846156,nan,-99.61436177321158,nan,0.0,0.0,9936.8623,0.0,0.0,2613.0,0.0
3974.0,17.0,30.0,119.0,154.0,102.0,nan,-0.66,-7.94,0.96,3.63,-82.96,271.99,-1.97,-0.26,-0.36,0.51,-0.48,-0.46,0.55,1.0,28.86,29.66,0.0745989,0.0,19.2633311965812,nan,-99.6143616971081,nan,0.0,0.0,9936.8623,0.0,0.0,2613.0,0.0
3997.0,24.0,29.0,99.0,138.0,111.0,nan,-0.66,-7.98,0.82,3.63,-82.97,272.01,-0.01,-0.82,-0.15,0.5,-0.48,-0.46,0.55,1.0,28.86,29.66,0.0745989,0.0,19.26333123931624,nan,-99.61436162100456,nan,0.0,0.0,9936.8623,0.0,0.0,2613.0,0.0
4017.0,25.0,29.0,77.0,139.0,112.0,nan,-0.65,-7.85,0.86,3.63,-82.98,272.01,-0.15,-0.4,-0.36,0.5,-0.48,-0.46,0.55,1.0,28.86,29.56,0.0746022,0.0,19.263331282051283,nan,-99.61436154490107,nan,0.0,0.0,9936.8623,0.0,0.0,2613.0,0.0
4042.0,17.0,31.0,108.0,137.0,110.0,nan,-0.73,-7.9,0.87,3.65,-82.97,272.03,0.97,-0.75,-0.01,0.5,-0.48,-0.46,0.55,1.0,28.86,29.56,0.0746022,0.0,19.263331324786325,nan,-99.61436146879757,nan,0.0,0.0,9936.8623,0.0,0.0,2613.0,0.0
4061.0,17.0,29.0,98.0,154.0,111.0,nan,-0.67,-7.85,1.02,3.65,-82.9,272.05,3.0,-1.03,-0.22,0.5,-0.48,-0.46,0.55,1.0,28.86,29.56,0.0746022,0.0,19.263331324786325,nan,-99.61436146879757,nan,0.0,0.0,9936.8623,0.0,0.0,0.0,0.0
4084.0,26.0,31.0,88.0,135.0,110.0,nan,-0.64,-7.89,0.97,3.66,-82.89,272.07,1.04,-0.89,-0.43,0.5,-0.48,-0.46,0.55,1.0,28.86,29.56,0.0746022,0.0,19.26333136752137,nan,-99.61436139269408,nan,0.0,0.0,9936.8623,0.0,0.0,2613.0,0.0
4111.0,24.0,26.0,88.0,137.0,111.0,nan,-0.71,-8.06,0.85,3.67,-82.86,272.09,2.23,-0.89,-0.15,0.5,-0.48,-0.46,0.55,1.0,28.86,29.56,0.0746022,0.0,19.26333141025641,nan,-99.61436131659057,nan,0.0,0.0,9936.8623,0.0,0.0,2613.0,0.0
4134.0,17.0,30.0,67.0,155.0,76.0,nan,-0.61,-7.82,0.97,3.68,-82.84,272.1,0.69,-0.68,-0.08,0.5,-0.48,-0.46,0.55,1.0,28.86,29.56,0.0746022,0.0,19.26333145299145,nan,-99.61436124048709,nan,0.0,0.0,9936.8623,0.0,0.0,2613.0,0.0
4153.0,17.0,30.0,52.0,124.0,102.0,nan,-0.74,-7.95,1.04,3.69,-82.76,272.13,3.98,-1.24,-0.08,0.51,-0.48,-0.46,0.55,1.0,28.86,29.56,0.0746022,0.0,19.263331495726497,nan,-99.61436116438358,nan,0.0,0.0,9936.8623,0.0,0.0,2613.0,0.0
4176.0,24.0,19.0,77.0,138.0,111.0,nan,-0.63,-7.62,1.11,3.69,-82.75,272.14,-0.01,-0.54,-0.36,0.51,-0.48,-0.46,0.55,1.0,28.86,29.56,0.0746022,0.0,19.26333153846154,nan,-99.61436108828009,nan,0.0,0.0,9936.8623,0.0,0.0,2613.0,0.0
4196.0,18.0,30.0,109.0,158.0,124.0,nan,-0.71,-7.83,1.05,3.69,-82.76,272.15,-0.85,-0.61,-0.43,0.5,-0.48,-0.46,0.55,1.0,28.86,29.56,0.0746022,0.0,19.26333158119658,nan,-99.61436101217656,nan,0.0,0.0,9936.8623,0.0,0.0,2613.0,0.0
4218.0,27.0,30.0,82.0,147.0,119.0,nan,-0.64,-7.8,0.92,3.68,-82.77,272.16,-0.5,-0.82,-0.78,0.5,-0.48,-0.46,0.55,1.0,28.86,29.56,0.0746022,0.0,19.26333158119658,nan,-99.61436101217656,nan,0.0,0.0,9936.8623,0.0,0.0,0.0,0.0
4238.0,20.0,18.0,109.0,155.0,110.0,nan,-0.66,-8.04,0.96,3.67,-82.84,272.16,-3.16,-0.12,-0.99,0.5,-0.48,-0.46,0.55,1.0,28.86,29.56,0.0746022,0.0,19.263331666666666,nan,-99.61436093607308,nan,0.0,0.0,9936.8623,0.0,0.0,2613.0,0.0
4261.0,17.0,30.0,66.0,160.0,109.0,nan,-0.59,-8.03,0.89,3.67,-82.87,272.17,-1.2,-0.68,-0.57,0.5,-0.48,-0.46,0.55,1.0,28.86,29.56,0.0746022,0.0,19.263331626016257,nan,-99.61436085996957,nan,0.0,0.0,9936.8623,1.0,0.0,2613.0,0.0
4280.0,16.0,27.0,52.0,125.0,110.0,nan,-0.6,-8.09,0.98,3.66,-82.91,272.18,-1.83,-0.47,-0.5,0.5,-0.48,-0.46,0.55,1.0,28.86,29.56,0.0746022,0.0,19.263331585365858,nan,-99.61436078386609,nan,0.0,0.0,9936.8623,0.0,0.0,2613.0,0.0
4303.0,27.0,30.0,108.0,137.0,112.0,nan,-0.57,-7.87,0.8,3.66,-83.01,272.2,-0.29,-0.89,-0.43,0.5,-0.48,-0.46,0.55,1.0,28.86,29.56,0.0746022,0.0,19.26333154471545,nan,-99.61436070776257,nan,0.0,0.0,9936.8623,0.0,0.0,2613.0,0.0
4330.0,37.0,30.0,77.0,139.0,110.0,nan,-0.57,-7.84,0.73,3.66,-83.05,272.21,-1.27,-0.4,-0.22,0.5,-0.48,-0.46,0.55,1.0,28.86,29.56,0.0746022,0.0,19.263331504065043,nan,-99.6143606316591,nan,0.0,0.0,9936.8623,0.0,0.0,2613.0,0.0
4353.0,32.0,29.0,53.0,139.0,111.0,nan,-0.5,-7.84,0.91,3.65,-83.04,272.22,0.48,-0.82,-0.36,0.5,-0.48,-0.46,0.55,1.0,28.86,29.56,0.0746022,0.0,19.263331504065043,nan,-99.6143606316591,nan,0.0,0.0,9936.8623,0.0,0.0,0.0,0.0
4372.0,26.0,31.0,56.0,134.0,110.0,nan,-0.57,-8.08,0.9,3.64,-83.01,272.24,2.09,-1.03,-0.22,0.5,-0.48,-0.46,0.55,1.0,28.86,29.56,0.0746022,0.0,19.263331463414634,nan,-99.61436055555556,nan,0.0,0.0,9936.8623,0.0,0.0,2613.0,0.0
4395.0,26.0,29.0,146.0,138.0,111.0,nan,-0.51,-7.88,1.04,3.64,-83.02,272.25,-0.78,-0.61,-0.43,0.5,-0.48,-0.46,0.55,1.0,28.86,29.56,0.0746022,0.0,19.263331422764228,nan,-99.61436047945205,nan,0.0,0.0,9936.8623,0.0,0.0,2613.0,0.0
4415.0,25.0,30.0,52.0,139.0,110.0,nan,-0.67,-8.01,0.98,3.64,-82.99,272.27,1.11,-0.89,-0.01,0.5,-0.48,-0.46,0.55,1.0,28.86,29.56,0.0746022,0.0,19.263331382113822,nan,-99.61436040334857,nan,0.0,0.0,9936.8623,0.0,0.0,2613.0,0.0
4437.0,27.0,29.0,71.0,155.0,111.0,nan,-0.6,-7.86,0.96,3.64,-82.98,272.29,0.69,-1.03,-0.22,0.5,-0.48,-0.46,0.55,1.0,28.86,29.56,0.0746022,0.0,19.263331341463413,nan,-99.61436032724505,nan,0.0,0.0,9936.8623,0.0,0.0,2613.5,0.0
4457.0,37.0,26.0,77.0,138.0,111.0,nan,-0.67,-7.98,0.95,3.65,-82.98,272.3,0.13,-0.68,-0.22,0.5,-0.48,-0.46,0.55,1.0,28.86,29.56,0.0746022,0.0,19.263331300813007,nan,-99.61436025114158,nan,0.0,0.0,9936.8623,0.0,0.0,2613.5,0.0
4480.0,26.0,31.0,67.0,154.0,111.0,nan,-0.57,-8.07,0.91,3.64,-82.91,272.34,1.81,-0.89,-0.08,0.5,-0.48,-0.46,0.55,1.0,28.85,29.6,0.0746064,0.0,19.263331260162605,nan,-99.61436017503806,nan,0.0,0.0,9936.8623,0.0,0.0,2613.5,0.0
4512.0,27.0,30.0,109.0,138.0,110.0,nan,-0.52,-8.02,0.91,3.64,-82.88,272.36,1.74,-1.03,0.13,0.5,-0.48,-0.46,0.56,1.0,28.85,29.6,0.0746064,0.0,19.263331219512192,nan,-99.61436009893458,nan,0.0,0.0,9936.8623,0.0,0.0,2613.5,0.0
4531.0,17.0,30.0,52.0,155.0,110.0,nan,-0.6,-8.06,1.01,3.65,-82.84,272.38,1.88,-1.03,-0.01,0.5,-0.47,-0.46,0.56,1.0,28.85,29.6,0.0746064,0.0,19.26333117886179,nan,-99.61436002283105,nan,0.0,0.0,9936.8623,0.0,0.0,2613.5,0.0
4554.0,25.0,19.0,66.0,139.0,111.0,nan,-0.64,-7.84,0.96,3.66,-82.86,272.4,-0.64,-0.75,0.34,0.5,-0.48,-0.46,0.56,1.0,28.85,29.6,0.0746064,0.0,19.26333117886179,nan,-99.61436002283105,nan,0.0,0.0,9936.8623,0.0,0.0,0.0,0.0
4574.0,31.0,28.0,124.0,155.0,111.0,nan,-0.69,-7.8,0.96,3.68,-82.86,272.42,-0.43,-0.82,0.2,0.5,-0.48,-0.46,0.56,1.0,28.85,29.6,0.0746064,0.0,19.263331138211385,nan,-99.61435994672756,nan,0.0,0.0,9936.8623,0.0,0.0,2613.5,0.0
4597.0,18.0,30.0,88.0,137.0,111.0,nan,-0.73,-7.74,0.88,3.69,-82.9,272.43,-1.48,-0.61,0.13,0.5,-0.48,-0.46,0.56,1.0,28.85,29.6,0.0746064,0.0,19.263331097560975,nan,-99.61435987062406,nan,0.0,0.0,9936.8623,0.0,0.0,2613.5,0.0
4616.0,39.0,31.0,108.0,160.0,116.0,nan,-0.64,-7.81,1.0,3.69,-82.93,272.44,-1.69,-0.54,-0.36,0.5,-0.48,-0.46,0.56,1.0,28.85,29.6,0.0746064,0.0,19.26333105691057,nan,-99.61435979452057,nan,0.0,0.0,9936.8623,0.0,0.0,2613.5,0.0
4639.0,27.0,30.0,52.0,131.0,110.0,nan,-0.64,-8.05,0.91,3.7,-82.97,272.45,-1.48,-0.61,-0.22,0.5,-0.48,-0.46,0.56,1.0,28.85,29.6,0.0746064,0.0,19.263331016260164,nan,-99.61435971841706,nan,0.0,0.0,9936.8623,0.0,0.0,2613.5,0.0
4659.0,19.0,30.0,107.0,161.0,109.0,nan,-0.59,-8.03,0.94,3.7,-83.01,272.46,-2.18,-0.47,-0.01,0.5,-0.48,-0.46,0.56,1.0,28.85,29.6,0.0746064,0.0,19.263331016260164,nan,-99.61435971841706,nan,0.0,0.0,9936.8623,0.0,0.0,0.0,0.0
4681.0,25.0,26.0,78.0,137.0,110.0,nan,-0.69,-7.79,0.87,3.74,-82.98,272.5,1.95,-1.1,0.27,0.5,-0.48,-0.46,0.56,1.0,28.85,29.6,0.0746064,0.0,19.263330975609755,nan,-99.61435964231357,nan,0.0,0.0,9936.8623,0.0,0.0,2613.5,0.0
4708.0,27.0,25.0,88.0,138.0,111.0,nan,-0.81,-7.65,0.9,3.77,-82.95,272.52,1.67,-0.82,0.48,0.5,-0.48,-0.46,0.56,1.0,28.85,29.6,0.0746064,0.0,19.26333093495935,nan,-99.61435956621004,nan,0.0,0.0,9936.8623,0.0,0.0,2613.5,0.0
4730.0,31.0,28.0,82.0,154.0,125.0,nan,-0.75,-7.51,1.01,3.78,-82.88,272.54,2.86,-1.24,0.06,0.5,-0.48,-0.46,0.56,1.0,28.85,29.6,0.0746064,0.0,19.263330894308947,nan,-99.61435949010655,nan,0.0,0.0,9936.8623,0.0,0.0,2613.5,0.0
4750.0,26.0,31.0,135.0,176.0,117.0,nan,-0.83,-7.76,1.11,3.8,-82.83,272.56,2.16,-1.03,-0.43,0.5,-0.47,-0.46,0.56,1.0,28.85,29.6,0.0746064,0.0,19.263330853658534,nan,-99.61435941400305,nan,0.0,0.0,9936.8623,0.0,0.0,2613.5,0.0
4773.0,37.0,27.0,39.0,183.0,111.0,nan,-0.66,-7.82,0.98,3.79,-82.87,272.57,-2.25,-0.61,-0.64,0.5,-0.48,-0.46,0.56,1.0,28.85,29.6,0.0746064,0.0,19.26333081300813,nan,-99.61435933789956,nan,0.0,0.0,9936.8623,0.0,0.0,2613.5,0.0
4792.0,22.0,17.0,109.0,146.0,110.0,nan,-0.69,-8.17,0.85,3.79,-82.85,272.59,1.46,-1.17,-0.43,0.5,-0.47,-0.46,0.56,1.0,28.85,29.6,0.0746064,0.0,19.26333081300813,nan,-99.61435933789956,nan,0.0,0.0,9936.8623,0.0,0.0,0.0,0.0
4815.0,31.0,29.0,98.0,137.0,110.0,nan,-0.7,-8.05,0.79,3.8,-82.87,272.61,-0.22,-0.75,-0.08,0.5,-0.47,-0.46,0.56,1.0,28.85,29.6,0.0746064,0.0,19.26333077235772,nan,-99.61435926179605,nan,0.0,0.0,9936.8623,0.0,0.0,2613.5,0.0
4835.0,37.0,29.0,52.0,138.0,111.0,nan,-0.75,-8.04,0.94,3.81,-82.86,272.63,0.76,-1.03,0.06,0.5,-0.47,-0.46,0.56,1.0,28.85,29.6,0.0746064,0.0,19.26333073170732,nan,-99.61435918569256,nan,0.0,0.0,9936.8623,0.0,0.0,2613.5,0.0
4858.0,26.0,26.0,87.0,137.0,110.0,nan,-0.74,-7.79,1.08,3.84,-82.87,272.66,-2.6,-0.54,-0.29,0.5,-0.47,-0.46,0.56,1.0,28.85,29.6,0.0746064,0.0,19.26333069105691,nan,-99.61435910958906,nan,0.0,0.0,9936.8623,0.0,0.0,2613.5,0.0
4884.0,27.0,30.0,77.0,137.0,111.0,nan,-0.74,-7.79,1.08,3.84,-82.87,272.66,0.0,0.0,0.0,0.5,-0.47,-0.46,0.56,1.0,28.85,29.6,0.0746064,0.0,19.263330650406502,nan,-99.61435903348557,nan,0.0,0.0,9936.8623,0.0,0.0,2613.5,0.0
4902.0,26.0,31.0,55.0,140.0,111.0,nan,-0.59,-7.84,0.9,3.84,-82.94,272.69,-1.62,-0.68,-0.5,0.5,-0.48,-0.46,0.56,1.0,28.85,29.6,0.0746064,0.0,19.263330609756103,nan,-99.61435895738204,nan,0.0,0.0,9936.8623,0.0,0.0,2613.5,0.0
4926.0,30.0,29.0,60.0,139.0,111.0,nan,-0.64,-7.93,0.81,3.84,-82.99,272.7,-2.04,-0.54,-0.22,0.5,-0.48,-0.46,0.56,1.0,28.85,29.6,0.0746064,0.0,19.26333056910569,nan,-99.61435888127856,nan,0.0,0.0,9936.8623,0.0,0.0,2613.5,0.0
4949.0,31.0,30.0,112.0,156.0,111.0,nan,-0.59,-7.86,0.92,3.84,-82.95,272.72,2.02,-1.24,-0.29,0.5,-0.47,-0.46,0.56,1.0,28.85,29.6,0.0745898,0.0,19.26333052845529,nan,-99.61435880517504,nan,0.0,0.0,9936.8623,0.0,0.0,2613.5,0.0
4971.0,27.0,30.0,77.0,138.0,111.0,nan,-0.68,-7.92,0.91,3.84,-82.96,272.73,0.06,-0.68,-0.22,0.5,-0.47,-0.46,0.56,1.0,28.85,29.6,0.0745898,0.0,19.26333052845529,nan,-99.61435880517504,nan,0.0,0.0,9936.8623,0.0,0.0,0.0,0.0
4994.0,27.0,30.0,77.0,153.0,109.0,nan,-0.56,-7.79,0.95,3.84,-82.96,272.75,-0.29,-0.82,-0.36,0.5,-0.47,-0.46,0.56,1.0,28.85,29.6,0.0745898,0.0,19.263330487804875,nan,-99.61435872907157,nan,0.0,0.0,9936.8623,0.0,0.0,2613.5,0.0
5013.0,30.0,31.0,77.0,138.0,110.0,nan,-0.7,-8.02,0.89,3.84,-82.93,272.77,1.81,-1.17,-0.43,0.5,-0.47,-0.46,0.56,1.0,28.85,29.6,0.0745898,0.0,19.263330447154473,nan,-99.61435865296805,nan,0.0,0.0,9936.8623,0.0,0.0,2613.5,0.0
5036.0,23.0,29.0,77.0,139.0,124.0,nan,-0.69,-8.06,0.8,3.83,-82.96,272.8,2.16,-1.31,-0.22,0.5,-0.47,-0.46,0.56,1.0,28.85,29.6,0.0745898,0.0,19.263330406504068,nan,-99.61435857686452,nan,0.0,0.0,9936.8623,0.0,0.0,2613.5,0.0
5063.0,26.0,30.0,77.0,148.0,110.0,nan,-0.69,-8.06,0.8,3.83,-82.96,272.8,0.0,0.0,0.0,0.5,-0.47,-0.46,0.56,1.0,28.85,29.6,0.0745898,0.0,19.26333036585366,nan,-99.61435850076104,nan,0.0,0.0,9936.8623,0.0,0.0,2613.5,0.0
5080.0,18.0,30.0,77.0,137.0,111.0,nan,-0.69,-8.0,1.02,3.83,-82.93,272.84,-0.29,-0.96,-0.22,0.5,-0.47,-0.46,0.56,1.0,28.85,29.6,0.0745898,0.0,19.263330325203253,nan,-99.61435842465752,nan,0.0,0.0,9936.8623,0.0,0.0,2613.5,0.0
5105.0,30.0,31.0,77.0,155.0,74.0,nan,-0.62,-7.9,0.97,3.83,-82.9,272.87,1.53,-1.45,-0.29,0.5,-0.47,-0.46,0.56,1.0,28.85,29.6,0.0745898,0.0,19.263330325203253,nan,-99.61435842465752,nan,0.0,0.0,9936.8623,0.0,0.0,0.0,0.0
5128.0,17.0,26.0,147.0,137.0,102.0,nan,-0.65,-8.03,0.96,3.83,-82.91,272.89,-0.36,-0.96,-0.36,0.5,-0.47,-0.46,0.56,1.0,28.85,29.6,0.0745898,0.0,19.263330284552847,nan,-99.61435834855405,nan,0.0,0.0,9936.8623,0.0,0.0,2613.5,0.0
5148.0,26.0,30.0,77.0,154.0,111.0,nan,-0.59,-7.88,0.9,3.83,-82.89,272.92,0.76,-1.31,0.13,0.5,-0.47,-0.46,0.56,1.0,28.85,29.6,0.0745898,0.0,19.263330243902438,nan,-99.61435827245053,nan,0.0,0.0,9936.8623,0.0,0.0,2613.5,0.0
5170.0,26.0,30.0,60.0,155.0,76.0,nan,-0.66,-8.03,1.03,3.83,-82.83,272.95,3.0,-1.52,-0.01,0.5,-0.47,-0.46,0.56,1.0,28.85,29.6,0.0745898,0.0,19.263330203252032,nan,-99.61435819634706,nan,0.0,0.0,9936.8623,0.0,0.0,2613.5,0.0
5190.0,17.0,26.0,109.0,124.0,102.0,nan,-0.7,-7.84,1.06,3.85,-82.81,272.97,0.41,-1.03,0.13,0.5,-0.47,-0.46,0.56,1.0,28.85,29.6,0.0745898,0.0,19.26333016260163,nan,-99.61435812024354,nan,0.0,0.0,9936.8623,0.0,0.0,2613.5,0.0
5212.0,28.0,31.0,120.0,148.0,76.0,nan,-0.71,-7.9,1.16,3.85,-82.75,273.0,2.65,-1.52,-0.01,0.5,-0.47,-0.46,0.56,1.0,28.85,29.6,0.0745898,0.0,19.263330121951217,nan,-99.61435804414006,nan,0.0,0.0,9936.8623,0.0,0.0,2613.5,0.0
5232.0,29.0,29.0,93.0,138.0,102.0,nan,-0.75,-7.91,1.08,3.87,-82.74,273.02,0.27,-1.17,0.13,0.5,-0.47,-0.46,0.56,1.0,28.85,29.6,0.0745898,0.0,19.263330121951217,nan,-99.61435804414006,nan,0.0,0.0,9936.8623,0.0,0.0,0.0,0.0
5255.0,27.0,31.0,52.0,154.0,110.0,nan,-0.74,-8.09,1.02,3.88,-82.74,273.07,0.13,-1.24,-0.01,0.5,-0.47,-0.46,0.56,1.0,28.85,29.6,0.0745898,0.0,19.263330081300815,nan,-99.61435796803653,nan,0.0,0.0,9936.8623,0.0,0.0,2613.5,0.0
5281.0,26.0,30.0,72.0,153.0,109.0,nan,-0.74,-8.09,1.02,3.88,-82.74,273.07,0.0,0.0,0.0,0.5,-0.47,-0.46,0.56,1.0,28.85,29.6,0.0745898,0.0,19.26333004065041,nan,-99.61435789193304,nan,0.0,0.0,9936.8623,0.0,0.0,2613.5,0.0
5299.0,26.0,27.0,77.0,161.0,124.0,nan,-0.69,-7.99,0.97,3.9,-82.81,273.11,-2.04,-0.96,0.27,0.5,-0.47,-0.46,0.56,1.0,28.85,29.6,0.0745898,0.0,19.263329912280703,nan,-99.61435781582954,nan,0.0,0.0,9936.8623,1.0,0.0,2613.5,0.0
5324.0,26.0,28.0,77.0,140.0,75.0,nan,-0.59,-7.78,0.93,3.9,-82.85,273.13,-1.76,-1.1,-0.15,0.5,-0.47,-0.46,0.56,1.0,28.85,29.6,0.0745898,0.0,19.263329824561406,nan,-99.61435773972605,nan,0.0,0.0,9936.8623,0.0,0.0,2613.5,0.0
5346.0,17.0,25.0,52.0,123.0,103.0,nan,-0.68,-7.76,0.92,3.9,-82.91,273.14,-2.88,-0.75,-0.15,0.5,-0.47,-0.46,0.56,1.0,28.85,29.6,0.0745898,0.0,19.263329736842106,nan,-99.61435766362254,nan,0.0,0.0,9936.8623,0.0,0.0,2613.5,0.0
5366.0,28.0,25.0,77.0,153.0,76.0,nan,-0.61,-7.56,0.85,3.9,-82.97,273.16,-2.81,-1.03,-0.43,0.5,-0.47,-0.46,0.56,1.0,28.85,29.6,0.0745898,0.0,19.263329649122806,nan,-99.61435758751905,nan,0.0,0.0,9936.8623,0.0,0.0,2613.5,0.0
5389.0,20.0,29.0,52.0,125.0,101.0,nan,-0.69,-7.89,0.79,3.9,-83.03,273.18,-2.18,-0.96,-0.64,0.5,-0.47,-0.46,0.56,1.0,28.85,29.6,0.0745898,0.0,19.263329649122806,nan,-99.61435758751905,nan,0.0,0.0,9936.8623,0.0,0.0,0.0,0.0
5408.0,30.0,29.0,52.0,137.0,111.0,nan,-0.59,-7.8,0.72,3.88,-83.1,273.19,-3.16,-0.75,-0.85,0.5,-0.47,-0.46,0.56,1.0,28.86,29.69,0.0745973,0.0,19.26332956140351,nan,-99.61435751141555,nan,0.0,0.0,9936.8623,0.0,0.0,2613.5,0.0
5434.0,20.0,17.0,76.0,138.0,109.0,nan,-0.61,-8.09,0.76,3.87,-83.13,273.21,-0.64,-1.1,-0.71,0.5,-0.47,-0.46,0.56,1.0,28.86,29.69,0.0745973,0.0,19.263329473684212,nan,-99.61435743531206,nan,0.0,0.0,9936.8623,0.0,0.0,2613.5,0.0
5453.0,17.0,30.0,107.0,125.0,104.0,nan,-0.57,-7.88,0.69,3.86,-83.16,273.23,-0.43,-1.17,-0.36,0.5,-0.47,-0.46,0.56,1.0,28.86,29.69,0.0745973,0.0,19.263329385964912,nan,-99.61435735920853,nan,0.0,0.0,9936.8623,0.0,0.0,2613.5,0.0
5476.0,31.0,29.0,52.0,137.0,75.0,nan,-0.56,-7.73,0.64,3.85,-83.16,273.28,2.16,-1.59,-0.29,0.5,-0.47,-0.46,0.56,1.0,28.86,29.69,0.0745973,0.0,19.263329298245615,nan,-99.61435728310504,nan,0.0,0.0,9936.8623,0.0,0.0,2614.0,0.0
5502.0,16.0,29.0,52.0,137.0,101.0,nan,-0.53,-7.7,0.84,3.83,-83.11,273.3,2.3,-1.38,-0.64,0.5,-0.47,-0.46,0.56,1.0,28.86,29.69,0.0745973,0.0,19.263329210526315,nan,-99.61435720700153,nan,0.0,0.0,9936.8623,0.0,0.0,2614.0,0.0
5525.0,31.0,31.0,107.0,160.0,110.0,nan,-0.61,-7.93,0.96,3.82,-83.08,273.33,1.6,-1.45,-0.57,0.5,-0.47,-0.46,0.56,1.0,28.86,29.69,0.0745973,0.0,19.26332912280702,nan,-99.61435713089804,nan,0.0,0.0,9936.8623,0.0,0.0,2614.0,0.0
5545.0,27.0,31.0,107.0,135.0,111.0,nan,-0.56,-8.04,0.99,3.8,-83.08,273.35,-0.15,-1.17,-0.99,0.5,-0.47,-0.47,0.56,1.0,28.86,29.69,0.0745973,0.0,19.26332912280702,nan,-99.61435713089804,nan,0.0,0.0,9936.8623,0.0,0.0,0.0,0.0
5567.0,27.0,30.0,67.0,138.0,110.0,nan,-0.59,-8.11,0.84,3.79,-83.12,273.37,-1.41,-0.89,-0.43,0.5,-0.47,-0.47,0.56,1.0,28.86,29.69,0.0745973,0.0,19.263329035087725,nan,-99.61435705479454,nan,0.0,0.0,9936.8623,0.0,0.0,2614.0,0.0
5587.0,38.0,31.0,78.0,137.0,104.0,nan,-0.52,-8.01,0.83,3.78,-83.08,273.4,2.16,-1.59,-0.29,0.5,-0.47,-0.47,0.56,1.0,28.86,29.69,0.0745973,0.0,19.26332894736842,nan,-99.61435697869105,nan,0.0,0.0,9936.8623,0.0,0.0,2614.0,0.0
5610.0,20.0,28.0,125.0,154.0,118.0,nan,-0.63,-8.01,0.78,3.79,-83.03,273.43,3.0,-1.52,0.06,0.5,-0.47,-0.47,0.56,1.0,28.86,29.69,0.0745973,0.0,19.26332885964912,nan,-99.61435690258752,nan,0.0,0.0,9936.8623,0.0,0.0,2614.0,0.0
5630.0,26.0,31.0,78.0,125.0,111.0,nan,-0.55,-7.74,0.91,3.79,-82.98,273.46,2.72,-1.52,-0.08,0.5,-0.47,-0.47,0.56,1.0,28.86,29.69,0.0745973,0.0,19.263328771929825,nan,-99.61435682648401,nan,0.0,0.0,9936.8623,0.0,0.0,2614.0,0.0
5653.0,30.0,29.0,52.0,139.0,112.0,nan,-0.59,-7.77,1.24,3.79,-82.75,273.53,3.14,-1.59,-0.22,0.5,-0.47,-0.46,0.56,1.0,28.86,29.69,0.0745973,0.0,19.26332868421053,nan,-99.61435675038052,nan,0.0,0.0,9936.8623,0.0,0.0,2614.0,0.0
5679.0,27.0,31.0,77.0,155.0,110.0,nan,-0.59,-7.77,1.24,3.79,-82.75,273.53,0.0,0.0,0.0,0.5,-0.47,-0.46,0.56,1.0,28.86,29.69,0.0745973,0.0,19.26332868421053,nan,-99.61435675038052,nan,0.0,0.0,9936.8623,0.0,0.0,0.0,0.0
5696.0,27.0,31.0,67.0,153.0,112.0,nan,-0.62,-8.05,1.03,3.79,-82.62,273.6,3.77,-1.87,-0.15,0.5,-0.47,-0.46,0.56,1.0,28.86,29.69,0.0745973,0.0,19.263328596491228,nan,-99.61435667427702,nan,0.0,0.0,9936.8623,0.0,0.0,2614.0,0.0
5721.0,28.0,30.0,124.0,154.0,73.0,nan,-0.68,-8.1,1.13,3.8,-82.57,273.63,1.95,-1.45,0.34,0.5,-0.47,-0.46,0.56,1.0,28.86,29.69,0.0745973,0.0,19.263328508771927,nan,-99.61435659817353,nan,0.0,0.0,9936.8623,0.0,0.0,2614.0,0.0
5744.0,17.0,30.0,78.0,137.0,101.0,nan,-0.65,-7.81,1.14,3.81,-82.5,273.67,3.07,-1.94,0.55,0.5,-0.47,-0.46,0.56,1.0,28.86,29.69,0.0745973,0.0,19.26332842105263,nan,-99.61435652207003,nan,0.0,0.0,9936.8623,0.0,0.0,2614.0,0.0
5763.0,26.0,26.0,124.0,155.0,110.0,nan,-0.66,-7.84,1.2,3.82,-82.45,273.7,1.6,-1.59,0.2,0.5,-0.47,-0.46,0.56,1.0,28.86,29.69,0.0745973,0.0,19.263328333333337,nan,-99.61435644596654,nan,0.0,0.0,9936.8623,0.0,0.0,2614.0,0.0
5786.0,28.0,31.0,136.0,160.0,125.0,nan,-0.61,-7.73,1.24,3.83,-82.46,273.73,-1.06,-1.38,-0.01,0.5,-0.47,-0.46,0.56,1.0,28.86,29.69,0.0745973,0.0,19.263328245614034,nan,-99.614356369863,nan,0.0,0.0,9936.8623,0.0,0.0,2614.0,0.0
5806.0,26.0,38.0,77.0,148.0,111.0,nan,-0.64,-7.92,1.31,3.82,-82.45,273.76,-0.57,-1.52,-0.57,0.5,-0.47,-0.46,0.56,1.0,28.86,29.69,0.0745973,0.0,19.263328245614034,nan,-99.614356369863,nan,0.0,0.0,9936.8623,0.0,0.0,0.0,0.0
5829.0,19.0,29.0,51.0,126.0,110.0,nan,-0.7,-7.95,1.13,3.82,-82.57,273.77,-6.59,-0.54,-0.36,0.5,-0.47,-0.46,0.56,1.0,28.86,29.69,0.0745973,0.0,19.26332815789474,nan,-99.61435629375953,nan,0.0,0.0,9936.8623,0.0,0.0,2614.0,0.0
5848.0,30.0,21.0,51.0,138.0,118.0,nan,-0.67,-8.1,0.96,3.82,-82.67,273.79,-4.84,-1.1,-0.36,0.5,-0.47,-0.46,0.56,1.0,28.86,29.69,0.0745973,0.0,19.263328070175437,nan,-99.61435621765601,nan,0.0,0.0,9936.8623,0.0,0.0,2614.0,0.0
5871.0,27.0,28.0,82.0,153.0,109.0,nan,-0.67,-7.79,0.93,3.83,-82.83,273.83,-4.0,-0.82,-0.15,0.5,-0.47,-0.47,0.56,1.0,28.85,29.67,0.0746056,0.0,19.263327982456143,nan,-99.61435614155253,nan,0.0,0.0,9936.8623,0.0,0.0,2614.0,0.0
5903.0,18.0,18.0,109.0,143.0,74.0,nan,-0.72,-7.86,0.85,3.84,-82.86,273.86,-0.99,-1.52,-0.01,0.5,-0.47,-0.47,0.56,1.0,28.85,29.67,0.0746056,0.0,19.26332789473684,nan,-99.61435606544902,nan,0.0,0.0,9936.8623,0.0,0.0,2614.0,0.0
