time,p1,p2,p3,p4,p5,termite,ax,ay,az,rx,ry,rz,roll,pitch,yaw,q1,q2,q3,q4,calibration,temperature,humidity,pressure,flag_rm,lat,lacoord,lon,locoord,capacitive,o_lat,o_lon,used_lat,used_lon,altitude,flag_lm
0.0,19.0,32.0,108.0,137.0,118.0,nan,-0.67,-7.96,-1.07,6.19,-95.29,108.77,-0.71,-0.05,-0.36,-0.57,0.58,-0.46,0.36,1.0,25.62,33.92,0.0746309,0.0,19.26338833333333,nan,-99.61438833333337,nan,0.0,0.0,9936.8633,1.0,1.0,0.0,0.0
18.0,16.0,21.0,60.0,134.0,104.0,nan,-0.67,-7.91,-0.87,6.19,-95.27,108.78,-0.57,-0.12,-0.43,-0.57,0.58,-0.46,0.36,1.0,25.62,33.92,0.0746309,0.0,19.26338833333333,nan,-99.61438833333337,nan,0.0,0.0,9936.8633,0.0,0.0,0.0,0.0
44.0,30.0,18.0,120.0,166.0,103.0,nan,-1.18,-7.78,-0.77,6.21,-95.25,108.79,1.11,-0.33,-0.22,-0.57,0.58,-0.46,0.36,1.0,25.62,33.92,0.0746309,0.0,19.263389444444446,nan,-99.61438833333337,nan,0.0,0.0,9936.8633,0.0,0.0,0.0,0.0
67.0,43.0,32.0,78.0,142.0,118.0,nan,-0.95,-7.85,-0.7,6.21,-95.24,108.79,0.34,-0.19,-0.36,-0.57,0.58,-0.46,0.36,1.0,25.62,33.92,0.0746309,0.0,19.26339,nan,-99.61438833333337,nan,0.0,0.0,9936.8633,0.0,0.0,0.0,0.0
87.0,32.0,31.0,98.0,141.0,124.0,nan,-0.92,-7.83,-0.98,6.21,-95.27,108.79,-0.71,-0.05,-0.29,-0.57,0.58,-0.46,0.36,1.0,25.62,33.92,0.0746309,0.0,19.263390555555556,nan,-99.61438833333337,nan,0.0,0.0,9936.8633,0.0,0.0,0.0,0.0
110.0,31.0,32.0,59.0,137.0,126.0,nan,-1.09,-7.8,-0.53,6.22,-95.22,108.81,2.02,-0.47,-0.36,-0.57,0.58,-0.46,0.36,1.0,25.62,33.92,0.0746309,0.0,19.263391111111115,nan,-99.61438833333337,nan,0.0,0.0,9936.8633,0.0,0.0,0.0,0.0
129.0,31.0,31.0,67.0,139.0,111.0,nan,-0.61,-7.93,-1.03,6.19,-95.27,108.8,-1.69,0.16,-0.71,-0.57,0.58,-0.46,0.36,1.0,25.62,33.92,0.0746309,0.0,19.263391111111115,nan,-99.61438833333337,nan,0.0,0.0,9936.8633,0.0,0.0,0.0,0.0
152.0,19.0,33.0,68.0,145.0,97.0,nan,-1.21,-7.65,-0.66,6.21,-95.22,108.81,2.16,-0.54,-0.08,-0.57,0.58,-0.46,0.36,1.0,25.62,33.92,0.0746309,0.0,19.26339166666667,nan,-99.61438833333337,nan,0.0,0.0,9936.8633,0.0,0.0,0.0,0.0
171.0,17.0,21.0,112.0,144.0,133.0,nan,-0.67,-8.12,-0.78,6.18,-95.25,108.81,-0.99,-0.05,-0.71,-0.57,0.58,-0.46,0.36,1.0,25.62,33.92,0.0746309,0.0,19.263392222222222,nan,-99.61438833333337,nan,0.0,0.0,9936.8633,0.0,0.0,0.0,0.0
195.0,19.0,18.0,136.0,125.0,105.0,nan,-1.12,-7.58,-0.9,6.21,-95.25,108.82,0.62,-0.26,-0.08,-0.57,0.58,-0.46,0.36,1.0,25.62,33.92,0.0746309,0.0,19.263392777777778,nan,-99.61438833333337,nan,0.0,0.0,9936.8633,0.0,0.0,0.0,0.0
214.0,19.0,20.0,145.0,137.0,109.0,nan,-0.87,-8.05,-0.77,6.2,-95.24,108.82,0.69,-0.26,-0.22,-0.57,0.58,-0.46,0.36,1.0,25.62,33.92,0.0746309,0.0,19.263393333333333,nan,-99.61438833333337,nan,0.0,0.0,9936.8633,0.0,0.0,0.0,0.0
237.0,14.0,31.0,99.0,139.0,111.0,nan,-1.03,-7.84,-0.82,6.21,-95.23,108.83,1.88,-0.47,0.06,-0.57,0.58,-0.46,0.36,1.0,25.64,33.95,0.0746285,0.0,19.263393888888885,nan,-99.61438833333337,nan,0.0,0.0,9936.8633,0.0,0.0,0.0,0.0
268.0,40.0,20.0,137.0,131.0,102.0,nan,-0.91,-7.88,-0.7,6.2,-95.25,108.84,-1.27,-0.05,-0.71,-0.57,0.58,-0.46,0.36,1.0,25.64,33.95,0.0746285,0.0,19.263395,nan,-99.61438833333337,nan,0.0,0.0,9936.8633,0.0,0.0,0.0,0.0
289.0,32.0,35.0,62.0,138.0,126.0,nan,-1.0,-7.68,-0.82,6.21,-95.23,108.85,1.74,-0.54,-0.29,-0.57,0.58,-0.46,0.36,1.0,25.64,33.95,0.0746285,0.0,19.263395,nan,-99.61438833333337,nan,0.0,0.0,9936.8633,1.0,0.0,0.0,0.0
311.0,17.0,31.0,112.0,133.0,111.0,nan,-0.81,-8.04,-0.79,6.2,-95.24,108.85,-0.71,-0.05,-0.5,-0.57,0.58,-0.46,0.36,1.0,25.64,33.95,0.0746285,0.0,19.263395,nan,-99.61438833333337,nan,0.0,0.0,9936.8633,0.0,0.0,0.0,0.0
331.0,31.0,39.0,88.0,153.0,108.0,nan,-1.11,-7.57,-0.86,6.21,-95.25,108.85,0.48,-0.19,-0.36,-0.57,0.58,-0.46,0.36,1.0,25.64,33.95,0.0746285,0.0,19.26339502178649,nan,-99.61438833333337,nan,0.0,0.0,9936.8633,0.0,0.0,0.0,0.0
354.0,31.0,13.0,67.0,139.0,111.0,nan,-0.62,-8.09,-0.77,6.18,-95.23,108.86,0.97,-0.33,-0.36,-0.57,0.58,-0.46,0.36,1.0,25.64,33.95,0.0746285,0.0,19.26339503267974,nan,-99.61438833333337,nan,0.0,0.0,9936.8633,0.0,0.0,0.0,0.0
373.0,15.0,17.0,59.0,138.0,112.0,nan,-1.22,-7.69,-0.74,6.21,-95.24,108.86,-0.5,-0.05,-0.36,-0.57,0.58,-0.46,0.36,1.0,25.64,33.95,0.0746285,0.0,19.263395043572984,nan,-99.61438833333337,nan,0.0,0.0,9936.8633,0.0,0.0,0.0,0.0
396.0,41.0,33.0,52.0,139.0,110.0,nan,-1.11,-7.82,-0.6,6.21,-95.23,108.87,-0.5,-0.05,-0.29,-0.57,0.58,-0.46,0.36,1.0,25.64,33.95,0.0746285,0.0,19.263395054466233,nan,-99.61438833333337,nan,0.0,0.0,9936.8633,0.0,0.0,0.0,0.0
423.0,30.0,31.0,76.0,105.0,118.0,nan,-0.97,-7.74,-1.02,6.21,-95.24,108.87,1.04,-0.26,-0.22,-0.57,0.58,-0.46,0.36,1.0,25.64,33.95,0.0746285,0.0,19.263395065359475,nan,-99.61438833333337,nan,0.0,0.0,9936.8633,0.0,0.0,2623.7,0.0
445.0,21.0,36.0,147.0,130.0,111.0,nan,-0.85,-7.96,-0.61,6.21,-95.23,108.87,-0.29,-0.19,-0.36,-0.57,0.58,-0.46,0.36,1.0,25.64,33.95,0.0746285,0.0,19.263395065359475,nan,-99.61438833333337,nan,0.0,0.0,9936.8633,0.0,0.0,0.0,0.0
465.0,31.0,31.0,98.0,140.0,110.0,nan,-1.12,-7.75,-0.83,6.22,-95.23,108.88,0.55,-0.19,-0.57,-0.57,0.58,-0.46,0.36,1.0,25.64,33.95,0.0746285,0.0,19.263395076252724,nan,-99.61438833333337,nan,0.0,0.0,9936.8633,0.0,0.0,2623.7,0.0
488.0,19.0,33.0,68.0,159.0,125.0,nan,-0.64,-7.93,-0.9,6.19,-95.24,108.88,0.13,-0.26,-0.43,-0.57,0.58,-0.46,0.36,1.0,25.64,33.95,0.0746285,0.0,19.26339508714597,nan,-99.61438833333337,nan,0.0,0.0,9936.8633,0.0,0.0,2623.7,0.0
507.0,17.0,32.0,135.0,149.0,104.0,nan,-1.25,-7.69,-0.72,6.22,-95.23,108.88,0.2,-0.12,-0.22,-0.57,0.58,-0.46,0.36,1.0,25.64,33.95,0.0746285,0.0,19.26339509803922,nan,-99.61438833333337,nan,0.0,0.0,9936.8633,0.0,0.0,2623.7,0.0
530.0,19.0,17.0,40.0,175.0,145.0,nan,-0.68,-7.98,-0.93,6.19,-95.23,108.89,0.69,-0.26,-0.5,-0.57,0.58,-0.46,0.36,1.0,25.64,33.95,0.0746285,0.0,19.26339510893246,nan,-99.61438833333337,nan,0.0,0.0,9936.8633,0.0,0.0,2623.7,0.0
549.0,31.0,31.0,157.0,182.0,110.0,nan,-1.09,-7.71,-0.55,6.21,-95.22,108.9,0.13,-0.26,-0.15,-0.57,0.58,-0.46,0.36,1.0,25.64,33.95,0.0746285,0.0,19.26339511982571,nan,-99.61438833333337,nan,0.0,0.0,9936.8633,0.0,0.0,2623.7,0.0
572.0,32.0,20.0,206.0,133.0,112.0,nan,-0.97,-7.81,-0.57,6.21,-95.23,108.91,0.27,-0.33,-0.43,-0.57,0.58,-0.46,0.36,1.0,25.64,33.95,0.0746285,0.0,19.26339511982571,nan,-99.61438833333337,nan,0.0,0.0,9936.8633,0.0,0.0,0.0,0.0
599.0,31.0,30.0,147.0,134.0,111.0,nan,-0.97,-7.81,-0.57,6.21,-95.23,108.91,0.0,0.0,0.0,-0.57,0.58,-0.46,0.36,1.0,25.64,33.95,0.0746285,0.0,19.26339513071895,nan,-99.61438833333337,nan,0.0,0.0,9936.8633,0.0,0.0,2623.7,0.0
617.0,43.0,28.0,77.0,138.0,111.0,nan,-0.84,-7.93,-0.77,6.21,-95.24,108.91,0.06,-0.19,-0.64,-0.57,0.58,-0.46,0.36,1.0,25.64,33.95,0.0746285,0.0,19.263395141612204,nan,-99.61438833333337,nan,0.0,0.0,9936.8633,0.0,0.0,2623.7,0.0
641.0,12.0,34.0,68.0,123.0,111.0,nan,-1.01,-7.73,-0.65,6.21,-95.23,108.92,0.48,-0.33,-0.43,-0.57,0.58,-0.46,0.36,1.0,25.64,33.95,0.0746285,0.0,19.263395152505446,nan,-99.61438833333337,nan,0.0,0.0,9936.8633,0.0,0.0,2623.7,0.0
664.0,31.0,31.0,78.0,130.0,124.0,nan,-0.79,-8.0,-1.05,6.2,-95.26,108.92,-0.22,-0.12,-0.43,-0.57,0.58,-0.46,0.36,1.0,25.64,33.95,0.0746285,0.0,19.263395163398695,nan,-99.61438833333337,nan,0.0,0.0,9936.8633,0.0,0.0,2623.7,0.0
684.0,33.0,30.0,78.0,137.0,111.0,nan,-1.09,-7.71,-0.55,6.21,-95.22,108.93,1.11,-0.4,-0.43,-0.57,0.58,-0.46,0.36,1.0,25.64,33.95,0.0746285,0.0,19.263395174291936,nan,-99.61438833333337,nan,0.0,0.0,9936.8633,0.0,0.0,2623.7,0.0
706.0,13.0,31.0,77.0,153.0,111.0,nan,-0.68,-7.98,-1.11,6.19,-95.26,108.93,-0.85,0.02,-0.43,-0.57,0.58,-0.46,0.36,1.0,25.65,33.93,0.0746252,0.0,19.263395185185182,nan,-99.61438833333337,nan,0.0,0.0,9936.8633,0.0,0.0,2623.7,0.0
728.0,19.0,19.0,60.0,154.0,110.0,nan,-1.21,-7.73,-0.59,6.21,-95.23,108.94,1.18,-0.33,-0.08,-0.57,0.58,-0.46,0.36,1.0,25.65,33.93,0.0746252,0.0,19.263395185185182,nan,-99.61438833333337,nan,0.0,0.0,9936.8633,0.0,0.0,0.0,0.0
751.0,35.0,39.0,120.0,140.0,109.0,nan,-0.76,-7.89,-0.89,6.2,-95.25,108.94,-0.43,-0.12,-0.29,-0.57,0.58,-0.46,0.36,1.0,25.65,33.93,0.0746252,0.0,19.26339519607843,nan,-99.61438833333337,nan,0.0,0.0,9936.8633,0.0,0.0,2623.7,0.0
771.0,32.0,19.0,125.0,154.0,109.0,nan,-1.11,-7.79,-0.8,6.21,-95.25,108.94,0.55,-0.19,-0.36,-0.57,0.58,-0.46,0.36,1.0,25.65,33.93,0.0746252,0.0,19.26339520697168,nan,-99.61438833333337,nan,0.0,0.0,9936.8633,0.0,0.0,2623.7,0.0
793.0,33.0,33.0,77.0,132.0,111.0,nan,-0.82,-7.85,-1.03,6.21,-95.28,108.95,-1.34,-0.05,-0.5,-0.57,0.58,-0.46,0.36,1.0,25.65,33.93,0.0746252,0.0,19.26339521786492,nan,-99.61438833333337,nan,0.0,0.0,9936.8633,0.0,0.0,2623.7,0.0
820.0,17.0,33.0,82.0,139.0,112.0,nan,-1.15,-7.77,-0.58,6.23,-95.22,108.96,2.16,-0.47,-0.29,-0.57,0.58,-0.46,0.36,1.0,25.65,33.93,0.0746252,0.0,19.263395228758167,nan,-99.61438833333337,nan,0.0,0.0,9936.8633,0.0,0.0,2623.7,0.0
843.0,27.0,17.0,108.0,124.0,111.0,nan,-0.63,-7.96,-0.92,6.2,-95.27,108.96,-1.55,0.09,-0.57,-0.57,0.58,-0.46,0.36,1.0,25.65,33.93,0.0746252,0.0,19.263395239651416,nan,-99.61438833333337,nan,0.0,0.0,9936.8633,0.0,0.0,2623.7,0.0
862.0,20.0,18.0,137.0,147.0,109.0,nan,-1.18,-7.7,-0.71,6.22,-95.23,108.96,1.88,-0.47,-0.15,-0.57,0.58,-0.46,0.36,1.0,25.65,33.93,0.0746252,0.0,19.263395250544665,nan,-99.61438833333337,nan,0.0,0.0,9936.8633,0.0,0.0,2623.7,0.0
885.0,12.0,18.0,139.0,124.0,110.0,nan,-0.66,-8.09,-0.72,6.19,-95.24,108.97,-0.36,-0.05,-0.64,-0.57,0.58,-0.46,0.36,1.0,25.65,33.93,0.0746252,0.0,19.263395250544665,nan,-99.61438833333337,nan,0.0,0.0,9936.8633,0.0,0.0,0.0,0.0
905.0,31.0,13.0,73.0,139.0,124.0,nan,-1.18,-7.57,-0.92,6.22,-95.25,108.97,0.13,-0.19,-0.08,-0.57,0.58,-0.46,0.36,1.0,25.65,33.93,0.0746252,0.0,19.263395261437907,nan,-99.61438833333337,nan,0.0,0.0,9936.8633,0.0,0.0,2623.7,0.0
928.0,19.0,33.0,124.0,139.0,116.0,nan,-0.91,-7.99,-0.78,6.22,-95.23,108.98,1.25,-0.4,-0.15,-0.57,0.58,-0.46,0.36,1.0,25.65,33.93,0.0746252,0.0,19.263395272331152,nan,-99.61438833333337,nan,0.0,0.0,9936.8633,0.0,0.0,2623.7,0.0
947.0,30.0,18.0,39.0,159.0,126.0,nan,-0.93,-7.76,-0.75,6.21,-95.25,108.98,-1.13,0.02,-0.57,-0.57,0.58,-0.46,0.36,1.0,25.65,33.93,0.0746252,0.0,19.2633952832244,nan,-99.61438833333337,nan,0.0,0.0,9936.8633,0.0,0.0,2623.7,0.0
970.0,30.0,25.0,136.0,153.0,96.0,nan,-0.83,-7.93,-0.76,6.21,-95.25,108.99,-1.41,0.09,-0.71,-0.57,0.58,-0.46,0.36,1.0,25.65,33.93,0.0746252,0.0,19.263395294117643,nan,-99.61438833333337,nan,0.0,0.0,9936.8633,0.0,0.0,2623.7,0.0
996.0,31.0,29.0,40.0,153.0,110.0,nan,-0.83,-7.93,-0.76,6.21,-95.25,108.99,0.0,0.0,0.0,-0.57,0.58,-0.46,0.36,1.0,25.65,33.93,0.0746252,0.0,19.263395305010896,nan,-99.61438833333337,nan,0.0,0.0,9936.8633,0.0,0.0,2623.7,0.0
1014.0,21.0,32.0,109.0,139.0,112.0,nan,-0.82,-8.09,-0.78,6.21,-95.23,109.0,-0.15,-0.12,-0.36,-0.57,0.58,-0.46,0.36,1.0,25.65,33.93,0.0746252,0.0,19.263395305010896,nan,-99.61438833333337,nan,0.0,0.0,9936.8633,0.0,0.0,0.0,0.0
1039.0,43.0,41.0,88.0,133.0,103.0,nan,-1.1,-7.62,-0.83,6.22,-95.25,109.0,-0.22,-0.12,-0.43,-0.57,0.58,-0.46,0.36,1.0,25.65,33.93,0.0746252,0.0,19.263395315904138,nan,-99.61438833333337,nan,0.0,0.0,9936.8633,0.0,0.0,2623.7,0.0
1062.0,33.0,31.0,78.0,138.0,125.0,nan,-0.7,-8.02,-0.85,6.2,-95.23,109.0,1.04,-0.33,-0.08,-0.57,0.58,-0.46,0.36,1.0,25.65,33.93,0.0746252,0.0,19.263395326797387,nan,-99.61438833333337,nan,0.0,0.0,9936.8633,0.0,0.0,2623.7,0.0
1081.0,14.0,19.0,67.0,134.0,112.0,nan,-1.19,-7.7,-0.71,6.22,-95.25,109.01,-0.92,-0.05,-0.43,-0.57,0.58,-0.46,0.36,1.0,25.65,33.93,0.0746252,0.0,19.26339533769063,nan,-99.61438833333337,nan,0.0,0.0,9936.8633,0.0,0.0,2623.7,0.0
1104.0,43.0,25.0,109.0,138.0,111.0,nan,-0.88,-7.77,-0.99,6.22,-95.25,109.01,1.18,-0.33,-0.08,-0.57,0.58,-0.46,0.36,1.0,25.65,33.93,0.0746252,0.0,19.263395348583877,nan,-99.61438833333337,nan,0.0,0.0,9936.8633,0.0,0.0,2623.7,0.0
1123.0,31.0,30.0,66.0,139.0,110.0,nan,-1.0,-7.93,-0.55,6.22,-95.25,109.02,-0.64,-0.12,-0.57,-0.57,0.58,-0.46,0.36,1.0,25.65,33.93,0.0746252,0.0,19.263395359477123,nan,-99.61438833333337,nan,0.0,0.0,9936.8633,0.0,0.0,2623.7,0.0
1147.0,13.0,30.0,88.0,157.0,108.0,nan,-1.01,-7.66,-0.96,6.22,-95.25,109.02,0.69,-0.26,-0.36,-0.57,0.58,-0.46,0.36,1.0,25.65,33.93,0.0746252,0.0,19.263395359477123,nan,-99.61438833333337,nan,0.0,0.0,9936.8633,0.0,0.0,0.0,0.0
1166.0,18.0,17.0,51.0,141.0,112.0,nan,-0.8,-7.98,-0.73,6.21,-95.25,109.03,-0.15,-0.26,-0.29,-0.57,0.58,-0.46,0.36,1.0,25.64,33.94,0.0746285,0.0,19.26339537037037,nan,-99.61438833333337,nan,0.0,0.0,9936.8633,0.0,0.0,2623.7,0.0
1191.0,24.0,18.0,89.0,139.0,117.0,nan,-0.58,-7.97,-0.9,6.2,-95.26,109.03,0.27,-0.26,-0.36,-0.57,0.58,-0.46,0.36,1.0,25.64,33.94,0.0746285,0.0,19.263395381263614,nan,-99.61438833333337,nan,0.0,0.0,9936.8633,0.0,0.0,2623.7,0.0
1217.0,43.0,33.0,87.0,155.0,124.0,nan,-1.3,-7.69,-0.71,6.23,-95.25,109.04,0.27,-0.12,-0.08,-0.57,0.58,-0.46,0.36,1.0,25.64,33.94,0.0746285,0.0,19.263395392156863,nan,-99.61438833333337,nan,0.0,0.0,9936.8633,0.0,0.0,2623.7,0.0
1240.0,44.0,26.0,108.0,153.0,124.0,nan,-0.68,-7.94,-0.87,6.21,-95.25,109.04,0.69,-0.26,-0.57,-0.57,0.58,-0.46,0.36,1.0,25.64,33.94,0.0746285,0.0,19.263395403050108,nan,-99.61438833333337,nan,0.0,0.0,9936.8633,0.0,0.0,2623.7,0.0
1260.0,30.0,34.0,52.0,137.0,123.0,nan,-1.11,-7.74,-0.63,6.22,-95.24,109.05,0.06,-0.19,-0.15,-0.57,0.58,-0.46,0.36,1.0,25.64,33.94,0.0746285,0.0,19.263395413943357,nan,-99.61438833333337,nan,0.0,0.0,9936.8633,0.0,0.0,2623.7,0.0
1283.0,44.0,25.0,56.0,147.0,110.0,nan,-1.01,-7.82,-1.01,6.23,-95.25,109.05,0.55,-0.19,-0.15,-0.57,0.58,-0.46,0.36,1.0,25.64,33.94,0.0746285,0.0,19.2633954248366,nan,-99.61438833333337,nan,0.0,0.0,9936.8633,0.0,0.0,2623.7,0.0
1302.0,18.0,23.0,134.0,118.0,125.0,nan,-0.79,-7.91,-0.66,6.22,-95.24,109.05,-0.08,-0.26,-0.5,-0.57,0.58,-0.46,0.36,1.0,25.64,33.94,0.0746285,0.0,19.2633954248366,nan,-99.61438833333337,nan,0.0,0.0,9936.8633,0.0,0.0,0.0,0.0
1325.0,23.0,18.0,113.0,140.0,111.0,nan,-1.17,-7.76,-0.8,6.23,-95.23,109.06,0.76,-0.33,-0.29,-0.57,0.58,-0.46,0.36,1.0,25.64,33.94,0.0746285,0.0,19.263395435729848,nan,-99.61438833333337,nan,0.0,0.0,9936.8633,0.0,0.0,2623.7,0.0
1345.0,18.0,32.0,76.0,153.0,109.0,nan,-0.69,-7.98,-0.88,6.21,-95.25,109.06,-0.36,-0.12,-0.71,-0.57,0.58,-0.46,0.36,1.0,25.64,33.94,0.0746285,0.0,19.263395446623093,nan,-99.61438833333337,nan,0.0,0.0,9936.8633,0.0,0.0,2623.7,0.0
1368.0,32.0,30.0,66.0,137.0,75.0,nan,-0.78,-8.01,-1.02,6.2,-95.26,109.07,-0.15,-0.19,-0.43,-0.57,0.58,-0.46,0.36,1.0,25.64,33.94,0.0746285,0.0,19.263395457516342,nan,-99.61438833333337,nan,0.0,0.0,9936.8633,0.0,0.0,2623.8,0.0
1397.0,31.0,29.0,125.0,132.0,101.0,nan,-1.02,-7.67,-0.5,6.21,-95.24,109.08,0.62,-0.26,-0.43,-0.57,0.58,-0.46,0.36,1.0,25.64,33.94,0.0746285,0.0,19.263395468409584,nan,-99.61438833333337,nan,0.0,0.0,9936.8633,0.0,0.0,2623.8,0.0
1417.0,31.0,18.0,88.0,140.0,110.0,nan,-0.87,-7.93,-1.06,6.21,-95.26,109.08,0.06,-0.19,-0.15,-0.57,0.58,-0.46,0.36,1.0,25.64,33.94,0.0746285,0.0,19.263395479302833,nan,-99.61438833333337,nan,0.0,0.0,9936.8633,0.0,0.0,2623.8,0.0
1436.0,31.0,31.0,77.0,154.0,110.0,nan,-1.07,-7.8,-0.61,6.21,-95.24,109.09,0.48,-0.19,-0.5,-0.57,0.58,-0.46,0.36,1.0,25.64,33.94,0.0746285,0.0,19.26339549019608,nan,-99.61438833333337,nan,0.0,0.0,9936.8633,0.0,0.0,2623.8,0.0
1459.0,43.0,30.0,78.0,141.0,110.0,nan,-0.98,-7.76,-0.98,6.22,-95.26,109.09,-0.08,-0.26,-0.01,-0.57,0.58,-0.46,0.36,1.0,25.64,33.94,0.0746285,0.0,19.26339550108932,nan,-99.61438833333337,nan,0.0,0.0,9936.8633,0.0,0.0,2623.8,0.0
1482.0,29.0,32.0,61.0,159.0,124.0,nan,-0.99,-7.92,-0.75,6.22,-95.26,109.1,0.13,-0.26,-0.5,-0.57,0.58,-0.46,0.36,1.0,25.64,33.94,0.0746285,0.0,19.26339550108932,nan,-99.61438833333337,nan,0.0,0.0,9936.8633,0.0,0.0,0.0,0.0
1502.0,32.0,29.0,135.0,145.0,119.0,nan,-0.96,-7.74,-0.64,6.22,-95.24,109.1,0.69,-0.33,-0.43,-0.57,0.58,-0.46,0.36,1.0,25.64,33.94,0.0746285,0.0,19.26339551198257,nan,-99.61438833333337,nan,0.0,0.0,9936.8633,0.0,0.0,2623.8,0.0
1521.0,32.0,35.0,77.0,138.0,126.0,nan,-0.8,-7.93,-1.06,6.21,-95.28,109.11,-0.71,-0.19,-0.36,-0.57,0.58,-0.46,0.36,1.0,25.64,33.94,0.0746285,0.0,19.26339552287582,nan,-99.61438833333337,nan,0.0,0.0,9936.8633,0.0,0.0,2623.8,0.0
1544.0,19.0,32.0,67.0,145.0,125.0,nan,-1.17,-7.72,-0.53,6.23,-95.23,109.12,1.39,-0.4,-0.36,-0.57,0.58,-0.46,0.36,1.0,25.64,33.94,0.0746285,0.0,19.263395533769064,nan,-99.61438833333337,nan,0.0,0.0,9936.8633,0.0,0.0,2623.8,0.0
1566.0,31.0,31.0,78.0,137.0,110.0,nan,-0.59,-7.97,-1.01,6.2,-95.27,109.12,-0.85,-0.12,-0.64,-0.57,0.58,-0.46,0.36,1.0,25.64,33.94,0.0746285,0.0,19.263395544662306,nan,-99.61438833333337,nan,0.0,0.0,9936.8633,0.0,0.0,2623.8,0.0
1587.0,25.0,32.0,77.0,136.0,111.0,nan,-0.7,-7.94,-0.81,6.2,-95.25,109.13,-0.29,-0.05,-0.43,-0.57,0.58,-0.46,0.36,1.0,25.64,33.94,0.0746285,0.0,19.263395555555554,nan,-99.61438833333337,nan,0.0,0.0,9936.8633,0.0,0.0,2623.8,0.0
1613.0,32.0,18.0,53.0,137.0,109.0,nan,-1.15,-7.76,-0.82,6.22,-95.25,109.13,0.41,-0.26,-0.22,-0.57,0.58,-0.46,0.36,1.0,25.64,33.94,0.0746285,0.0,19.263395555555554,nan,-99.61438833333337,nan,0.0,0.0,9936.8633,0.0,0.0,0.0,0.0
1636.0,12.0,34.0,76.0,154.0,109.0,nan,-1.0,-7.86,-0.7,6.22,-95.23,109.14,0.97,-0.33,-0.29,-0.57,0.58,-0.46,0.36,1.0,25.64,33.94,0.0746326,0.0,19.263395566448803,nan,-99.61438833333337,nan,0.0,0.0,9936.8633,0.0,0.0,2623.8,0.0
1660.0,28.0,25.0,67.0,167.0,138.0,nan,-0.79,-7.83,-0.94,6.21,-95.26,109.14,-1.06,0.02,-0.43,-0.57,0.58,-0.46,0.36,1.0,25.64,33.94,0.0746326,0.0,19.26339557734205,nan,-99.61438833333337,nan,0.0,0.0,9936.8633,0.0,0.0,2623.8,0.0
1680.0,32.0,31.0,136.0,165.0,112.0,nan,-1.16,-7.76,-0.6,6.23,-95.21,109.15,2.16,-0.54,-0.22,-0.57,0.58,-0.46,0.36,1.0,25.64,33.94,0.0746326,0.0,19.26339558823529,nan,-99.61438833333337,nan,0.0,0.0,9936.8633,0.0,0.0,2623.8,0.0
1700.0,29.0,32.0,87.0,133.0,111.0,nan,-0.63,-7.96,-0.94,6.2,-95.26,109.15,-1.41,0.02,-0.78,-0.57,0.58,-0.46,0.36,1.0,25.64,33.94,0.0746326,0.0,19.26339559912854,nan,-99.61438833333337,nan,0.0,0.0,9936.8633,0.0,0.0,2623.8,0.0
1723.0,36.0,31.0,68.0,139.0,112.0,nan,-1.15,-7.67,-0.76,6.22,-95.22,109.15,1.67,-0.4,-0.08,-0.57,0.58,-0.46,0.36,1.0,25.64,33.94,0.0746326,0.0,19.26339561002179,nan,-99.61438833333337,nan,0.0,0.0,9936.8633,0.0,0.0,2623.8,0.0
1744.0,42.0,19.0,109.0,161.0,104.0,nan,-0.73,-8.07,-0.77,6.2,-95.23,109.16,-0.22,-0.19,-0.5,-0.57,0.58,-0.46,0.36,1.0,25.64,33.94,0.0746326,0.0,19.26339561002179,nan,-99.61438833333337,nan,0.0,0.0,9936.8633,0.0,0.0,0.0,0.0
1765.0,29.0,19.0,147.0,132.0,74.0,nan,-0.95,-7.92,-0.79,6.22,-95.23,109.17,0.9,-0.33,0.06,-0.57,0.58,-0.46,0.36,1.0,25.64,33.94,0.0746326,0.0,19.263395620915034,nan,-99.61438833333337,nan,0.0,0.0,9936.8633,0.0,0.0,2623.8,0.0
1792.0,36.0,29.0,76.0,139.0,117.0,nan,-0.95,-7.81,-0.82,6.21,-95.25,109.17,-0.92,-0.05,-0.64,-0.57,0.58,-0.46,0.36,1.0,25.64,33.94,0.0746326,0.0,19.263395631808276,nan,-99.61438833333337,nan,0.0,0.0,9936.8633,0.0,0.0,2623.8,0.0
1815.0,30.0,32.0,136.0,149.0,110.0,nan,-1.03,-7.72,-0.81,6.23,-95.22,109.18,1.67,-0.47,-0.01,-0.57,0.58,-0.46,0.36,1.0,25.64,33.94,0.0746326,0.0,19.263395642701525,nan,-99.61438833333337,nan,0.0,0.0,9936.8633,0.0,0.0,2623.8,0.0
1835.0,42.0,20.0,146.0,132.0,111.0,nan,-0.86,-7.97,-0.8,6.22,-95.25,109.18,-1.13,0.02,-0.57,-0.57,0.58,-0.46,0.36,1.0,25.64,33.94,0.0746326,0.0,19.263395653594774,nan,-99.61438833333337,nan,0.0,0.0,9936.8633,0.0,0.0,2623.8,0.0
1857.0,24.0,29.0,77.0,139.0,125.0,nan,-0.97,-7.68,-0.76,6.22,-95.23,109.19,1.32,-0.33,-0.5,-0.57,0.58,-0.46,0.36,1.0,25.64,33.94,0.0746326,0.0,19.263395664488016,nan,-99.61438833333337,nan,0.0,0.0,9936.8633,0.0,0.0,2623.8,0.0
1877.0,17.0,17.0,82.0,133.0,124.0,nan,-0.75,-8.06,-0.87,6.2,-95.25,109.19,-0.57,-0.12,-0.43,-0.57,0.58,-0.46,0.36,1.0,25.64,33.94,0.0746326,0.0,19.26339567538126,nan,-99.61438833333337,nan,0.0,0.0,9936.8633,0.0,0.0,2623.8,0.0
1900.0,31.0,33.0,110.0,155.0,111.0,nan,-1.22,-7.65,-0.82,6.22,-95.25,109.19,0.27,-0.26,-0.36,-0.57,0.58,-0.46,0.36,1.0,25.64,33.94,0.0746326,0.0,19.26339567538126,nan,-99.61438833333337,nan,0.0,0.0,9936.8633,0.0,0.0,0.0,0.0
1920.0,15.0,13.0,59.0,153.0,111.0,nan,-0.66,-8.01,-0.79,6.2,-95.24,109.2,0.69,-0.33,-0.22,-0.57,0.58,-0.46,0.36,1.0,25.64,33.94,0.0746326,0.0,19.26339568627451,nan,-99.61438833333337,nan,0.0,0.0,9936.8633,0.0,0.0,2623.8,0.0
1942.0,32.0,31.0,52.0,139.0,111.0,nan,-1.16,-7.78,-0.76,6.21,-95.25,109.2,-0.5,-0.05,-0.5,-0.57,0.58,-0.46,0.36,1.0,25.64,33.94,0.0746326,0.0,19.26339569716776,nan,-99.61438833333337,nan,0.0,0.0,9936.8633,0.0,0.0,2623.8,0.0
1962.0,32.0,33.0,76.0,155.0,112.0,nan,-0.89,-7.76,-0.9,6.21,-95.24,109.2,1.04,-0.26,-0.15,-0.57,0.58,-0.46,0.36,1.0,25.64,33.94,0.0746326,0.0,19.263395708061,nan,-99.61438833333337,nan,0.0,0.0,9936.8633,0.0,0.0,2623.8,0.0
1985.0,19.0,24.0,108.0,138.0,111.0,nan,-1.07,-7.74,-0.79,6.22,-95.23,109.22,1.53,-0.33,-0.36,-0.57,0.58,-0.46,0.36,1.0,25.64,33.94,0.0746326,0.0,19.263395718954246,nan,-99.61438833333337,nan,0.0,0.0,9936.8633,0.0,0.0,2623.8,0.0
2011.0,32.0,31.0,78.0,130.0,113.0,nan,-0.7,-7.96,-0.8,6.2,-95.24,109.22,-0.64,-0.12,-0.43,-0.57,0.58,-0.46,0.36,1.0,25.64,33.94,0.0746326,0.0,19.263395729847495,nan,-99.61438833333337,nan,0.0,0.0,9936.8633,0.0,0.0,2623.8,0.0
2034.0,21.0,36.0,148.0,138.0,76.0,nan,-1.16,-7.75,-0.83,6.22,-95.24,109.22,0.69,-0.19,-0.5,-0.57,0.58,-0.46,0.36,1.0,25.64,33.94,0.0746326,0.0,19.263395740740744,nan,-99.61438833333337,nan,0.0,0.0,9936.8633,0.0,0.0,2623.8,0.0
2053.0,32.0,32.0,40.0,137.0,102.0,nan,-0.59,-8.0,-0.84,6.19,-95.24,109.23,0.27,-0.26,-0.5,-0.57,0.58,-0.46,0.36,1.0,25.64,33.94,0.0746326,0.0,19.263395740740744,nan,-99.61438833333337,nan,0.0,0.0,9936.8633,0.0,0.0,0.0,0.0
2076.0,19.0,32.0,110.0,154.0,97.0,nan,-1.28,-7.65,-0.73,6.22,-95.24,109.23,0.06,-0.12,0.06,-0.57,0.58,-0.46,0.36,1.0,25.64,33.94,0.0746326,0.0,19.263395751633986,nan,-99.61438833333337,nan,0.0,0.0,9936.8633,0.0,0.0,2623.8,0.0
2096.0,23.0,24.0,110.0,140.0,124.0,nan,-0.8,-7.99,-0.85,6.21,-95.23,109.23,0.83,-0.26,-0.43,-0.57,0.58,-0.46,0.36,1.0,25.62,33.93,0.0746244,0.0,19.26339576252723,nan,-99.61438833333337,nan,0.0,0.0,9936.8633,0.0,0.0,2623.8,0.0
2121.0,34.0,31.0,61.0,159.0,124.0,nan,-0.96,-7.72,-0.67,6.21,-95.24,109.24,-0.57,-0.12,-0.36,-0.57,0.58,-0.46,0.36,1.0,25.62,33.93,0.0746244,0.0,19.263395773420473,nan,-99.61438833333337,nan,0.0,0.0,9936.8633,0.0,0.0,2623.8,0.0
2141.0,31.0,37.0,39.0,139.0,125.0,nan,-1.06,-7.81,-1.03,6.22,-95.24,109.24,1.18,-0.33,-0.15,-0.57,0.58,-0.46,0.36,1.0,25.62,33.93,0.0746244,0.0,19.26339578431373,nan,-99.61438833333337,nan,0.0,0.0,9936.8633,0.0,0.0,2623.8,0.0
2163.0,31.0,39.0,135.0,138.0,123.0,nan,-1.13,-7.73,-0.89,6.22,-95.24,109.25,0.62,-0.26,-0.22,-0.57,0.58,-0.46,0.36,1.0,25.62,33.93,0.0746244,0.0,19.26339579520697,nan,-99.61438833333337,nan,0.0,0.0,9936.8633,0.0,0.0,2623.8,0.0
2190.0,35.0,30.0,87.0,139.0,119.0,nan,-0.75,-8.02,-0.86,6.2,-95.25,109.26,-0.08,-0.26,-0.64,-0.57,0.58,-0.46,0.36,1.0,25.62,33.93,0.0746244,0.0,19.263395806100217,nan,-99.61438833333337,nan,0.0,0.0,9936.8633,0.0,0.0,2623.8,0.0
2213.0,26.0,33.0,67.0,154.0,111.0,nan,-1.03,-7.66,-0.71,6.21,-95.25,109.26,-0.08,-0.12,-0.29,-0.57,0.58,-0.46,0.36,1.0,25.62,33.93,0.0746244,0.0,19.263395806100217,nan,-99.61438833333337,nan,0.0,0.0,9936.8633,0.0,0.0,0.0,0.0
2233.0,16.0,31.0,76.0,137.0,112.0,nan,-0.76,-8.05,-0.92,6.19,-95.24,109.26,0.83,-0.26,-0.36,-0.57,0.58,-0.46,0.36,1.0,25.62,33.93,0.0746244,0.0,19.26339581699346,nan,-99.61438833333337,nan,0.0,0.0,9936.8633,0.0,0.0,2623.8,0.0
2255.0,39.0,32.0,113.0,161.0,97.0,nan,-1.1,-7.69,-0.54,6.2,-95.23,109.27,-0.22,-0.19,-0.5,-0.57,0.58,-0.46,0.36,1.0,25.62,33.93,0.0746244,0.0,19.263395827886708,nan,-99.61438833333337,nan,0.0,0.0,9936.8633,0.0,0.0,2623.8,0.0
2275.0,31.0,30.0,147.0,132.0,125.0,nan,-0.85,-7.83,-1.11,6.2,-95.26,109.27,0.34,-0.19,-0.01,-0.57,0.58,-0.46,0.36,1.0,25.62,33.93,0.0746244,0.0,19.263395838779957,nan,-99.61438833333337,nan,0.0,0.0,9936.8633,0.0,0.0,2623.8,0.0
2297.0,18.0,19.0,157.0,161.0,104.0,nan,-1.08,-7.89,-0.53,6.21,-95.23,109.28,0.34,-0.19,-0.43,-0.57,0.58,-0.46,0.36,1.0,25.62,33.93,0.0746244,0.0,19.263395849673202,nan,-99.61438833333337,nan,0.0,0.0,9936.8633,0.0,0.0,2623.8,0.0
2317.0,33.0,32.0,89.0,140.0,112.0,nan,-0.96,-7.7,-0.92,6.21,-95.24,109.28,0.2,-0.12,-0.22,-0.57,0.58,-0.46,0.36,1.0,25.62,33.93,0.0746244,0.0,19.26339586056645,nan,-99.61438833333337,nan,0.0,0.0,9936.8633,0.0,0.0,2623.8,0.0
2340.0,32.0,31.0,66.0,126.0,97.0,nan,-0.87,-8.01,-0.75,6.2,-95.24,109.28,0.48,-0.26,-0.43,-0.57,0.58,-0.46,0.36,1.0,25.62,33.93,0.0746244,0.0,19.26339586056645,nan,-99.61438833333337,nan,0.0,0.0,9936.8633,0.0,0.0,0.0,0.0
2359.0,31.0,43.0,67.0,137.0,122.0,nan,-1.09,-7.71,-0.65,6.21,-95.23,109.29,0.2,-0.12,-0.43,-0.57,0.58,-0.46,0.36,1.0,25.62,33.93,0.0746244,0.0,19.263395871459693,nan,-99.61438833333337,nan,0.0,0.0,9936.8633,0.0,0.0,2623.8,0.0
2382.0,43.0,43.0,53.0,136.0,112.0,nan,-1.19,-7.76,-0.49,6.22,-95.22,109.29,0.97,-0.26,-0.36,-0.57,0.58,-0.46,0.36,1.0,25.62,33.93,0.0746244,0.0,19.263395882352942,nan,-99.61438833333337,nan,0.0,0.0,9936.8633,0.0,0.0,2624.1,0.0
2409.0,12.0,19.0,146.0,154.0,111.0,nan,-0.6,-7.91,-1.0,6.19,-95.25,109.29,-0.5,-0.12,-0.43,-0.57,0.58,-0.46,0.36,1.0,25.62,33.93,0.0746244,0.0,19.263395893246187,nan,-99.61438833333337,nan,0.0,0.0,9936.8633,0.0,0.0,2624.1,0.0
2432.0,20.0,34.0,99.0,156.0,109.0,nan,-1.25,-7.75,-0.61,6.22,-95.22,109.3,1.25,-0.33,0.06,-0.57,0.58,-0.46,0.36,1.0,25.62,33.93,0.0746244,0.0,19.263395904139436,nan,-99.61438833333337,nan,0.0,0.0,9936.8633,0.0,0.0,2624.1,0.0
2451.0,32.0,30.0,79.0,167.0,125.0,nan,-0.83,-7.85,-0.89,6.21,-95.23,109.3,-0.15,-0.12,-0.43,-0.57,0.58,-0.46,0.36,1.0,25.62,33.93,0.0746244,0.0,19.263395915032678,nan,-99.61438833333337,nan,0.0,0.0,9936.8633,0.0,0.0,2624.1,0.0
2474.0,33.0,33.0,60.0,147.0,126.0,nan,-0.98,-7.79,-0.79,6.21,-95.23,109.31,0.48,-0.26,-0.22,-0.57,0.58,-0.46,0.36,1.0,25.62,33.93,0.0746244,0.0,19.263395915032678,nan,-99.61438833333337,nan,0.0,0.0,9936.8633,0.0,0.0,0.0,0.0
2493.0,20.0,31.0,39.0,154.0,98.0,nan,-1.09,-7.83,-0.63,6.22,-95.2,109.32,1.04,-0.33,-0.43,-0.57,0.58,-0.46,0.36,1.0,25.62,33.93,0.0746244,0.0,19.263395925925927,nan,-99.61438833333337,nan,0.0,0.0,9936.8633,0.0,0.0,2624.1,0.0
2516.0,44.0,25.0,124.0,153.0,126.0,nan,-0.73,-7.88,-1.04,6.2,-95.24,109.31,-0.92,0.02,-0.57,-0.57,0.58,-0.46,0.36,1.0,25.62,33.93,0.0746244,0.0,19.26339593681917,nan,-99.61438833333337,nan,0.0,0.0,9936.8633,0.0,0.0,2624.1,0.0
2536.0,20.0,29.0,109.0,139.0,124.0,nan,-1.14,-7.74,-0.54,6.22,-95.19,109.32,1.67,-0.4,-0.22,-0.57,0.58,-0.46,0.36,1.0,25.62,33.93,0.0746244,0.0,19.26339594771242,nan,-99.61438833333337,nan,0.0,0.0,9936.8633,0.0,0.0,2624.1,0.0
2559.0,20.0,17.0,112.0,157.0,119.0,nan,-1.09,-7.65,-0.66,6.2,-95.21,109.33,1.46,-0.4,-0.15,-0.57,0.58,-0.46,0.36,1.0,25.64,33.98,0.0746326,0.0,19.263395958605663,nan,-99.61438833333337,nan,0.0,0.0,9936.8633,0.0,0.0,2624.1,0.0
2591.0,20.0,31.0,77.0,125.0,118.0,nan,-0.86,-8.01,-0.83,6.2,-95.23,109.33,-0.5,-0.05,-0.29,-0.57,0.58,-0.46,0.36,1.0,25.64,33.98,0.0746326,0.0,19.263395969498912,nan,-99.61438833333337,nan,0.0,0.0,9936.8633,0.0,0.0,2624.1,0.0
2611.0,15.0,31.0,99.0,160.0,125.0,nan,-1.06,-7.69,-0.87,6.2,-95.23,109.34,0.13,-0.19,-0.5,-0.57,0.58,-0.46,0.36,1.0,25.64,33.98,0.0746326,0.0,19.263395980392154,nan,-99.61438833333337,nan,0.0,0.0,9936.8633,0.0,0.0,2624.1,0.0
2633.0,42.0,42.0,147.0,146.0,126.0,nan,-0.98,-7.83,-0.83,6.21,-95.23,109.34,0.48,-0.26,-0.01,-0.57,0.58,-0.46,0.36,1.0,25.64,33.98,0.0746326,0.0,19.2633959912854,nan,-99.61438833333337,nan,0.0,0.0,9936.8633,0.0,0.0,2624.1,0.0
2653.0,32.0,28.0,120.0,153.0,110.0,nan,-0.89,-7.88,-0.85,6.2,-95.26,109.34,-0.71,-0.12,-0.71,-0.57,0.58,-0.46,0.36,1.0,25.64,33.98,0.0746326,0.0,19.2633959912854,nan,-99.61438833333337,nan,0.0,0.0,9936.8633,0.0,0.0,0.0,0.0
2676.0,13.0,27.0,77.0,157.0,103.0,nan,-1.0,-7.75,-0.6,6.21,-95.21,109.35,1.67,-0.47,-0.29,-0.57,0.58,-0.46,0.36,1.0,25.64,33.98,0.0746326,0.0,19.26339600217865,nan,-99.61438833333337,nan,0.0,0.0,9936.8633,0.0,0.0,2624.1,0.0
2695.0,21.0,36.0,59.0,145.0,111.0,nan,-0.82,-7.99,-0.96,6.19,-95.26,109.35,-1.34,0.02,-0.57,-0.57,0.58,-0.46,0.36,1.0,25.64,33.98,0.0746326,0.0,19.263396013071898,nan,-99.61438833333337,nan,0.0,0.0,9936.8633,0.0,0.0,2624.1,0.0
2718.0,25.0,29.0,77.0,139.0,112.0,nan,-0.7,-8.04,-0.83,6.19,-95.24,109.36,-0.36,-0.12,-0.29,-0.57,0.58,-0.46,0.36,1.0,25.64,33.98,0.0746326,0.0,19.26339602396514,nan,-99.61438833333337,nan,0.0,0.0,9936.8633,0.0,0.0,2624.1,0.0
2745.0,31.0,33.0,77.0,137.0,111.0,nan,-1.23,-7.67,-0.8,6.21,-95.24,109.37,0.48,-0.19,-0.29,-0.57,0.58,-0.46,0.36,1.0,25.64,33.98,0.0746326,0.0,19.263396034858385,nan,-99.61438833333337,nan,0.0,0.0,9936.8633,0.0,0.0,2624.1,0.0
2767.0,24.0,32.0,77.0,145.0,110.0,nan,-0.74,-7.91,-0.77,6.2,-95.23,109.37,0.48,-0.26,-0.22,-0.57,0.58,-0.46,0.36,1.0,25.64,33.98,0.0746326,0.0,19.263396045751634,nan,-99.61438833333337,nan,0.0,0.0,9936.8633,0.0,0.0,2624.1,0.0
2787.0,23.0,31.0,98.0,137.0,111.0,nan,-1.11,-7.76,-0.87,6.21,-95.25,109.37,-0.43,-0.12,-0.5,-0.57,0.58,-0.46,0.36,1.0,25.64,33.98,0.0746326,0.0,19.263396056644883,nan,-99.61438833333337,nan,0.0,0.0,9936.8633,0.0,0.0,2624.1,0.0
2810.0,31.0,31.0,52.0,137.0,104.0,nan,-0.98,-7.78,-0.76,6.21,-95.22,109.38,1.6,-0.4,-0.22,-0.57,0.58,-0.46,0.36,1.0,25.64,33.98,0.0746326,0.0,19.263396056644883,nan,-99.61438833333337,nan,0.0,0.0,9936.8633,0.0,0.0,0.0,0.0
2829.0,32.0,34.0,67.0,153.0,97.0,nan,-0.86,-7.9,-0.79,6.2,-95.25,109.38,-1.48,0.02,-0.5,-0.57,0.58,-0.46,0.36,1.0,25.64,33.98,0.0746326,0.0,19.263396067538125,nan,-99.61438833333337,nan,0.0,0.0,9936.8633,0.0,0.0,2624.1,0.0
2852.0,33.0,18.0,52.0,144.0,111.0,nan,-1.12,-7.79,-0.79,6.22,-95.22,109.39,1.6,-0.4,-0.29,-0.57,0.58,-0.46,0.36,1.0,25.64,33.98,0.0746326,0.0,19.26339607843137,nan,-99.61438833333337,nan,0.0,0.0,9936.8633,0.0,0.0,2624.1,0.0
2872.0,37.0,30.0,77.0,137.0,119.0,nan,-0.56,-8.01,-0.8,6.18,-95.24,109.39,-0.78,-0.12,-0.5,-0.57,0.58,-0.46,0.36,1.0,25.64,33.98,0.0746326,0.0,19.26339608932462,nan,-99.61438833333337,nan,0.0,0.0,9936.8633,0.0,0.0,2624.1,0.0
2895.0,31.0,32.0,77.0,138.0,125.0,nan,-1.22,-7.67,-0.9,6.21,-95.24,109.4,0.76,-0.26,-0.15,-0.57,0.58,-0.46,0.36,1.0,25.64,33.98,0.0746326,0.0,19.26339610021786,nan,-99.61438833333337,nan,0.0,0.0,9936.8633,0.0,0.0,2624.1,0.0
2914.0,32.0,31.0,78.0,148.0,110.0,nan,-0.63,-8.06,-0.67,6.18,-95.23,109.4,0.55,-0.26,-0.57,-0.57,0.58,-0.46,0.36,1.0,25.64,33.98,0.0746326,0.0,19.26339610021786,nan,-99.61438833333337,nan,0.0,0.0,9936.8633,0.0,0.0,0.0,0.0
2937.0,33.0,20.0,135.0,133.0,111.0,nan,-0.99,-7.88,-0.94,6.21,-95.24,109.41,1.46,-0.47,-0.08,-0.57,0.58,-0.46,0.36,1.0,25.64,33.98,0.0746326,0.0,19.263396111111113,nan,-99.61438833333337,nan,0.0,0.0,9936.8633,0.0,0.0,2624.1,0.0
2963.0,42.0,26.0,76.0,151.0,96.0,nan,-0.89,-7.82,-0.59,6.2,-95.24,109.41,-0.92,-0.05,-0.64,-0.57,0.58,-0.46,0.36,1.0,25.64,33.98,0.0746326,0.0,19.263396122004355,nan,-99.61438833333337,nan,0.0,0.0,9936.8633,0.0,0.0,2624.1,0.0
2987.0,31.0,29.0,112.0,137.0,111.0,nan,-1.08,-7.77,-0.99,6.21,-95.24,109.42,1.39,-0.33,-0.08,-0.57,0.58,-0.46,0.36,1.0,25.64,33.98,0.0746326,0.0,19.263396132897604,nan,-99.61438833333337,nan,0.0,0.0,9936.8633,0.0,0.0,2624.1,0.0
3006.0,31.0,32.0,68.0,159.0,124.0,nan,-0.86,-8.0,-0.64,6.2,-95.24,109.42,-0.57,-0.19,-0.57,-0.57,0.58,-0.46,0.36,1.0,25.64,33.98,0.0746326,0.0,19.263396143790846,nan,-99.61438833333337,nan,0.0,0.0,9936.8633,0.0,0.0,2624.1,0.0
3029.0,38.0,31.0,53.0,125.0,109.0,nan,-1.02,-7.69,-0.91,6.21,-95.25,109.43,0.27,-0.19,-0.36,-0.57,0.58,-0.46,0.36,1.0,25.65,33.99,0.0746228,0.0,19.263396154684095,nan,-99.61438833333337,nan,0.0,0.0,9936.8633,0.0,0.0,2624.1,0.0
3050.0,32.0,31.0,67.0,138.0,126.0,nan,-0.79,-8.03,-0.82,6.2,-95.24,109.43,0.55,-0.33,-0.29,-0.57,0.58,-0.46,0.36,1.0,25.65,33.99,0.0746228,0.0,19.26339616557734,nan,-99.61438833333337,nan,0.0,0.0,9936.8633,0.0,0.0,2624.1,0.0
3073.0,31.0,29.0,52.0,139.0,116.0,nan,-1.04,-7.65,-0.64,6.2,-95.24,109.44,-0.36,-0.19,-0.5,-0.57,0.58,-0.46,0.36,1.0,25.65,33.99,0.0746228,0.0,19.26339617647059,nan,-99.61438833333337,nan,0.0,0.0,9936.8633,0.0,0.0,2624.1,0.0
3093.0,37.0,34.0,66.0,139.0,111.0,nan,-0.75,-7.93,-1.04,6.19,-95.25,109.44,0.69,-0.26,-0.22,-0.57,0.58,-0.46,0.36,1.0,25.65,33.99,0.0746228,0.0,19.26339617647059,nan,-99.61438833333337,nan,0.0,0.0,9936.8633,0.0,0.0,0.0,0.0
3116.0,15.0,31.0,78.0,133.0,119.0,nan,-0.88,-7.77,-1.15,6.2,-95.26,109.45,0.06,-0.19,-0.22,-0.57,0.58,-0.46,0.36,1.0,25.65,33.99,0.0746228,0.0,19.26339618736383,nan,-99.61438833333337,nan,0.0,0.0,9936.8633,0.0,0.0,2624.1,0.0
3142.0,31.0,26.0,52.0,132.0,110.0,nan,-1.02,-7.97,-0.5,6.21,-95.23,109.45,0.62,-0.26,-0.36,-0.57,0.58,-0.46,0.36,1.0,25.65,33.99,0.0746228,0.0,19.26339619825708,nan,-99.61438833333337,nan,0.0,0.0,9936.8633,0.0,0.0,2624.1,0.0
3165.0,31.0,17.0,87.0,153.0,110.0,nan,-1.01,-7.72,-0.9,6.21,-95.25,109.46,-0.15,-0.12,-0.36,-0.57,0.58,-0.46,0.36,1.0,25.65,33.99,0.0746228,0.0,19.263396209150326,nan,-99.61438833333337,nan,0.0,0.0,9936.8633,0.0,0.0,2624.1,0.0
3185.0,42.0,42.0,88.0,139.0,112.0,nan,-0.82,-7.96,-0.89,6.2,-95.26,109.46,0.2,-0.26,-0.36,-0.57,0.58,-0.46,0.36,1.0,25.65,33.99,0.0746228,0.0,19.263396220043575,nan,-99.61438833333337,nan,0.0,0.0,9936.8633,0.0,0.0,2624.1,0.0
3207.0,44.0,19.0,52.0,119.0,76.0,nan,-1.17,-7.74,-0.6,6.21,-95.23,109.47,0.69,-0.26,-0.5,-0.57,0.58,-0.46,0.36,1.0,25.65,33.99,0.0746228,0.0,19.263396230936817,nan,-99.61438833333337,nan,0.0,0.0,9936.8633,0.0,0.0,2624.1,0.0
3227.0,29.0,18.0,98.0,116.0,101.0,nan,-0.65,-7.88,-1.07,6.19,-95.27,109.47,-0.43,-0.12,-0.36,-0.57,0.58,-0.46,0.36,1.0,25.65,33.99,0.0746228,0.0,19.263396241830065,nan,-99.61438833333337,nan,0.0,0.0,9936.8633,0.0,0.0,2624.1,0.0
3250.0,39.0,32.0,123.0,139.0,110.0,nan,-1.2,-7.73,-0.5,6.21,-95.23,109.48,1.25,-0.33,-0.22,-0.57,0.58,-0.46,0.36,1.0,25.65,33.99,0.0746228,0.0,19.263396241830065,nan,-99.61438833333337,nan,0.0,0.0,9936.8633,0.0,0.0,0.0,0.0
3269.0,31.0,32.0,120.0,138.0,104.0,nan,-0.61,-8.0,-1.03,6.18,-95.26,109.48,-0.64,-0.12,-0.71,-0.57,0.58,-0.46,0.36,1.0,25.65,33.99,0.0746228,0.0,19.26339625272331,nan,-99.61438833333337,nan,0.0,0.0,9936.8633,0.0,0.0,2624.1,0.0
3292.0,43.0,29.0,88.0,138.0,116.0,nan,-1.14,-7.7,-0.63,6.21,-95.23,109.49,1.25,-0.33,0.06,-0.57,0.58,-0.46,0.36,1.0,25.65,33.99,0.0746228,0.0,19.26339626361656,nan,-99.61438833333337,nan,0.0,0.0,9936.8633,0.0,0.0,2624.1,0.0
3312.0,33.0,29.0,77.0,138.0,129.0,nan,-0.9,-7.91,-0.9,6.2,-95.24,109.49,-0.08,-0.19,-0.36,-0.57,0.58,-0.46,0.36,1.0,25.65,33.99,0.0746228,0.0,19.26339626361656,nan,-99.61438833333337,nan,0.0,0.0,9936.8633,0.0,0.0,0.0,0.0
3335.0,44.0,31.0,77.0,138.0,116.0,nan,-1.08,-7.81,-0.73,6.21,-95.23,109.5,0.69,-0.26,-0.15,-0.57,0.58,-0.46,0.36,1.0,25.65,33.99,0.0746228,0.0,19.2633962745098,nan,-99.61438833333337,nan,0.0,0.0,9936.8633,0.0,0.0,2624.1,0.0
3361.0,33.0,36.0,135.0,140.0,110.0,nan,-0.86,-7.87,-1.01,6.2,-95.28,109.5,-1.2,0.02,-0.5,-0.57,0.58,-0.46,0.36,1.0,25.65,33.99,0.0746228,0.0,19.2633962745098,nan,-99.61438833333337,nan,0.0,0.0,9936.8633,0.0,0.0,0.0,0.0
3384.0,31.0,31.0,38.0,133.0,124.0,nan,-1.04,-7.74,-0.51,6.21,-95.22,109.51,1.95,-0.47,-0.29,-0.57,0.58,-0.46,0.36,1.0,25.65,33.99,0.0746228,0.0,19.26339628540305,nan,-99.61438833333337,nan,0.0,0.0,9936.8633,0.0,0.0,2624.1,0.0
3403.0,13.0,31.0,82.0,154.0,111.0,nan,-0.72,-7.99,-0.97,6.19,-95.27,109.51,-1.55,0.02,-0.57,-0.57,0.58,-0.46,0.36,1.0,25.65,33.99,0.0746228,0.0,19.263396296296296,nan,-99.61438833333337,nan,0.0,0.0,9936.8633,0.0,0.0,2624.1,0.0
3426.0,12.0,18.0,87.0,130.0,96.0,nan,-1.12,-7.63,-0.7,6.21,-95.23,109.52,1.67,-0.4,-0.29,-0.57,0.58,-0.46,0.36,1.0,25.65,33.99,0.0746228,0.0,19.263396307189538,nan,-99.61438833333337,nan,0.0,0.0,9936.8633,0.0,0.0,2624.1,0.0
3446.0,43.0,32.0,67.0,139.0,125.0,nan,-0.68,-8.08,-0.84,6.18,-95.25,109.52,-0.71,-0.12,-0.57,-0.57,0.58,-0.46,0.36,1.0,25.65,33.99,0.0746228,0.0,19.263396318082787,nan,-99.61438833333337,nan,0.0,0.0,9936.8633,0.0,0.0,2624.4,0.0
3470.0,44.0,32.0,76.0,144.0,111.0,nan,-1.25,-7.67,-0.83,6.21,-95.25,109.52,0.76,-0.26,-0.22,-0.57,0.58,-0.46,0.36,1.0,25.65,33.99,0.0746228,0.0,19.263396328976036,nan,-99.61438833333337,nan,0.0,0.0,9936.8633,0.0,0.0,2624.4,0.0
3489.0,33.0,35.0,136.0,155.0,116.0,nan,-0.82,-7.9,-0.73,6.21,-95.23,109.53,0.62,-0.26,-0.01,-0.57,0.58,-0.46,0.36,1.0,25.64,34.0,0.0746269,0.0,19.263396328976036,nan,-99.61438833333337,nan,0.0,0.0,9936.8633,0.0,0.0,0.0,0.0
3514.0,33.0,32.0,98.0,138.0,112.0,nan,-1.0,-7.72,-0.72,6.21,-95.22,109.54,2.02,-0.4,-0.08,-0.57,0.58,-0.46,0.36,1.0,25.64,34.0,0.0746269,0.0,19.26339633986928,nan,-99.61438833333337,nan,0.0,0.0,9936.8633,0.0,0.0,2624.4,0.0
3540.0,32.0,31.0,82.0,149.0,75.0,nan,-0.89,-7.93,-0.86,6.21,-95.26,109.53,-1.62,0.02,-0.43,-0.57,0.58,-0.46,0.36,1.0,25.64,34.0,0.0746269,0.0,19.263396350762523,nan,-99.61438833333337,nan,0.0,0.0,9936.8633,0.0,0.0,2624.4,0.0
3563.0,29.0,32.0,108.0,165.0,75.0,nan,-1.09,-7.75,-0.77,6.22,-95.22,109.54,2.09,-0.47,-0.5,-0.57,0.58,-0.46,0.36,1.0,25.64,34.0,0.0746269,0.0,19.263396361655772,nan,-99.61438833333337,nan,0.0,0.0,9936.8633,0.0,0.0,2624.4,0.0
3583.0,30.0,19.0,78.0,147.0,103.0,nan,-0.62,-8.02,-0.76,6.19,-95.24,109.54,-0.78,0.02,-0.5,-0.57,0.58,-0.46,0.36,1.0,25.64,34.0,0.0746269,0.0,19.26339637254902,nan,-99.61438833333337,nan,0.0,0.0,9936.8633,0.0,0.0,2624.4,0.0
3606.0,20.0,29.0,75.0,140.0,126.0,nan,-1.19,-7.66,-0.91,6.21,-95.24,109.55,0.83,-0.19,-0.36,-0.57,0.58,-0.46,0.36,1.0,25.64,34.0,0.0746269,0.0,19.263396383442267,nan,-99.61438833333337,nan,0.0,0.0,9936.8633,0.0,0.0,2624.4,0.0
3625.0,33.0,32.0,67.0,138.0,111.0,nan,-0.59,-8.13,-0.66,6.18,-95.21,109.56,0.97,-0.33,-0.5,-0.57,0.58,-0.45,0.36,1.0,25.64,34.0,0.0746269,0.0,19.26339639433551,nan,-99.61438833333337,nan,0.0,0.0,9936.8633,0.0,0.0,2624.4,0.0
3648.0,44.0,31.0,77.0,137.0,113.0,nan,-1.16,-7.63,-0.83,6.2,-95.24,109.56,-0.71,-0.12,-0.29,-0.57,0.58,-0.46,0.36,1.0,25.64,34.0,0.0746269,0.0,19.26339639433551,nan,-99.61438833333337,nan,0.0,0.0,9936.8633,0.0,0.0,0.0,0.0
3668.0,34.0,33.0,76.0,125.0,109.0,nan,-0.98,-7.87,-0.95,6.21,-95.22,109.56,1.53,-0.33,-0.01,-0.57,0.58,-0.46,0.36,1.0,25.64,34.0,0.0746269,0.0,19.263396405228757,nan,-99.61438833333337,nan,0.0,0.0,9936.8633,0.0,0.0,2624.4,0.0
3690.0,32.0,18.0,51.0,138.0,116.0,nan,-0.87,-7.84,-0.55,6.19,-95.23,109.57,-1.06,-0.05,-0.64,-0.57,0.58,-0.46,0.36,1.0,25.64,34.0,0.0746269,0.0,19.263396416122006,nan,-99.61438833333337,nan,0.0,0.0,9936.8633,0.0,0.0,2624.4,0.0
3710.0,32.0,18.0,52.0,132.0,110.0,nan,-1.08,-7.69,-1.07,6.21,-95.23,109.57,1.32,-0.33,-0.15,-0.57,0.58,-0.46,0.36,1.0,25.64,34.0,0.0746269,0.0,19.263396427015252,nan,-99.61438833333337,nan,0.0,0.0,9936.8633,0.0,0.0,2624.4,0.0
3733.0,21.0,32.0,66.0,145.0,110.0,nan,-1.02,-7.67,-0.91,6.2,-95.23,109.58,0.27,-0.26,-0.57,-0.57,0.58,-0.46,0.36,1.0,25.64,34.0,0.0746269,0.0,19.263396437908494,nan,-99.61438833333337,nan,0.0,0.0,9936.8633,0.0,0.0,2624.4,0.0
3759.0,31.0,32.0,87.0,166.0,136.0,nan,-0.79,-8.09,-0.79,6.19,-95.22,109.59,0.83,-0.33,-0.36,-0.57,0.58,-0.45,0.36,1.0,25.64,34.0,0.0746269,0.0,19.263396448801743,nan,-99.61438833333337,nan,0.0,0.0,9936.8633,0.0,0.0,2624.4,0.0
3782.0,17.0,32.0,136.0,185.0,139.0,nan,-1.09,-7.64,-0.64,6.2,-95.22,109.59,-0.36,-0.12,-0.43,-0.57,0.58,-0.45,0.36,1.0,25.64,34.0,0.0746269,0.0,19.26339645969499,nan,-99.61438833333337,nan,0.0,0.0,9936.8633,0.0,0.0,2624.4,0.0
3802.0,18.0,25.0,39.0,183.0,124.0,nan,-0.75,-7.98,-1.09,6.19,-95.23,109.6,0.76,-0.4,-0.22,-0.57,0.58,-0.45,0.36,1.0,25.64,34.0,0.0746269,0.0,19.26339645969499,nan,-99.61438833333337,nan,0.0,0.0,9936.8633,0.0,0.0,0.0,0.0
3824.0,19.0,32.0,157.0,212.0,111.0,nan,-1.12,-7.73,-0.49,6.2,-95.21,109.6,0.06,-0.12,-0.43,-0.57,0.58,-0.45,0.36,1.0,25.64,34.0,0.0746269,0.0,19.263396470588233,nan,-99.61438833333337,nan,0.0,0.0,9936.8633,0.0,0.0,2624.4,0.0
3844.0,17.0,32.0,206.0,203.0,139.0,nan,-0.84,-7.8,-1.16,6.2,-95.25,109.6,-0.01,-0.26,-0.08,-0.57,0.58,-0.45,0.36,1.0,25.64,34.0,0.0746269,0.0,19.26339648148148,nan,-99.61438833333337,nan,0.0,0.0,9936.8633,0.0,0.0,2624.4,0.0
3867.0,30.0,12.0,88.0,168.0,124.0,nan,-1.07,-7.93,-0.5,6.2,-95.21,109.61,0.9,-0.4,-0.43,-0.57,0.58,-0.45,0.36,1.0,25.64,34.0,0.0746269,0.0,19.263396492374728,nan,-99.61438833333337,nan,0.0,0.0,9936.8633,0.0,0.0,2624.4,0.0
3886.0,30.0,33.0,88.0,134.0,119.0,nan,-0.99,-7.68,-0.9,6.21,-95.23,109.61,-0.22,-0.05,-0.43,-0.57,0.58,-0.45,0.36,1.0,25.64,34.0,0.0746269,0.0,19.263396503267977,nan,-99.61438833333337,nan,0.0,0.0,9936.8633,0.0,0.0,2624.4,0.0
3910.0,18.0,19.0,124.0,154.0,98.0,nan,-0.83,-7.95,-0.92,6.2,-95.23,109.62,0.41,-0.26,-0.36,-0.57,0.58,-0.45,0.36,1.0,25.64,34.0,0.0746269,0.0,19.26339651416122,nan,-99.61438833333337,nan,0.0,0.0,9936.8633,0.0,0.0,2624.4,0.0
3929.0,31.0,18.0,39.0,160.0,125.0,nan,-1.14,-7.75,-0.51,6.21,-95.21,109.62,0.62,-0.19,-0.36,-0.57,0.58,-0.45,0.36,1.0,25.64,34.0,0.0746269,0.0,19.26339651416122,nan,-99.61438833333337,nan,0.0,0.0,9936.8633,0.0,0.0,0.0,0.0
3952.0,14.0,17.0,61.0,150.0,110.0,nan,-1.27,-7.66,-0.49,6.21,-95.2,109.63,1.46,-0.4,-0.01,-0.57,0.58,-0.45,0.36,1.0,25.64,33.98,0.0746303,0.0,19.263396525054464,nan,-99.61438833333337,nan,0.0,0.0,9936.8633,0.0,0.0,2624.4,0.0
3983.0,17.0,31.0,120.0,139.0,73.0,nan,-0.63,-7.99,-1.03,6.18,-95.24,109.63,-0.92,-0.12,-0.64,-0.57,0.58,-0.45,0.36,1.0,25.64,33.98,0.0746303,0.0,19.263396535947713,nan,-99.61438833333337,nan,0.0,0.0,9936.8633,0.0,0.0,2624.4,0.0
4003.0,33.0,34.0,66.0,116.0,110.0,nan,-1.15,-7.67,-0.66,6.2,-95.21,109.64,1.25,-0.33,-0.01,-0.57,0.58,-0.45,0.36,1.0,25.64,33.98,0.0746303,0.0,19.263396546840962,nan,-99.61438833333337,nan,0.0,0.0,9936.8633,0.0,0.0,2624.4,0.0
4026.0,18.0,13.0,67.0,137.0,117.0,nan,-0.96,-7.92,-0.91,6.2,-95.23,109.64,-0.36,-0.05,-0.22,-0.57,0.58,-0.45,0.36,1.0,25.64,33.98,0.0746303,0.0,19.263396557734204,nan,-99.61438833333337,nan,0.0,0.0,9936.8633,0.0,0.0,2624.4,0.0
4046.0,32.0,28.0,59.0,134.0,126.0,nan,-0.85,-7.79,-0.8,6.19,-95.23,109.65,0.06,-0.26,-0.57,-0.57,0.58,-0.45,0.36,1.0,25.64,33.98,0.0746303,0.0,19.26339656862745,nan,-99.61438833333337,nan,0.0,0.0,9936.8633,0.0,0.0,2624.4,0.0
4068.0,29.0,24.0,147.0,163.0,125.0,nan,-0.77,-7.85,-1.04,6.2,-95.26,109.65,-1.27,0.09,-0.71,-0.57,0.58,-0.45,0.36,1.0,25.64,33.98,0.0746303,0.0,19.26339657952069,nan,-99.61438833333337,nan,0.0,0.0,9936.8633,0.0,0.0,2624.4,0.0
4095.0,31.0,32.0,98.0,147.0,110.0,nan,-0.77,-7.85,-1.04,6.2,-95.26,109.65,0.0,0.0,0.0,-0.57,0.58,-0.45,0.36,1.0,25.64,33.98,0.0746303,0.0,19.263396590413947,nan,-99.61438833333337,nan,0.0,0.0,9936.8633,0.0,0.0,2624.4,0.0
4113.0,15.0,25.0,108.0,168.0,126.0,nan,-0.68,-8.02,-0.96,6.19,-95.25,109.66,-1.06,0.02,-0.64,-0.57,0.58,-0.45,0.36,1.0,25.64,33.98,0.0746303,0.0,19.263396590413947,nan,-99.61438833333337,nan,0.0,0.0,9936.8633,0.0,0.0,0.0,0.0
4137.0,21.0,32.0,125.0,182.0,118.0,nan,-1.1,-7.62,-0.69,6.2,-95.22,109.67,1.25,-0.33,-0.22,-0.57,0.58,-0.45,0.36,1.0,25.64,33.98,0.0746303,0.0,19.26339660130719,nan,-99.61438833333337,nan,0.0,0.0,9936.8633,0.0,0.0,2624.4,0.0
4160.0,29.0,41.0,99.0,139.0,111.0,nan,-0.82,-8.01,-0.8,6.19,-95.23,109.67,-0.08,-0.12,-0.22,-0.57,0.58,-0.45,0.36,1.0,25.64,33.98,0.0746303,0.0,19.263396612200435,nan,-99.61438833333337,nan,0.0,0.0,9936.8633,0.0,0.0,2624.4,0.0
4180.0,28.0,32.0,67.0,132.0,75.0,nan,-1.11,-7.7,-0.83,6.21,-95.24,109.67,0.06,-0.19,-0.43,-0.57,0.58,-0.45,0.35,1.0,25.64,33.98,0.0746303,0.0,19.263396623093676,nan,-99.61438833333337,nan,0.0,0.0,9936.8633,0.0,0.0,2624.4,0.0
4202.0,24.0,35.0,88.0,126.0,90.0,nan,-0.94,-7.83,-0.83,6.21,-95.23,109.68,0.97,-0.26,0.06,-0.57,0.58,-0.45,0.35,1.0,25.64,33.98,0.0746303,0.0,19.263396633986925,nan,-99.61438833333337,nan,0.0,0.0,9936.8633,0.0,0.0,2624.4,0.0
4222.0,32.0,32.0,66.0,139.0,112.0,nan,-0.97,-7.91,-0.77,6.21,-95.25,109.68,-0.92,-0.05,-0.5,-0.57,0.58,-0.45,0.35,1.0,25.64,33.98,0.0746303,0.0,19.263396644880174,nan,-99.61438833333337,nan,0.0,0.0,9936.8633,0.0,0.0,2624.4,0.0
4245.0,30.0,20.0,147.0,167.0,123.0,nan,-0.99,-7.71,-0.7,6.22,-95.21,109.68,1.81,-0.33,-0.29,-0.57,0.58,-0.45,0.35,1.0,25.64,33.98,0.0746303,0.0,19.263396644880174,nan,-99.61438833333337,nan,0.0,0.0,9936.8633,0.0,0.0,0.0,0.0
4264.0,13.0,18.0,99.0,148.0,110.0,nan,-0.86,-7.92,-0.88,6.21,-95.24,109.68,-1.2,0.02,-0.36,-0.57,0.58,-0.45,0.35,1.0,25.64,33.98,0.0746303,0.0,19.26339666666667,nan,-99.61438833333337,nan,0.0,0.0,9936.8633,0.0,0.0,2624.4,0.0
4287.0,15.0,19.0,78.0,138.0,124.0,nan,-0.63,-7.99,-0.79,6.19,-95.23,109.69,-0.43,-0.12,-0.5,-0.57,0.58,-0.45,0.35,1.0,25.64,33.98,0.0746303,0.0,19.263396622807015,nan,-99.61438833333337,nan,0.0,0.0,9936.8633,1.0,0.0,2624.4,0.0
4314.0,19.0,29.0,77.0,139.0,110.0,nan,-1.27,-7.7,-0.87,6.22,-95.23,109.7,0.48,-0.19,-0.22,-0.57,0.58,-0.45,0.35,1.0,25.64,33.98,0.0746303,0.0,19.26339657894737,nan,-99.61438833333337,nan,0.0,0.0,9936.8633,0.0,0.0,2624.4,0.0
4337.0,17.0,32.0,52.0,139.0,112.0,nan,-0.64,-7.92,-0.76,6.2,-95.22,109.7,0.62,-0.33,-0.36,-0.57,0.58,-0.45,0.35,1.0,25.64,33.98,0.0746303,0.0,19.26339653508772,nan,-99.61438833333337,nan,0.0,0.0,9936.8633,0.0,0.0,2624.4,0.0
4356.0,31.0,31.0,78.0,145.0,75.0,nan,-1.17,-7.76,-0.79,6.22,-95.23,109.71,-0.5,-0.12,-0.15,-0.57,0.58,-0.45,0.35,1.0,25.64,33.98,0.0746303,0.0,19.26339649122807,nan,-99.61438833333337,nan,0.0,0.0,9936.8633,0.0,0.0,2624.4,0.0
4379.0,34.0,31.0,124.0,133.0,74.0,nan,-0.95,-7.81,-0.82,6.22,-95.21,109.71,1.6,-0.47,-0.43,-0.57,0.58,-0.45,0.35,1.0,25.64,33.98,0.0746303,0.0,19.263396447368418,nan,-99.61438833333337,nan,0.0,0.0,9936.8633,0.0,0.0,2624.6,0.0
4399.0,31.0,25.0,87.0,126.0,116.0,nan,-0.87,-7.85,-0.78,6.21,-95.24,109.72,-1.41,-0.05,-0.36,-0.57,0.58,-0.45,0.35,1.0,25.64,33.98,0.0746303,0.0,19.263396447368418,nan,-99.61438833333337,nan,0.0,0.0,9936.8633,0.0,0.0,0.0,0.0
4422.0,14.0,35.0,78.0,138.0,116.0,nan,-1.1,-7.77,-0.87,6.22,-95.22,109.72,1.67,-0.47,-0.43,-0.57,0.58,-0.45,0.35,1.0,25.65,34.04,0.0746228,0.0,19.26339640350877,nan,-99.61438833333337,nan,0.0,0.0,9936.8633,0.0,0.0,2624.6,0.0
4443.0,18.0,31.0,136.0,155.0,125.0,nan,-0.67,-8.0,-0.76,6.2,-95.24,109.73,-0.85,0.02,-0.57,-0.57,0.58,-0.45,0.35,1.0,25.65,34.04,0.0746228,0.0,19.26339635964912,nan,-99.61438833333337,nan,0.0,0.0,9936.8633,0.0,0.0,2624.6,0.0
4466.0,17.0,31.0,89.0,139.0,123.0,nan,-0.72,-8.05,-0.78,6.19,-95.22,109.74,0.55,-0.26,-0.43,-0.57,0.58,-0.45,0.35,1.0,25.65,34.04,0.0746228,0.0,19.263396315789475,nan,-99.61438833333337,nan,0.0,0.0,9936.8633,0.0,0.0,2624.6,0.0
4493.0,13.0,24.0,108.0,153.0,112.0,nan,-1.12,-7.63,-0.82,6.21,-95.24,109.74,-0.64,-0.05,-0.22,-0.57,0.58,-0.45,0.35,1.0,25.65,34.04,0.0746228,0.0,19.263396271929828,nan,-99.61438833333337,nan,0.0,0.0,9936.8633,0.0,0.0,2624.6,0.0
4516.0,43.0,25.0,55.0,145.0,110.0,nan,-0.94,-7.88,-0.96,6.22,-95.23,109.74,1.32,-0.33,-0.01,-0.57,0.58,-0.45,0.35,1.0,25.65,34.04,0.0746228,0.0,19.263396228070174,nan,-99.61438833333337,nan,0.0,0.0,9936.8633,0.0,0.0,2624.6,0.0
4535.0,30.0,24.0,68.0,123.0,110.0,nan,-0.96,-7.83,-0.55,6.21,-95.23,109.75,-0.64,-0.12,-0.64,-0.57,0.58,-0.45,0.35,1.0,25.65,34.04,0.0746228,0.0,19.263396184210524,nan,-99.61438833333337,nan,0.0,0.0,9936.8633,0.0,0.0,2624.6,0.0
4558.0,32.0,19.0,77.0,138.0,106.0,nan,-1.01,-7.7,-1.05,6.22,-95.24,109.75,0.83,-0.26,-0.08,-0.57,0.58,-0.45,0.35,1.0,25.65,34.04,0.0746228,0.0,19.263396184210524,nan,-99.61438833333337,nan,0.0,0.0,9936.8633,0.0,0.0,0.0,0.0
4577.0,31.0,21.0,112.0,138.0,109.0,nan,-0.94,-8.01,-0.68,6.22,-95.25,109.75,-0.36,-0.12,-0.57,-0.57,0.58,-0.45,0.35,1.0,25.65,34.04,0.0746228,0.0,19.263396140350878,nan,-99.61438833333337,nan,0.0,0.0,9936.8633,0.0,0.0,2624.6,0.0
4601.0,32.0,31.0,146.0,133.0,109.0,nan,-1.02,-7.62,-0.86,6.22,-95.25,109.76,0.2,-0.26,-0.5,-0.57,0.58,-0.45,0.35,1.0,25.65,34.04,0.0746228,0.0,19.263396096491224,nan,-99.61438833333337,nan,0.0,0.0,9936.8633,0.0,0.0,2624.6,0.0
4620.0,28.0,14.0,99.0,137.0,111.0,nan,-0.74,-8.07,-0.88,6.2,-95.25,109.76,0.48,-0.26,-0.29,-0.57,0.58,-0.45,0.35,1.0,25.65,34.04,0.0746228,0.0,19.26339605263158,nan,-99.61438833333337,nan,0.0,0.0,9936.8633,0.0,0.0,2624.6,0.0
4643.0,30.0,23.0,135.0,135.0,110.0,nan,-1.18,-7.64,-0.61,6.22,-95.25,109.76,-0.15,-0.05,-0.43,-0.57,0.58,-0.45,0.35,1.0,25.65,34.04,0.0746228,0.0,19.263396008771927,nan,-99.61438833333337,nan,0.0,0.0,9936.8633,0.0,0.0,2624.6,0.0
4662.0,15.0,14.0,88.0,133.0,110.0,nan,-0.66,-8.01,-1.02,6.2,-95.26,109.77,0.62,-0.33,-0.36,-0.57,0.58,-0.45,0.35,1.0,25.65,34.04,0.0746228,0.0,19.26339596491228,nan,-99.61438833333337,nan,0.0,0.0,9936.8633,0.0,0.0,2624.6,0.0
4685.0,30.0,25.0,108.0,138.0,123.0,nan,-0.86,-7.77,-1.09,6.21,-95.27,109.77,0.13,-0.19,-0.15,-0.57,0.58,-0.45,0.35,1.0,25.65,34.04,0.0746228,0.0,19.26339596491228,nan,-99.61438833333337,nan,0.0,0.0,9936.8633,0.0,0.0,0.0,0.0
4711.0,20.0,31.0,88.0,160.0,110.0,nan,-1.05,-7.92,-0.52,6.22,-95.24,109.78,0.62,-0.19,-0.43,-0.57,0.58,-0.45,0.35,1.0,25.65,34.04,0.0746228,0.0,19.263395921052634,nan,-99.61438833333337,nan,0.0,0.0,9936.8633,0.0,0.0,2624.6,0.0
4734.0,17.0,32.0,51.0,134.0,110.0,nan,-1.06,-7.74,-0.85,6.23,-95.25,109.78,-0.08,-0.12,-0.36,-0.57,0.58,-0.45,0.35,1.0,25.65,34.04,0.0746228,0.0,19.26339587719298,nan,-99.61438833333337,nan,0.0,0.0,9936.8633,0.0,0.0,2624.6,0.0
4754.0,24.0,30.0,66.0,140.0,117.0,nan,-0.7,-7.94,-0.94,6.21,-95.26,109.79,0.34,-0.26,-0.43,-0.57,0.58,-0.45,0.35,1.0,25.65,34.04,0.0746228,0.0,19.263395833333337,nan,-99.61438833333337,nan,0.0,0.0,9936.8633,0.0,0.0,2624.6,0.0
4777.0,31.0,31.0,98.0,153.0,124.0,nan,-1.2,-7.77,-0.57,6.23,-95.24,109.79,0.55,-0.26,-0.29,-0.57,0.58,-0.45,0.35,1.0,25.65,34.04,0.0746228,0.0,19.263395789473684,nan,-99.61438833333337,nan,0.0,0.0,9936.8633,0.0,0.0,2624.6,0.0
4796.0,24.0,31.0,61.0,155.0,111.0,nan,-0.61,-7.96,-1.05,6.2,-95.26,109.8,-0.22,-0.19,-0.57,-0.57,0.58,-0.45,0.35,1.0,25.65,34.04,0.0746228,0.0,19.263395745614037,nan,-99.61438833333337,nan,0.0,0.0,9936.8633,0.0,0.0,2624.6,0.0
4819.0,43.0,42.0,121.0,138.0,111.0,nan,-1.21,-7.72,-0.55,6.22,-95.24,109.8,0.69,-0.12,-0.15,-0.57,0.58,-0.45,0.35,1.0,25.65,34.04,0.0746228,0.0,19.263395701754387,nan,-99.61438833333337,nan,0.0,0.0,9936.8633,0.0,0.0,2624.6,0.0
4839.0,35.0,24.0,59.0,154.0,75.0,nan,-0.78,-7.93,-1.02,6.21,-95.26,109.8,-0.29,-0.05,-0.5,-0.57,0.58,-0.45,0.35,1.0,25.65,34.04,0.0746228,0.0,19.263395701754387,nan,-99.61438833333337,nan,0.0,0.0,9936.8633,0.0,0.0,0.0,0.0
4862.0,31.0,25.0,78.0,140.0,102.0,nan,-1.03,-7.73,-0.63,6.22,-95.24,109.81,0.97,-0.26,-0.15,-0.57,0.58,-0.45,0.35,1.0,25.65,34.04,0.0746228,0.0,19.263395657894733,nan,-99.61438833333337,nan,0.0,0.0,9936.8633,0.0,0.0,2624.6,0.0
4881.0,16.0,20.0,108.0,139.0,125.0,nan,-0.76,-7.85,-0.81,6.21,-95.26,109.81,-0.15,-0.19,-0.71,-0.57,0.58,-0.45,0.35,1.0,25.65,33.98,0.0746269,0.0,19.263395614035087,nan,-99.61438833333337,nan,0.0,0.0,9936.8633,0.0,0.0,2624.6,0.0
4913.0,32.0,30.0,52.0,139.0,111.0,nan,-1.14,-7.79,-0.72,6.23,-95.24,109.82,0.83,-0.26,-0.01,-0.57,0.58,-0.45,0.35,1.0,25.65,33.98,0.0746269,0.0,19.26339557017544,nan,-99.61438833333337,nan,0.0,0.0,9936.8633,0.0,0.0,2624.6,0.0
4932.0,32.0,31.0,67.0,138.0,111.0,nan,-0.79,-7.93,-1.05,6.21,-95.28,109.82,-0.71,-0.12,-0.57,-0.57,0.58,-0.45,0.35,1.0,25.65,33.98,0.0746269,0.0,19.263395526315787,nan,-99.61438833333337,nan,0.0,0.0,9936.8633,0.0,0.0,2624.6,0.0
4956.0,39.0,31.0,124.0,132.0,111.0,nan,-1.04,-7.72,-0.52,6.22,-95.24,109.83,1.11,-0.33,-0.22,-0.57,0.58,-0.45,0.35,1.0,25.65,33.98,0.0746269,0.0,19.263395482456144,nan,-99.61438833333337,nan,0.0,0.0,9936.8633,0.0,0.0,2624.6,0.0
4975.0,43.0,31.0,76.0,136.0,111.0,nan,-0.71,-8.02,-0.98,6.2,-95.27,109.83,-0.64,-0.12,-0.5,-0.57,0.58,-0.45,0.35,1.0,25.65,33.98,0.0746269,0.0,19.26339543859649,nan,-99.61438833333337,nan,0.0,0.0,9936.8633,0.0,0.0,2624.6,0.0
4998.0,12.0,32.0,53.0,136.0,110.0,nan,-1.08,-7.68,-0.68,6.21,-95.25,109.83,0.76,-0.26,-0.29,-0.57,0.58,-0.45,0.35,1.0,25.65,33.98,0.0746269,0.0,19.26339543859649,nan,-99.61438833333337,nan,0.0,0.0,9936.8633,0.0,0.0,0.0,0.0
5017.0,19.0,32.0,108.0,139.0,98.0,nan,-0.93,-7.85,-0.93,6.22,-95.26,109.84,-0.01,-0.12,-0.01,-0.57,0.58,-0.45,0.35,1.0,25.65,33.98,0.0746269,0.0,19.263395394736843,nan,-99.61438833333337,nan,0.0,0.0,9936.8633,0.0,0.0,2624.6,0.0
5040.0,38.0,31.0,98.0,139.0,110.0,nan,-1.11,-7.81,-0.73,6.22,-95.26,109.84,0.27,-0.19,-0.57,-0.57,0.58,-0.45,0.35,1.0,25.65,33.98,0.0746269,0.0,19.263395350877193,nan,-99.61438833333337,nan,0.0,0.0,9936.8633,0.0,0.0,2624.6,0.0
5060.0,21.0,32.0,135.0,147.0,123.0,nan,-0.96,-7.74,-0.74,6.23,-95.25,109.84,0.55,-0.19,-0.22,-0.57,0.58,-0.45,0.35,1.0,25.65,33.98,0.0746269,0.0,19.26339530701754,nan,-99.61438833333337,nan,0.0,0.0,9936.8633,0.0,0.0,2624.6,0.0
5082.0,17.0,26.0,89.0,145.0,125.0,nan,-1.06,-7.73,-0.53,6.23,-95.23,109.86,1.81,-0.47,-0.36,-0.57,0.58,-0.45,0.35,1.0,25.65,33.98,0.0746269,0.0,19.263395263157893,nan,-99.61438833333337,nan,0.0,0.0,9936.8633,0.0,0.0,2624.6,0.0
5109.0,33.0,31.0,88.0,144.0,97.0,nan,-0.68,-7.98,-1.0,6.21,-95.27,109.86,-1.2,-0.05,-0.43,-0.57,0.58,-0.45,0.35,1.0,25.65,33.98,0.0746269,0.0,19.263395219298246,nan,-99.61438833333337,nan,0.0,0.0,9936.8633,0.0,0.0,2624.6,0.0
5132.0,20.0,30.0,68.0,139.0,111.0,nan,-1.24,-7.7,-0.68,6.23,-95.24,109.86,1.39,-0.33,-0.22,-0.57,0.58,-0.45,0.35,1.0,25.65,33.98,0.0746269,0.0,19.263395175438596,nan,-99.61438833333337,nan,0.0,0.0,9936.8633,0.0,0.0,2624.6,0.0
5151.0,31.0,31.0,78.0,138.0,96.0,nan,-0.62,-7.95,-0.82,6.2,-95.26,109.86,-0.71,0.02,-0.43,-0.57,0.58,-0.45,0.35,1.0,25.65,33.98,0.0746269,0.0,19.263395175438596,nan,-99.61438833333337,nan,0.0,0.0,9936.8633,0.0,0.0,0.0,0.0
5174.0,18.0,18.0,146.0,138.0,105.0,nan,-1.23,-7.72,-0.88,6.23,-95.26,109.87,0.69,-0.26,-0.15,-0.57,0.58,-0.45,0.35,1.0,25.65,33.98,0.0746269,0.0,19.26339513157895,nan,-99.61438833333337,nan,0.0,0.0,9936.8633,0.0,0.0,2624.6,0.0
5194.0,31.0,30.0,125.0,147.0,111.0,nan,-0.83,-7.87,-0.68,6.22,-95.24,109.87,0.62,-0.26,-0.29,-0.57,0.58,-0.45,0.35,1.0,25.65,33.98,0.0746269,0.0,19.263395087719296,nan,-99.61438833333337,nan,0.0,0.0,9936.8633,0.0,0.0,2624.6,0.0
5217.0,32.0,29.0,87.0,139.0,111.0,nan,-0.99,-7.8,-0.9,6.22,-95.27,109.88,-0.85,-0.12,-0.43,-0.57,0.58,-0.45,0.35,1.0,25.65,33.98,0.0746269,0.0,19.26339504385965,nan,-99.61438833333337,nan,0.0,0.0,9936.8633,0.0,0.0,2624.6,0.0
5237.0,23.0,31.0,77.0,160.0,91.0,nan,-1.07,-7.82,-0.65,6.23,-95.23,109.89,2.02,-0.47,-0.36,-0.57,0.58,-0.45,0.35,1.0,25.65,33.98,0.0746269,0.0,19.263394958333336,nan,-99.61438833333337,nan,0.0,0.0,9936.8633,1.0,0.0,2624.6,0.0
5259.0,18.0,32.0,67.0,136.0,117.0,nan,-0.7,-7.89,-0.94,6.21,-95.28,109.88,-1.76,0.09,-0.64,-0.57,0.58,-0.45,0.35,1.0,25.65,33.98,0.0746269,0.0,19.263394958333336,nan,-99.61438833333337,nan,0.0,0.0,9936.8633,0.0,0.0,0.0,0.0
5279.0,35.0,39.0,88.0,155.0,109.0,nan,-1.17,-7.71,-0.74,6.23,-95.24,109.89,1.95,-0.4,-0.15,-0.57,0.58,-0.45,0.35,1.0,25.65,33.98,0.0746269,0.0,19.263394916666666,nan,-99.61438833333337,nan,0.0,0.0,9936.8633,0.0,0.0,2624.6,0.0
5301.0,31.0,33.0,78.0,138.0,110.0,nan,-1.16,-7.58,-0.91,6.22,-95.27,109.9,0.27,-0.19,-0.15,-0.57,0.58,-0.45,0.35,1.0,25.65,33.98,0.0746269,0.0,19.263394875000003,nan,-99.61438833333337,nan,0.0,0.0,9936.8633,0.0,0.0,2624.6,0.0
5328.0,18.0,32.0,77.0,161.0,109.0,nan,-0.83,-8.01,-0.74,6.22,-95.25,109.9,0.9,-0.26,-0.22,-0.57,0.58,-0.45,0.35,1.0,25.65,33.98,0.0746269,0.0,19.263394833333333,nan,-99.61438833333337,nan,0.0,0.0,9936.8633,0.0,0.0,2624.6,0.0
5351.0,31.0,28.0,66.0,138.0,104.0,nan,-0.97,-7.69,-0.78,6.21,-95.28,109.9,-0.99,-0.12,-0.57,-0.57,0.58,-0.45,0.35,1.0,25.65,33.99,0.074622,0.0,19.263394791666666,nan,-99.61438833333337,nan,0.0,0.0,9936.8633,0.0,0.0,2624.6,0.0
5373.0,30.0,20.0,51.0,132.0,103.0,nan,-1.06,-7.8,-0.88,6.23,-95.25,109.91,1.67,-0.47,0.06,-0.57,0.58,-0.45,0.35,1.0,25.65,33.99,0.074622,0.0,19.263394749999996,nan,-99.61438833333337,nan,0.0,0.0,9936.8633,0.0,0.0,2624.6,0.0
5395.0,42.0,39.0,109.0,137.0,111.0,nan,-0.89,-7.92,-0.65,6.22,-95.27,109.91,-1.2,0.02,-0.71,-0.57,0.58,-0.45,0.35,1.0,25.65,33.99,0.074622,0.0,19.263394708333333,nan,-99.61438833333337,nan,0.0,0.0,9936.8633,0.0,0.0,2624.6,0.0
5415.0,27.0,32.0,147.0,133.0,74.0,nan,-1.0,-7.7,-0.96,6.22,-95.26,109.92,1.39,-0.4,-0.29,-0.57,0.58,-0.45,0.35,1.0,25.65,33.99,0.074622,0.0,19.263394708333333,nan,-99.61438833333337,nan,0.0,0.0,9936.8633,0.0,0.0,0.0,0.0
5438.0,43.0,30.0,87.0,139.0,103.0,nan,-0.82,-8.08,-0.67,6.21,-95.26,109.93,-0.22,-0.26,-0.43,-0.57,0.58,-0.45,0.35,1.0,25.65,33.99,0.074622,0.0,19.26339466666667,nan,-99.61438833333337,nan,0.0,0.0,9936.8633,0.0,0.0,2624.6,0.0
5458.0,31.0,33.0,67.0,155.0,110.0,nan,-1.08,-7.64,-0.8,6.22,-95.27,109.93,0.06,-0.12,-0.5,-0.57,0.58,-0.45,0.35,1.0,25.65,33.99,0.074622,0.0,19.263394625,nan,-99.61438833333337,nan,0.0,0.0,9936.8633,0.0,0.0,2624.6,0.0
5480.0,31.0,31.0,136.0,134.0,125.0,nan,-1.18,-7.67,-0.72,6.22,-95.27,109.94,-0.71,-0.05,-0.36,-0.57,0.58,-0.45,0.35,1.0,25.65,33.99,0.074622,0.0,19.263394583333334,nan,-99.61438833333337,nan,0.0,0.0,9936.8633,0.0,0.0,2624.6,0.0
5507.0,18.0,32.0,77.0,139.0,111.0,nan,-0.73,-7.88,-0.96,6.21,-95.26,109.94,1.32,-0.33,-0.15,-0.57,0.58,-0.45,0.35,1.0,25.65,33.99,0.074622,0.0,19.263394541666663,nan,-99.61438833333337,nan,0.0,0.0,9936.8633,0.0,0.0,2624.6,0.0
5529.0,32.0,33.0,88.0,140.0,110.0,nan,-1.14,-7.81,-0.51,6.23,-95.25,109.95,-0.15,-0.19,-0.36,-0.57,0.58,-0.45,0.35,1.0,25.65,33.99,0.074622,0.0,19.2633945,nan,-99.61438833333337,nan,0.0,0.0,9936.8633,0.0,0.0,2624.6,0.0
5549.0,12.0,31.0,67.0,140.0,110.0,nan,-0.95,-7.72,-1.07,6.23,-95.26,109.95,0.62,-0.26,-0.29,-0.57,0.58,-0.45,0.35,1.0,25.65,33.99,0.074622,0.0,19.26339445833333,nan,-99.61438833333337,nan,0.0,0.0,9936.8633,0.0,0.0,2624.6,0.0
5572.0,25.0,33.0,72.0,126.0,110.0,nan,-0.95,-7.92,-0.62,6.23,-95.25,109.96,0.06,-0.19,-0.22,-0.57,0.58,-0.45,0.35,1.0,25.65,33.99,0.074622,0.0,19.26339445833333,nan,-99.61438833333337,nan,0.0,0.0,9936.8633,0.0,0.0,0.0,0.0
5592.0,17.0,31.0,76.0,138.0,112.0,nan,-1.08,-7.78,-0.81,6.24,-95.25,109.96,0.48,-0.26,-0.43,-0.57,0.58,-0.45,0.35,1.0,25.65,33.99,0.074622,0.0,19.263394416666667,nan,-99.61438833333337,nan,0.0,0.0,9936.8633,0.0,0.0,2624.6,0.0
5615.0,29.0,25.0,68.0,136.0,111.0,nan,-0.59,-7.97,-0.86,6.21,-95.25,109.97,0.34,-0.26,-0.5,-0.57,0.58,-0.45,0.35,1.0,25.65,33.99,0.074622,0.0,19.263394375,nan,-99.61438833333337,nan,0.0,0.0,9936.8633,0.0,0.0,2624.6,0.0
5634.0,39.0,31.0,51.0,152.0,119.0,nan,-1.22,-7.72,-0.69,6.23,-95.24,109.97,0.2,-0.19,-0.22,-0.57,0.58,-0.45,0.35,1.0,25.65,33.99,0.074622,0.0,19.26339433333333,nan,-99.61438833333337,nan,0.0,0.0,9936.8633,0.0,0.0,2624.6,0.0
5657.0,36.0,24.0,60.0,131.0,118.0,nan,-0.67,-7.96,-1.0,6.21,-95.25,109.97,0.41,-0.26,-0.57,-0.57,0.58,-0.45,0.35,1.0,25.65,33.99,0.074622,0.0,19.263394291666668,nan,-99.61438833333337,nan,0.0,0.0,9936.8633,0.0,0.0,2624.6,0.0
5677.0,32.0,31.0,125.0,151.0,108.0,nan,-1.13,-7.69,-0.59,6.23,-95.24,109.98,0.2,-0.19,-0.15,-0.57,0.58,-0.45,0.35,1.0,25.65,33.99,0.074622,0.0,19.263394249999997,nan,-99.61438833333337,nan,0.0,0.0,9936.8633,0.0,0.0,2624.6,0.0
5700.0,12.0,31.0,109.0,137.0,123.0,nan,-0.85,-7.87,-0.5,6.22,-95.24,109.99,0.48,-0.4,-0.64,-0.57,0.58,-0.45,0.35,1.0,25.65,33.99,0.074622,0.0,19.263394208333334,nan,-99.61438833333337,nan,0.0,0.0,9936.8633,0.0,0.0,2624.6,0.0
5726.0,19.0,32.0,77.0,162.0,111.0,nan,-1.15,-7.75,-0.97,6.24,-95.25,109.99,0.2,-0.12,-0.08,-0.57,0.58,-0.45,0.35,1.0,25.65,33.99,0.074622,0.0,19.263394208333334,nan,-99.61438833333337,nan,0.0,0.0,9936.8633,0.0,0.0,0.0,0.0
5749.0,19.0,31.0,59.0,154.0,96.0,nan,-0.77,-7.96,-0.8,6.21,-95.25,110.0,0.27,-0.26,-0.78,-0.57,0.58,-0.45,0.35,1.0,25.65,33.99,0.074622,0.0,19.263394166666664,nan,-99.61438833333337,nan,0.0,0.0,9936.8633,0.0,0.0,2624.6,0.0
5768.0,31.0,18.0,120.0,143.0,125.0,nan,-1.05,-7.72,-0.63,6.22,-95.24,110.0,0.27,-0.26,-0.29,-0.57,0.58,-0.45,0.35,1.0,25.65,33.99,0.074622,0.0,19.263394124999998,nan,-99.61438833333337,nan,0.0,0.0,9936.8633,0.0,0.0,2624.6,0.0
5791.0,17.0,32.0,98.0,161.0,103.0,nan,-0.77,-7.97,-1.06,6.21,-95.26,110.0,-0.08,-0.12,-0.5,-0.57,0.58,-0.45,0.35,1.0,25.65,33.99,0.074622,0.0,19.263394083333335,nan,-99.61438833333337,nan,0.0,0.0,9936.8633,0.0,0.0,2624.6,0.0
5811.0,24.0,26.0,88.0,139.0,109.0,nan,-1.02,-7.68,-0.49,6.21,-95.23,110.01,0.9,-0.33,-0.5,-0.57,0.58,-0.45,0.35,1.0,25.65,34.04,0.0746196,0.0,19.263394041666672,nan,-99.61438833333337,nan,0.0,0.0,9936.8633,0.0,0.0,2624.6,0.0
5836.0,20.0,36.0,124.0,138.0,76.0,nan,-0.8,-7.93,-1.13,6.2,-95.26,110.01,-0.22,-0.19,-0.22,-0.57,0.58,-0.45,0.35,1.0,25.65,34.04,0.0746196,0.0,19.263394,nan,-99.61438833333337,nan,0.0,0.0,9936.8633,0.0,0.0,2624.6,0.0
