time,p1,p2,p3,p4,p5,termite,ax,ay,az,rx,ry,rz,roll,pitch,yaw,q1,q2,q3,q4,calibration,temperature,humidity,pressure,flag_rm,lat,lacoord,lon,locoord,capacitive,o_lat,o_lon,used_lat,used_lon,altitude,flag_lm
0.0,17.0,26.0,77.0,124.0,67.0,nan,-0.82,-7.9,-1.13,6.03,-95.7,143.26,-0.29,-0.19,0.2,-0.65,0.69,-0.27,0.17,1.0,26.14,34.72,0.0746177,0.0,19.26338607142857,nan,-99.6143716259169,nan,0.0,0.0,9936.8623,1.0,1.0,2622.7,0.0
22.0,18.0,18.0,67.0,137.0,102.0,nan,-1.0,-7.57,-0.71,6.04,-95.7,143.27,-0.01,-0.19,-0.57,-0.65,0.69,-0.27,0.17,1.0,26.14,34.72,0.0746177,0.0,19.26338607142857,nan,-99.6143716259169,nan,0.0,0.0,9936.8623,0.0,0.0,0.0,0.0
42.0,25.0,29.0,52.0,139.0,109.0,nan,-0.86,-8.0,-1.12,6.04,-95.71,143.27,0.48,-0.33,0.2,-0.65,0.69,-0.27,0.17,1.0,26.14,34.72,0.0746177,0.0,19.26338607142857,nan,-99.6143716259169,nan,0.0,0.0,9936.8623,0.0,0.0,0.0,0.0
65.0,25.0,30.0,68.0,140.0,111.0,nan,-0.96,-8.15,-0.75,6.04,-95.68,143.28,1.67,-0.4,0.06,-0.65,0.69,-0.27,0.17,1.0,26.14,34.72,0.0746177,0.0,19.26338607142857,nan,-99.6143716259169,nan,0.0,0.0,9936.8623,0.0,0.0,0.0,0.0
91.0,28.0,27.0,99.0,159.0,121.0,nan,-0.89,-7.46,-0.82,6.04,-95.68,143.29,0.27,-0.26,-0.64,-0.65,0.69,-0.27,0.17,1.0,26.14,34.72,0.0746177,0.0,19.26338607142857,nan,-99.6143716259169,nan,0.0,0.0,9936.8623,0.0,0.0,0.0,0.0
114.0,18.0,30.0,157.0,147.0,110.0,nan,-1.04,-8.24,-0.74,6.05,-95.62,143.3,2.65,-0.47,-0.01,-0.65,0.69,-0.27,0.17,1.0,26.14,34.72,0.0746177,0.0,19.26338607142857,nan,-99.6143716259169,nan,0.0,0.0,9936.8623,0.0,0.0,0.0,0.0
134.0,38.0,27.0,217.0,150.0,125.0,nan,-0.82,-7.52,-0.84,6.04,-95.63,143.3,-0.22,-0.05,-0.43,-0.65,0.69,-0.27,0.17,1.0,26.14,34.72,0.0746177,0.0,19.26338607142857,nan,-99.6143716259169,nan,0.0,0.0,9936.8623,0.0,0.0,0.0,0.0
157.0,27.0,30.0,114.0,138.0,124.0,nan,-1.11,-8.3,-0.68,6.05,-95.56,143.31,3.0,-0.61,-0.22,-0.65,0.69,-0.27,0.17,1.0,26.16,34.73,0.0746226,0.0,19.26338607142857,nan,-99.6143716259169,nan,0.0,0.0,9936.8623,0.0,0.0,0.0,0.0
178.0,17.0,31.0,77.0,141.0,104.0,nan,-1.08,-7.39,-0.79,6.07,-95.57,143.31,-0.36,-0.05,-0.15,-0.65,0.69,-0.27,0.17,1.0,26.16,34.73,0.0746226,0.0,19.26338607142857,nan,-99.6143716259169,nan,0.0,0.0,9936.8623,0.0,0.0,0.0,0.0
201.0,31.0,26.0,88.0,138.0,125.0,nan,-0.93,-8.24,-0.53,6.06,-95.5,143.33,2.58,-0.54,-0.57,-0.65,0.69,-0.27,0.17,1.0,26.16,34.73,0.0746226,0.0,19.26338607142857,nan,-99.6143716259169,nan,0.0,0.0,9936.8623,0.0,0.0,0.0,0.0
221.0,18.0,31.0,119.0,148.0,109.0,nan,-0.93,-7.53,-0.79,6.07,-95.52,143.33,-0.71,0.02,-0.15,-0.65,0.69,-0.27,0.17,1.0,26.16,34.73,0.0746226,0.0,19.26338547619048,nan,-99.6143715851671,nan,0.0,0.0,9936.8623,0.0,0.0,2622.7,0.0
243.0,27.0,31.0,93.0,138.0,110.0,nan,-0.93,-7.59,-0.77,6.07,-95.51,143.34,-1.48,-0.05,-0.15,-0.65,0.69,-0.27,0.17,1.0,26.16,34.73,0.0746226,0.0,19.26338547619048,nan,-99.6143715851671,nan,0.0,0.0,9936.8623,0.0,0.0,0.0,0.0
270.0,26.0,31.0,146.0,154.0,112.0,nan,-0.94,-8.13,-0.61,6.06,-95.47,143.35,1.11,-0.47,-0.71,-0.65,0.69,-0.27,0.17,1.0,26.16,34.73,0.0746226,0.0,19.26338547619048,nan,-99.6143715851671,nan,0.0,0.0,9936.8623,0.0,0.0,0.0,0.0
293.0,26.0,27.0,88.0,137.0,111.0,nan,-0.78,-7.71,-0.82,6.05,-95.51,143.35,-1.48,0.02,-0.15,-0.65,0.69,-0.27,0.17,1.0,26.16,34.73,0.0746226,0.0,19.26338547619048,nan,-99.6143715851671,nan,0.0,0.0,9936.8623,0.0,0.0,0.0,0.0
312.0,19.0,26.0,87.0,137.0,110.0,nan,-1.01,-7.85,-0.84,6.06,-95.51,143.35,0.2,-0.19,-0.43,-0.65,0.69,-0.27,0.17,1.0,26.16,34.73,0.0746226,0.0,19.26338547619048,nan,-99.6143715851671,nan,0.0,0.0,9936.8623,0.0,0.0,0.0,0.0
335.0,17.0,31.0,108.0,139.0,110.0,nan,-0.74,-7.87,-1.03,6.04,-95.56,143.35,-1.41,-0.12,-0.5,-0.65,0.69,-0.27,0.17,1.0,26.16,34.73,0.0746226,0.0,19.26338547619048,nan,-99.6143715851671,nan,0.0,0.0,9936.8623,0.0,0.0,0.0,0.0
355.0,38.0,18.0,67.0,159.0,120.0,nan,-1.01,-7.71,-0.73,6.05,-95.56,143.36,-0.15,-0.19,-0.5,-0.65,0.69,-0.27,0.17,1.0,26.16,34.73,0.0746226,0.0,19.26338547619048,nan,-99.6143715851671,nan,0.0,0.0,9936.8623,0.0,0.0,0.0,0.0
378.0,17.0,31.0,119.0,147.0,110.0,nan,-0.75,-7.91,-1.05,6.04,-95.58,143.36,-0.22,-0.26,-0.22,-0.65,0.69,-0.27,0.17,1.0,26.16,34.73,0.0746226,0.0,19.26338547619048,nan,-99.6143715851671,nan,0.0,0.0,9936.8623,0.0,0.0,0.0,0.0
397.0,26.0,31.0,64.0,139.0,109.0,nan,-1.02,-7.61,-0.8,6.04,-95.59,143.36,-0.5,-0.12,-0.57,-0.65,0.69,-0.27,0.17,1.0,26.16,34.73,0.0746226,0.0,19.26338547619048,nan,-99.6143715851671,nan,0.0,0.0,9936.8623,0.0,0.0,0.0,0.0
420.0,27.0,31.0,108.0,159.0,125.0,nan,-0.84,-8.01,-1.23,6.04,-95.62,143.37,0.2,-0.26,0.06,-0.65,0.69,-0.27,0.17,1.0,26.16,34.73,0.0746226,0.0,19.26338547619048,nan,-99.6143715851671,nan,0.0,0.0,9936.8623,0.0,0.0,0.0,0.0
439.0,26.0,30.0,108.0,133.0,110.0,nan,-0.86,-7.58,-0.81,6.03,-95.63,143.37,-0.36,-0.12,-0.64,-0.65,0.69,-0.27,0.17,1.0,26.16,34.73,0.0746226,0.0,19.263384880952387,nan,-99.6143715444173,nan,0.0,0.0,9936.8623,0.0,0.0,2622.7,0.0
463.0,27.0,30.0,56.0,160.0,125.0,nan,-0.83,-7.53,-0.81,6.05,-95.62,143.38,-0.57,-0.05,-0.64,-0.65,0.69,-0.27,0.17,1.0,26.16,34.73,0.0746226,0.0,19.263384880952387,nan,-99.6143715444173,nan,0.0,0.0,9936.8623,0.0,0.0,0.0,0.0
489.0,37.0,25.0,157.0,182.0,124.0,nan,-1.13,-8.11,-0.87,6.07,-95.58,143.38,2.3,-0.4,0.06,-0.65,0.69,-0.27,0.17,1.0,26.16,34.73,0.0746226,0.0,19.263384880952387,nan,-99.6143715444173,nan,0.0,0.0,9936.8623,0.0,0.0,0.0,0.0
511.0,18.0,31.0,89.0,184.0,124.0,nan,-0.83,-7.58,-0.73,6.06,-95.58,143.39,-0.29,-0.05,-0.71,-0.65,0.69,-0.27,0.17,1.0,26.16,34.73,0.0746226,0.0,19.263384880952387,nan,-99.6143715444173,nan,0.0,0.0,9936.8623,0.0,0.0,0.0,0.0
531.0,27.0,26.0,67.0,184.0,138.0,nan,-1.06,-8.2,-0.74,6.07,-95.53,143.4,2.65,-0.47,-0.22,-0.65,0.69,-0.27,0.17,1.0,26.16,34.73,0.0746226,0.0,19.263384880952387,nan,-99.6143715444173,nan,0.0,0.0,9936.8623,0.0,0.0,0.0,0.0
554.0,31.0,31.0,77.0,183.0,138.0,nan,-0.91,-7.47,-0.7,6.07,-95.53,143.4,-0.5,-0.12,-0.43,-0.65,0.69,-0.27,0.17,1.0,26.16,34.73,0.0746226,0.0,19.263384880952387,nan,-99.6143715444173,nan,0.0,0.0,9936.8623,0.0,0.0,0.0,0.0
574.0,27.0,26.0,78.0,177.0,126.0,nan,-0.98,-8.25,-0.67,6.07,-95.49,143.41,1.88,-0.47,-0.36,-0.65,0.69,-0.27,0.17,1.0,26.16,34.73,0.0746226,0.0,19.263384880952387,nan,-99.6143715444173,nan,0.0,0.0,9936.8623,0.0,0.0,0.0,0.0
596.0,31.0,18.0,67.0,155.0,111.0,nan,-0.83,-7.53,-1.05,6.06,-95.53,143.41,-0.85,-0.05,-0.5,-0.65,0.69,-0.27,0.17,1.0,26.16,34.73,0.0746226,0.0,19.263384880952387,nan,-99.6143715444173,nan,0.0,0.0,9936.8623,0.0,0.0,0.0,0.0
616.0,30.0,17.0,77.0,139.0,110.0,nan,-1.12,-8.16,-0.75,6.07,-95.51,143.42,0.69,-0.26,-0.43,-0.65,0.69,-0.27,0.17,1.0,26.19,34.8,0.0746249,0.0,19.263384880952387,nan,-99.6143715444173,nan,0.0,0.0,9936.8623,0.0,0.0,0.0,0.0
641.0,31.0,26.0,78.0,139.0,125.0,nan,-1.05,-8.0,-0.66,6.07,-95.52,143.42,0.27,-0.19,-0.36,-0.65,0.69,-0.27,0.17,1.0,26.19,34.8,0.0746249,0.0,19.263384880952387,nan,-99.6143715444173,nan,0.0,0.0,9936.8623,0.0,0.0,0.0,0.0
667.0,19.0,31.0,108.0,138.0,97.0,nan,-0.61,-7.72,-1.24,6.04,-95.59,143.42,-1.69,-0.12,-0.64,-0.65,0.69,-0.27,0.17,1.0,26.19,34.8,0.0746249,0.0,19.263384285714288,nan,-99.6143715036675,nan,0.0,0.0,9936.8623,0.0,0.0,2622.7,0.0
691.0,31.0,21.0,82.0,156.0,111.0,nan,-1.15,-7.72,-0.83,6.06,-95.61,143.43,-0.5,-0.05,-0.22,-0.65,0.69,-0.27,0.17,1.0,26.19,34.8,0.0746249,0.0,19.263383690476193,nan,-99.6143714629177,nan,0.0,0.0,9936.8623,0.0,0.0,2622.7,0.0
710.0,27.0,31.0,157.0,135.0,110.0,nan,-0.71,-7.82,-1.25,6.04,-95.67,143.42,-1.34,-0.12,-0.36,-0.65,0.69,-0.27,0.17,1.0,26.19,34.8,0.0746249,0.0,19.263383095238094,nan,-99.61437142216792,nan,0.0,0.0,9936.8623,0.0,0.0,2622.7,0.0
733.0,18.0,30.0,161.0,133.0,109.0,nan,-0.96,-7.69,-0.56,6.04,-95.66,143.43,-0.15,-0.12,-0.5,-0.65,0.69,-0.27,0.17,1.0,26.19,34.8,0.0746249,0.0,19.263382500000002,nan,-99.6143713814181,nan,0.0,0.0,9936.8623,0.0,0.0,2622.7,0.0
755.0,26.0,30.0,77.0,139.0,111.0,nan,-0.8,-7.89,-1.44,6.04,-95.72,143.43,-0.57,-0.19,0.06,-0.65,0.69,-0.27,0.17,1.0,26.19,34.8,0.0746249,0.0,19.263382500000002,nan,-99.6143713814181,nan,0.0,0.0,9936.8623,0.0,0.0,0.0,0.0
775.0,27.0,30.0,68.0,124.0,111.0,nan,-0.99,-7.64,-0.54,6.04,-95.7,143.44,0.06,-0.19,-0.85,-0.65,0.69,-0.27,0.17,1.0,26.19,34.8,0.0746249,0.0,19.26338190476191,nan,-99.61437134066831,nan,0.0,0.0,9936.8623,0.0,0.0,2622.7,0.0
795.0,31.0,28.0,87.0,137.0,125.0,nan,-0.95,-7.92,-1.23,6.05,-95.72,143.44,0.62,-0.19,0.41,-0.65,0.69,-0.27,0.17,1.0,26.19,34.8,0.0746249,0.0,19.263381309523812,nan,-99.61437129991852,nan,0.0,0.0,9936.8623,0.0,0.0,2622.7,0.0
817.0,26.0,30.0,56.0,155.0,111.0,nan,-0.86,-7.65,-0.7,6.04,-95.7,143.44,0.41,-0.26,-1.06,-0.65,0.69,-0.27,0.17,1.0,26.19,34.8,0.0746249,0.0,19.263380714285717,nan,-99.61437125916872,nan,0.0,0.0,9936.8623,0.0,0.0,2622.7,0.0
840.0,21.0,30.0,121.0,139.0,110.0,nan,-1.05,-8.03,-0.93,6.06,-95.69,143.45,1.18,-0.26,0.48,-0.65,0.69,-0.27,0.17,1.0,26.19,34.8,0.0746249,0.0,19.263380119047625,nan,-99.61437121841891,nan,0.0,0.0,9936.8623,0.0,0.0,2622.7,0.0
860.0,18.0,31.0,56.0,133.0,109.0,nan,-1.21,-8.16,-0.65,6.08,-95.63,143.46,2.23,-0.47,-0.01,-0.65,0.69,-0.27,0.17,1.0,26.19,34.8,0.0746249,0.0,19.263379523809526,nan,-99.61437117766911,nan,0.0,0.0,9936.8623,0.0,0.0,2622.7,0.0
886.0,37.0,31.0,147.0,133.0,112.0,nan,-0.86,-7.49,-0.87,6.07,-95.65,143.47,-0.36,-0.19,-0.5,-0.65,0.69,-0.27,0.17,1.0,26.19,34.8,0.0746249,0.0,19.263378928571427,nan,-99.61437113691933,nan,0.0,0.0,9936.8623,0.0,0.0,2622.7,0.0
910.0,27.0,30.0,40.0,154.0,111.0,nan,-1.08,-8.25,-0.61,6.08,-95.59,143.48,2.02,-0.47,-0.22,-0.65,0.69,-0.27,0.17,1.0,26.19,34.8,0.0746249,0.0,19.263378928571427,nan,-99.61437113691933,nan,0.0,0.0,9936.8623,0.0,0.0,0.0,0.0
931.0,31.0,31.0,125.0,154.0,123.0,nan,-0.92,-7.4,-0.91,6.08,-95.62,143.48,-0.99,0.02,-0.36,-0.65,0.69,-0.27,0.17,1.0,26.19,34.8,0.0746249,0.0,19.263378333333335,nan,-99.61437109616956,nan,0.0,0.0,9936.8623,0.0,0.0,2622.7,0.0
951.0,21.0,17.0,108.0,143.0,110.0,nan,-0.92,-8.27,-0.58,6.07,-95.58,143.49,1.6,-0.54,-0.71,-0.65,0.69,-0.27,0.17,1.0,26.19,34.8,0.0746249,0.0,19.26337773809524,nan,-99.61437105541972,nan,0.0,0.0,9936.8623,0.0,0.0,2622.7,0.0
971.0,31.0,30.0,82.0,138.0,110.0,nan,-0.83,-7.48,-1.04,6.06,-95.62,143.49,-1.2,-0.12,-0.57,-0.65,0.69,-0.27,0.17,1.0,26.19,34.8,0.0746249,0.0,19.26337714285714,nan,-99.61437101466993,nan,0.0,0.0,9936.8623,0.0,0.0,2622.7,0.0
994.0,37.0,27.0,39.0,154.0,112.0,nan,-1.09,-8.07,-0.52,6.07,-95.59,143.5,0.69,-0.33,-0.36,-0.65,0.69,-0.27,0.17,1.0,26.19,34.8,0.0746249,0.0,19.26337654761905,nan,-99.61437097392016,nan,0.0,0.0,9936.8623,0.0,0.0,2622.7,0.0
1014.0,28.0,30.0,125.0,133.0,75.0,nan,-0.61,-7.66,-1.26,6.05,-95.66,143.5,-1.76,0.02,-0.57,-0.65,0.69,-0.27,0.17,1.0,26.19,34.8,0.0746249,0.0,19.26337654761905,nan,-99.61437097392016,nan,0.0,0.0,9936.8623,0.0,0.0,0.0,0.0
1036.0,16.0,31.0,88.0,136.0,95.0,nan,-1.1,-7.95,-0.59,6.06,-95.63,143.51,0.62,-0.4,-0.43,-0.65,0.69,-0.27,0.17,1.0,26.19,34.8,0.0746249,0.0,19.263375952380958,nan,-99.61437093317036,nan,0.0,0.0,9936.8623,0.0,0.0,2622.7,0.0
1056.0,18.0,26.0,124.0,159.0,111.0,nan,-0.64,-7.78,-1.23,6.04,-95.69,143.51,-1.06,-0.12,-0.29,-0.65,0.69,-0.27,0.17,1.0,26.19,34.8,0.0746249,0.0,19.26337535714286,nan,-99.61437089242055,nan,0.0,0.0,9936.8623,0.0,0.0,2622.7,0.0
1079.0,27.0,17.0,109.0,148.0,112.0,nan,-0.76,-7.84,-1.24,6.05,-95.7,143.51,-0.08,-0.12,0.2,-0.65,0.69,-0.27,0.17,1.0,26.17,34.74,0.0746234,0.0,19.263374761904764,nan,-99.61437085167076,nan,0.0,0.0,9936.8623,0.0,0.0,2622.7,0.0
1111.0,31.0,17.0,82.0,155.0,111.0,nan,-0.9,-7.72,-0.75,6.03,-95.7,143.52,0.13,-0.19,-0.99,-0.65,0.69,-0.27,0.17,1.0,26.17,34.74,0.0746234,0.0,19.263374166666672,nan,-99.61437081092097,nan,0.0,0.0,9936.8623,0.0,0.0,2622.7,0.0
1130.0,31.0,28.0,109.0,138.0,138.0,nan,-1.0,-7.91,-1.03,6.05,-95.68,143.52,1.53,-0.33,0.34,-0.65,0.69,-0.27,0.17,1.0,26.17,34.74,0.0746234,0.0,19.263373571428573,nan,-99.61437077017118,nan,0.0,0.0,9936.8623,0.0,0.0,2622.7,0.0
1153.0,27.0,30.0,109.0,149.0,125.0,nan,-0.91,-7.66,-0.65,6.04,-95.68,143.53,-0.22,-0.19,-0.99,-0.65,0.69,-0.27,0.17,1.0,26.17,34.74,0.0746234,0.0,19.263372976190475,nan,-99.61437072942137,nan,0.0,0.0,9936.8623,0.0,0.0,2622.7,0.0
1173.0,26.0,19.0,124.0,138.0,111.0,nan,-1.11,-8.06,-0.86,6.06,-95.64,143.54,2.16,-0.47,0.27,-0.65,0.69,-0.27,0.17,1.0,26.17,34.74,0.0746234,0.0,19.263372380952383,nan,-99.61437068867157,nan,0.0,0.0,9936.8623,0.0,0.0,2622.7,0.0
1196.0,31.0,29.0,40.0,154.0,109.0,nan,-1.16,-8.24,-0.61,6.08,-95.6,143.55,2.44,-0.54,-0.01,-0.65,0.69,-0.27,0.17,1.0,26.17,34.74,0.0746234,0.0,19.263371785714288,nan,-99.61437064792177,nan,0.0,0.0,9936.8623,0.0,0.0,2622.7,0.0
1222.0,31.0,30.0,125.0,155.0,111.0,nan,-1.16,-8.24,-0.61,6.08,-95.6,143.55,0.0,0.0,0.0,-0.65,0.69,-0.27,0.17,1.0,26.17,34.74,0.0746234,0.0,19.263371785714288,nan,-99.61437064792177,nan,0.0,0.0,9936.8623,0.0,0.0,0.0,0.0
1240.0,18.0,21.0,98.0,140.0,111.0,nan,-1.06,-8.36,-0.51,6.08,-95.57,143.56,1.95,-0.47,-0.29,-0.65,0.69,-0.27,0.17,1.0,26.17,34.74,0.0746234,0.0,19.26337119047619,nan,-99.61437060717199,nan,0.0,0.0,9936.8623,0.0,0.0,2622.7,0.0
1264.0,30.0,30.0,78.0,137.0,111.0,nan,-0.83,-7.32,-1.01,6.07,-95.63,143.56,-1.83,0.09,-0.57,-0.65,0.69,-0.27,0.17,1.0,26.17,34.74,0.0746234,0.0,19.263370595238097,nan,-99.61437056642217,nan,0.0,0.0,9936.8623,0.0,0.0,2622.7,0.0
1287.0,26.0,26.0,137.0,156.0,111.0,nan,-1.04,-8.34,-0.57,6.07,-95.58,143.57,1.53,-0.47,-0.5,-0.65,0.69,-0.27,0.17,1.0,26.17,34.74,0.0746234,0.0,19.26336990740741,nan,-99.61437052567238,nan,0.0,0.0,9936.8623,1.0,0.0,2622.7,0.0
1307.0,29.0,31.0,91.0,139.0,111.0,nan,-0.73,-7.4,-1.11,6.06,-95.65,143.57,-1.9,0.02,-0.57,-0.65,0.69,-0.27,0.17,1.0,26.17,34.74,0.0746234,0.0,19.263369814814816,nan,-99.61437048492259,nan,0.0,0.0,9936.8623,0.0,0.0,2622.7,0.0
1330.0,25.0,19.0,77.0,137.0,111.0,nan,-1.0,-8.25,-0.48,6.06,-95.6,143.58,1.25,-0.4,-0.36,-0.65,0.69,-0.26,0.17,1.0,26.17,34.74,0.0746234,0.0,19.263369722222226,nan,-99.61437044417279,nan,0.0,0.0,9936.8623,0.0,0.0,2622.7,0.0
1349.0,27.0,30.0,108.0,138.0,125.0,nan,-0.69,-7.52,-1.31,6.04,-95.67,143.57,-1.62,0.02,-0.29,-0.65,0.69,-0.26,0.17,1.0,26.17,34.74,0.0746234,0.0,19.263369722222226,nan,-99.61437044417279,nan,0.0,0.0,9936.8623,0.0,0.0,0.0,0.0
1372.0,37.0,30.0,120.0,133.0,111.0,nan,-1.22,-7.92,-0.56,6.06,-95.65,143.58,0.48,-0.33,-0.43,-0.65,0.69,-0.26,0.17,1.0,26.17,34.74,0.0746234,0.0,19.263369629629633,nan,-99.61437040342298,nan,0.0,0.0,9936.8623,0.0,0.0,2622.7,0.0
1391.0,17.0,30.0,103.0,139.0,126.0,nan,-0.67,-7.65,-1.26,6.05,-95.7,143.58,-0.57,-0.26,-0.08,-0.65,0.69,-0.26,0.17,1.0,26.17,34.74,0.0746234,0.0,19.26336953703704,nan,-99.61437036267318,nan,0.0,0.0,9936.8623,0.0,0.0,2622.7,0.0
1415.0,26.0,30.0,77.0,159.0,125.0,nan,-0.87,-7.75,-1.39,6.07,-95.7,143.59,-0.22,-0.12,0.69,-0.65,0.69,-0.27,0.17,1.0,26.17,34.74,0.0746234,0.0,19.26336944444445,nan,-99.6143703219234,nan,0.0,0.0,9936.8623,0.0,0.0,2623.6,0.0
1441.0,30.0,28.0,77.0,133.0,110.0,nan,-0.97,-7.74,-0.78,6.06,-95.7,143.6,0.34,-0.19,-1.06,-0.65,0.69,-0.26,0.17,1.0,26.17,34.74,0.0746234,0.0,19.263369351851857,nan,-99.61437028117363,nan,0.0,0.0,9936.8623,0.0,0.0,2623.6,0.0
1464.0,31.0,30.0,77.0,137.0,118.0,nan,-1.1,-7.95,-0.88,6.08,-95.68,143.6,1.39,-0.4,0.41,-0.65,0.69,-0.26,0.17,1.0,26.17,34.74,0.0746234,0.0,19.26336925925926,nan,-99.6143702404238,nan,0.0,0.0,9936.8623,0.0,0.0,2623.6,0.0
1483.0,31.0,26.0,78.0,138.0,110.0,nan,-0.75,-7.64,-0.74,6.06,-95.67,143.61,0.27,-0.19,-0.99,-0.65,0.69,-0.26,0.17,1.0,26.17,34.74,0.0746234,0.0,19.263369166666667,nan,-99.614370199674,nan,0.0,0.0,9936.8623,0.0,0.0,2623.6,0.0
1506.0,31.0,29.0,55.0,137.0,111.0,nan,-1.11,-8.1,-1.02,6.08,-95.65,143.61,1.46,-0.33,0.2,-0.65,0.69,-0.26,0.17,1.0,26.17,34.74,0.0746234,0.0,19.263369166666667,nan,-99.614370199674,nan,0.0,0.0,9936.8623,0.0,0.0,0.0,0.0
1526.0,21.0,29.0,53.0,160.0,123.0,nan,-0.85,-7.46,-0.69,6.07,-95.65,143.62,0.13,-0.12,-0.71,-0.65,0.69,-0.26,0.17,1.0,26.17,34.74,0.0746234,0.0,19.263369074074074,nan,-99.61437015892423,nan,0.0,0.0,9936.8623,0.0,0.0,2623.6,0.0
1548.0,18.0,17.0,77.0,155.0,110.0,nan,-0.95,-8.31,-0.64,6.07,-95.6,143.63,1.81,-0.47,-0.36,-0.65,0.69,-0.26,0.17,1.0,26.17,34.78,0.0746192,0.0,19.263368981481484,nan,-99.61437011817443,nan,0.0,0.0,9936.8623,0.0,0.0,2623.6,0.0
1570.0,25.0,30.0,78.0,139.0,112.0,nan,-0.92,-7.37,-0.87,6.06,-95.61,143.63,-0.36,-0.05,-0.85,-0.65,0.69,-0.26,0.17,1.0,26.17,34.78,0.0746192,0.0,19.26336888888889,nan,-99.61437007742462,nan,0.0,0.0,9936.8623,0.0,0.0,2623.6,0.0
1593.0,37.0,21.0,61.0,138.0,111.0,nan,-0.83,-7.43,-1.02,6.05,-95.63,143.64,-0.71,-0.19,-0.78,-0.65,0.69,-0.26,0.17,1.0,26.17,34.78,0.0746192,0.0,19.263368796296295,nan,-99.61437003667483,nan,0.0,0.0,9936.8623,0.0,0.0,2623.6,0.0
1620.0,28.0,26.0,135.0,154.0,110.0,nan,-1.05,-8.24,-0.56,6.06,-95.6,143.65,0.55,-0.4,-0.15,-0.65,0.69,-0.26,0.17,1.0,26.17,34.78,0.0746192,0.0,19.26336870370371,nan,-99.61436999592505,nan,0.0,0.0,9936.8623,0.0,0.0,2623.6,0.0
1642.0,26.0,31.0,135.0,138.0,109.0,nan,-0.71,-7.47,-0.92,6.04,-95.63,143.65,-0.78,-0.19,-0.57,-0.65,0.69,-0.26,0.17,1.0,26.17,34.78,0.0746192,0.0,19.26336861111111,nan,-99.61436995517525,nan,0.0,0.0,9936.8623,0.0,0.0,2623.6,0.0
1662.0,25.0,17.0,39.0,139.0,110.0,nan,-1.13,-8.12,-0.54,6.06,-95.6,143.66,0.34,-0.33,-0.15,-0.65,0.69,-0.26,0.17,1.0,26.17,34.78,0.0746192,0.0,19.26336861111111,nan,-99.61436995517525,nan,0.0,0.0,9936.8623,0.0,0.0,0.0,0.0
1685.0,30.0,30.0,78.0,137.0,111.0,nan,-0.6,-7.63,-1.28,6.03,-95.66,143.66,-1.06,0.02,-0.36,-0.65,0.69,-0.26,0.17,1.0,26.17,34.78,0.0746192,0.0,19.26336851851852,nan,-99.61436991442544,nan,0.0,0.0,9936.8623,0.0,0.0,2623.6,0.0
1704.0,26.0,26.0,67.0,139.0,111.0,nan,-1.18,-7.9,-0.74,6.05,-95.65,143.66,0.2,-0.33,-0.29,-0.65,0.69,-0.26,0.17,1.0,26.17,34.78,0.0746192,0.0,19.263368425925925,nan,-99.61436987367564,nan,0.0,0.0,9936.8623,0.0,0.0,2623.6,0.0
1727.0,26.0,31.0,77.0,156.0,112.0,nan,-0.73,-7.71,-1.2,6.04,-95.69,143.66,-0.01,-0.19,-0.22,-0.65,0.69,-0.26,0.17,1.0,26.17,34.78,0.0746192,0.0,19.26336833333333,nan,-99.61436983292585,nan,0.0,0.0,9936.8623,0.0,0.0,2623.6,0.0
1747.0,20.0,31.0,77.0,137.0,111.0,nan,-0.95,-7.88,-0.56,6.03,-95.67,143.67,0.2,-0.19,-0.78,-0.65,0.69,-0.26,0.17,1.0,26.17,34.78,0.0746192,0.0,19.263368240740743,nan,-99.61436979217606,nan,0.0,0.0,9936.8623,0.0,0.0,2623.6,0.0
1770.0,31.0,30.0,78.0,152.0,111.0,nan,-0.95,-7.73,-1.32,6.05,-95.69,143.67,0.69,-0.26,0.34,-0.65,0.69,-0.26,0.17,1.0,26.17,34.78,0.0746192,0.0,19.263368240740743,nan,-99.61436979217606,nan,0.0,0.0,9936.8623,0.0,0.0,0.0,0.0
1789.0,27.0,31.0,78.0,155.0,126.0,nan,-0.87,-7.83,-0.62,6.03,-95.67,143.68,0.41,-0.26,-0.99,-0.65,0.69,-0.26,0.17,1.0,26.17,34.78,0.0746192,0.0,19.263368148148146,nan,-99.61436975142627,nan,0.0,0.0,9936.8623,0.0,0.0,2623.6,0.0
1812.0,26.0,30.0,78.0,138.0,111.0,nan,-0.96,-7.71,-0.46,6.06,-95.62,143.69,0.55,-0.26,-0.64,-0.65,0.69,-0.26,0.17,1.0,26.17,34.78,0.0746192,0.0,19.263368055555553,nan,-99.61436971067646,nan,0.0,0.0,9936.8623,0.0,0.0,2623.6,0.0
1839.0,22.0,18.0,137.0,146.0,124.0,nan,-0.94,-8.14,-0.87,6.06,-95.6,143.7,1.53,-0.4,-0.08,-0.65,0.69,-0.26,0.17,1.0,26.17,34.78,0.0746192,0.0,19.263367962962963,nan,-99.61436966992666,nan,0.0,0.0,9936.8623,0.0,0.0,2623.6,0.0
1862.0,31.0,30.0,63.0,154.0,111.0,nan,-1.03,-7.46,-0.83,6.07,-95.61,143.7,-0.29,-0.05,-0.5,-0.65,0.69,-0.26,0.17,1.0,26.17,34.78,0.0746192,0.0,19.26336787037037,nan,-99.61436962917686,nan,0.0,0.0,9936.8623,0.0,0.0,2623.6,0.0
1881.0,26.0,18.0,67.0,137.0,110.0,nan,-1.02,-8.27,-0.64,6.07,-95.57,143.71,1.6,-0.47,-0.29,-0.65,0.69,-0.26,0.17,1.0,26.17,34.78,0.0746192,0.0,19.263367777777777,nan,-99.61436958842708,nan,0.0,0.0,9936.8623,0.0,0.0,2623.6,0.0
1904.0,19.0,30.0,107.0,155.0,112.0,nan,-0.85,-7.39,-0.74,6.07,-95.59,143.71,-0.99,0.02,-0.43,-0.65,0.69,-0.26,0.17,1.0,26.17,34.78,0.0746192,0.0,19.26336768518518,nan,-99.61436954767726,nan,0.0,0.0,9936.8623,0.0,0.0,2623.6,0.0
1924.0,22.0,17.0,68.0,132.0,112.0,nan,-0.97,-8.36,-0.59,6.07,-95.54,143.72,1.6,-0.47,-0.36,-0.65,0.69,-0.26,0.17,1.0,26.17,34.78,0.0746192,0.0,19.26336768518518,nan,-99.61436954767726,nan,0.0,0.0,9936.8623,0.0,0.0,0.0,0.0
1946.0,37.0,27.0,53.0,138.0,112.0,nan,-0.75,-7.39,-0.98,6.05,-95.59,143.72,-1.41,0.09,-0.64,-0.65,0.69,-0.26,0.17,1.0,26.17,34.78,0.0746192,0.0,19.263367592592594,nan,-99.61436950692747,nan,0.0,0.0,9936.8623,0.0,0.0,2623.6,0.0
1966.0,31.0,26.0,68.0,159.0,112.0,nan,-1.08,-8.31,-0.72,6.06,-95.57,143.73,0.62,-0.33,-0.22,-0.65,0.69,-0.26,0.17,1.0,26.17,34.78,0.0746192,0.0,19.263367499999998,nan,-99.6143694661777,nan,0.0,0.0,9936.8623,0.0,0.0,2623.6,0.0
1989.0,26.0,27.0,88.0,149.0,109.0,nan,-0.65,-7.37,-1.09,6.04,-95.62,143.73,-1.27,-0.05,-0.57,-0.65,0.69,-0.26,0.17,1.0,26.17,34.78,0.0746192,0.0,19.263367407407404,nan,-99.61436942542791,nan,0.0,0.0,9936.8623,0.0,0.0,2623.6,0.0
2009.0,31.0,29.0,53.0,139.0,110.0,nan,-0.48,-7.51,-1.29,6.02,-95.65,143.73,-0.78,-0.12,-0.57,-0.65,0.69,-0.26,0.17,1.0,26.22,34.82,0.0746249,0.0,19.263367314814815,nan,-99.61436938467807,nan,0.0,0.0,9936.8623,0.0,0.0,2623.6,0.0
2041.0,27.0,30.0,120.0,148.0,110.0,nan,-1.21,-8.03,-0.7,6.04,-95.63,143.74,0.41,-0.26,-0.36,-0.65,0.69,-0.26,0.17,1.0,26.22,34.82,0.0746249,0.0,19.26336722222222,nan,-99.6143693439283,nan,0.0,0.0,9936.8623,0.0,0.0,2623.6,0.0
2060.0,31.0,29.0,93.0,134.0,126.0,nan,-0.7,-7.58,-1.02,6.03,-95.64,143.74,0.55,-0.26,-0.08,-0.65,0.69,-0.26,0.17,1.0,26.22,34.82,0.0746249,0.0,19.26336712962963,nan,-99.6143693031785,nan,0.0,0.0,9936.8623,0.0,0.0,2623.6,0.0
2083.0,31.0,30.0,51.0,155.0,110.0,nan,-0.99,-8.04,-0.55,6.03,-95.61,143.75,0.55,-0.33,-0.71,-0.65,0.69,-0.26,0.17,1.0,26.22,34.82,0.0746249,0.0,19.26336712962963,nan,-99.6143693031785,nan,0.0,0.0,9936.8623,0.0,0.0,0.0,0.0
2102.0,30.0,30.0,108.0,133.0,115.0,nan,-1.01,-7.69,-1.2,6.05,-95.62,143.76,1.32,-0.33,0.55,-0.65,0.69,-0.26,0.17,1.0,26.22,34.82,0.0746249,0.0,19.26336703703704,nan,-99.61436926242872,nan,0.0,0.0,9936.8623,0.0,0.0,2623.6,0.0
2125.0,26.0,31.0,68.0,140.0,104.0,nan,-0.87,-7.93,-0.61,6.04,-95.61,143.76,-0.08,-0.05,-1.06,-0.65,0.69,-0.26,0.17,1.0,26.22,34.82,0.0746249,0.0,19.263366944444446,nan,-99.6143692216789,nan,0.0,0.0,9936.8623,0.0,0.0,2623.6,0.0
2145.0,28.0,30.0,55.0,146.0,126.0,nan,-1.1,-7.87,-0.86,6.06,-95.57,143.77,2.16,-0.54,0.41,-0.65,0.69,-0.26,0.17,1.0,26.22,34.82,0.0746249,0.0,19.26336685185185,nan,-99.61436918092912,nan,0.0,0.0,9936.8623,0.0,0.0,2623.6,0.0
2168.0,31.0,18.0,78.0,146.0,110.0,nan,-0.93,-7.71,-0.56,6.05,-95.56,143.77,-0.29,-0.12,-0.99,-0.65,0.69,-0.26,0.17,1.0,26.22,34.82,0.0746249,0.0,19.263366759259263,nan,-99.61436914017932,nan,0.0,0.0,9936.8623,0.0,0.0,2623.6,0.0
2188.0,17.0,28.0,52.0,147.0,118.0,nan,-1.03,-8.08,-0.66,6.07,-95.49,143.78,2.79,-0.47,0.34,-0.65,0.69,-0.26,0.17,1.0,26.22,34.82,0.0746249,0.0,19.263366623931624,nan,-99.61436909942952,nan,0.0,0.0,9936.8623,1.0,0.0,2623.6,0.0
2210.0,26.0,31.0,68.0,210.0,124.0,nan,-1.0,-8.29,-0.65,6.06,-95.5,143.8,1.81,-0.61,-0.08,-0.65,0.69,-0.26,0.17,1.0,26.22,34.82,0.0746249,0.0,19.26336658119658,nan,-99.61436905867971,nan,0.0,0.0,9936.8623,0.0,0.0,2623.6,0.0
2237.0,27.0,18.0,67.0,199.0,111.0,nan,-0.86,-7.21,-0.84,6.05,-95.53,143.8,-0.92,-0.05,-0.78,-0.65,0.69,-0.26,0.17,1.0,26.22,34.82,0.0746249,0.0,19.26336658119658,nan,-99.61436905867971,nan,0.0,0.0,9936.8623,0.0,0.0,0.0,0.0
2260.0,17.0,31.0,55.0,139.0,76.0,nan,-1.11,-7.8,-0.58,6.06,-95.47,143.81,2.16,-0.54,-0.5,-0.65,0.69,-0.26,0.17,1.0,26.22,34.82,0.0746249,0.0,19.263366538461536,nan,-99.61436901792992,nan,0.0,0.0,9936.8623,0.0,0.0,2623.6,0.0
2279.0,20.0,33.0,77.0,123.0,101.0,nan,-0.54,-6.95,-1.02,6.0,-95.57,143.8,-3.3,0.37,-2.6,-0.65,0.69,-0.26,0.17,1.0,26.22,34.82,0.0746249,0.0,19.263366495726498,nan,-99.61436897718013,nan,0.0,0.0,9936.8623,0.0,0.0,2623.6,0.0
2302.0,38.0,30.0,66.0,139.0,111.0,nan,-1.28,-8.69,-0.91,5.99,-95.59,143.81,-1.2,0.02,-1.55,-0.65,0.69,-0.26,0.17,1.0,26.22,34.82,0.0746249,0.0,19.263366452991452,nan,-99.61436893643034,nan,0.0,0.0,9936.8623,0.0,0.0,2623.5,0.0
2322.0,37.0,29.0,53.0,134.0,111.0,nan,-0.48,-8.12,-1.3,5.93,-95.67,143.8,-1.83,0.09,-1.76,-0.65,0.69,-0.26,0.17,1.0,26.22,34.82,0.0746249,0.0,19.26336641025641,nan,-99.61436889568053,nan,0.0,0.0,9936.8623,0.0,0.0,2623.5,0.0
2345.0,37.0,27.0,78.0,181.0,111.0,nan,-1.01,-8.39,-0.3,5.94,-95.59,143.82,2.02,-0.54,0.06,-0.65,0.69,-0.26,0.17,1.0,26.22,34.82,0.0746249,0.0,19.263366367521368,nan,-99.61436885493073,nan,0.0,0.0,9936.8623,0.0,0.0,2623.5,0.0
2364.0,29.0,32.0,68.0,155.0,110.0,nan,-0.41,-7.03,-1.29,5.89,-95.65,143.82,-0.92,-0.12,-0.99,-0.65,0.69,-0.26,0.17,1.0,26.22,34.82,0.0746249,0.0,19.263366367521368,nan,-99.61436885493073,nan,0.0,0.0,9936.8623,0.0,0.0,0.0,0.0
2387.0,18.0,30.0,78.0,160.0,125.0,nan,-1.23,-7.49,-0.46,5.9,-95.64,143.82,-0.5,-0.05,-1.27,-0.65,0.69,-0.26,0.17,1.0,26.22,34.82,0.0746249,0.0,19.263366324786325,nan,-99.61436881418093,nan,0.0,0.0,9936.8623,0.0,0.0,2623.5,0.0
2407.0,30.0,32.0,60.0,148.0,111.0,nan,-0.6,-7.31,-1.65,5.85,-95.76,143.82,-2.46,0.23,-1.97,-0.65,0.69,-0.26,0.17,1.0,26.22,34.82,0.0746249,0.0,19.263366282051283,nan,-99.61436877343115,nan,0.0,0.0,9936.8623,0.0,0.0,2623.5,0.0
2430.0,17.0,30.0,136.0,146.0,110.0,nan,-0.69,-7.28,-1.16,5.78,-95.76,143.83,0.76,-0.26,-1.55,-0.65,0.69,-0.26,0.17,1.0,26.22,34.82,0.0746249,0.0,19.26336623931624,nan,-99.61436873268133,nan,0.0,0.0,9936.8623,0.0,0.0,2623.5,0.0
2456.0,19.0,43.0,88.0,152.0,110.0,nan,-1.01,-7.45,-0.46,5.72,-95.74,143.84,-0.29,-0.05,-3.72,-0.65,0.69,-0.26,0.17,1.0,26.22,34.82,0.0746249,0.0,19.26336619658119,nan,-99.61436869193155,nan,0.0,0.0,9936.8623,0.0,0.0,2623.5,0.0
2479.0,0.0,0.0,73.0,115.0,117.0,nan,-0.81,-6.7,-0.88,5.67,-95.74,143.85,1.04,-0.19,-3.44,-0.65,0.69,-0.26,0.17,1.0,26.16,34.79,0.0746226,0.0,19.263366153846157,nan,-99.61436865118178,nan,0.0,0.0,9936.8623,0.0,0.0,2623.5,0.0
2501.0,0.0,0.0,87.0,132.0,116.0,nan,-0.75,-8.01,-1.08,5.56,-95.88,143.85,-6.24,0.79,-5.33,-0.65,0.69,-0.26,0.17,1.0,26.16,34.79,0.0746226,0.0,19.263366111111115,nan,-99.61436861043198,nan,0.0,0.0,9936.8623,0.0,0.0,2623.5,0.0
2524.0,0.0,0.0,78.0,140.0,109.0,nan,-1.0,-8.84,-0.73,5.5,-95.85,143.86,0.83,-0.19,-3.23,-0.65,0.69,-0.26,0.17,1.0,26.16,34.79,0.0746226,0.0,19.263366111111115,nan,-99.61436861043198,nan,0.0,0.0,9936.8623,0.0,0.0,0.0,0.0
2543.0,0.0,0.0,67.0,123.0,109.0,nan,-1.0,-8.28,-1.01,5.45,-95.94,143.85,-3.86,0.58,-2.95,-0.65,0.7,-0.26,0.17,1.0,26.16,34.79,0.0746226,0.0,19.263366068376065,nan,-99.61436856968214,nan,0.0,0.0,9936.8623,0.0,0.0,2623.5,0.0
2566.0,0.0,0.0,62.0,140.0,111.0,nan,-0.93,-7.83,-0.53,5.42,-95.85,143.87,3.21,-0.61,-2.67,-0.65,0.7,-0.26,0.17,1.0,26.16,34.79,0.0746226,0.0,19.263366025641023,nan,-99.61436852893237,nan,0.0,0.0,9936.8623,0.0,0.0,2623.5,0.0
2585.0,14.0,47.0,124.0,148.0,105.0,nan,-1.17,-7.6,-1.31,5.41,-96.02,143.86,-6.45,0.65,-1.9,-0.65,0.7,-0.26,0.17,1.0,26.16,34.79,0.0746226,0.0,19.26336598290598,nan,-99.61436848818258,nan,0.0,0.0,9936.8623,0.0,0.0,2623.5,0.0
2608.0,0.0,34.0,120.0,140.0,118.0,nan,-1.23,-8.97,-1.37,5.36,-96.08,143.87,-0.22,-0.26,0.2,-0.65,0.7,-0.26,0.17,1.0,26.16,34.79,0.0746226,0.0,19.26336594017094,nan,-99.6143684474328,nan,0.0,0.0,9936.8623,0.0,0.0,2623.5,0.0
2635.0,107.0,121.0,88.0,147.0,111.0,nan,-0.81,-8.31,-0.49,5.37,-95.97,143.89,4.4,-0.89,0.27,-0.65,0.7,-0.26,0.17,1.0,26.16,34.79,0.0746226,0.0,19.263365897435897,nan,-99.61436840668297,nan,0.0,0.0,9936.8623,0.0,0.0,2623.5,0.0
2658.0,226.0,214.0,172.0,183.0,126.0,nan,-1.0,-8.98,-0.9,5.41,-95.97,143.88,-0.43,-0.05,1.53,-0.65,0.7,-0.26,0.17,1.0,26.16,34.79,0.0746226,0.0,19.263365854700854,nan,-99.61436836593319,nan,0.0,0.0,9936.8623,0.0,0.0,2623.5,0.0
2677.0,233.0,228.0,152.0,166.0,125.0,nan,-0.67,-8.54,-0.78,5.44,-95.92,143.89,2.16,-0.54,2.16,-0.65,0.7,-0.26,0.17,1.0,26.16,34.79,0.0746226,0.0,19.263365854700854,nan,-99.61436836593319,nan,0.0,0.0,9936.8623,0.0,0.0,0.0,0.0
2700.0,90.0,64.0,103.0,101.0,111.0,nan,-0.94,-8.34,-1.32,5.52,-95.9,143.89,2.72,-0.61,3.21,-0.65,0.7,-0.26,0.17,1.0,26.16,34.79,0.0746226,0.0,19.263365811965812,nan,-99.61436832518339,nan,0.0,0.0,9936.8623,0.0,0.0,2623.5,0.0
2720.0,124.0,116.0,76.0,144.0,110.0,nan,-0.75,-7.18,-0.37,5.6,-95.81,143.9,2.58,-0.75,3.77,-0.65,0.69,-0.26,0.17,1.0,26.16,34.79,0.0746226,0.0,19.26336576923077,nan,-99.6143682844336,nan,0.0,0.0,9936.8623,0.0,0.0,2623.5,0.0
2742.0,39.0,45.0,52.0,76.0,104.0,nan,-0.59,-7.44,-0.71,5.64,-95.75,143.91,2.93,-0.68,2.72,-0.65,0.69,-0.26,0.17,1.0,26.16,34.79,0.0746226,0.0,19.263365726495728,nan,-99.61436824368378,nan,0.0,0.0,9936.8623,0.0,0.0,2623.5,0.0
2762.0,30.0,12.0,55.0,109.0,118.0,nan,-1.14,-7.55,-0.83,5.75,-95.74,143.91,0.97,-0.4,4.05,-0.65,0.69,-0.26,0.17,1.0,26.16,34.79,0.0746226,0.0,19.26336568376068,nan,-99.61436820293399,nan,0.0,0.0,9936.8623,0.0,0.0,2623.5,0.0
2785.0,24.0,31.0,78.0,125.0,111.0,nan,-1.08,-6.88,-0.36,5.84,-95.7,143.92,-0.08,-0.33,2.65,-0.65,0.69,-0.26,0.17,1.0,26.16,34.79,0.0746226,0.0,19.263365641025636,nan,-99.6143681621842,nan,0.0,0.0,9936.8623,0.0,0.0,2623.5,0.0
2811.0,22.0,28.0,108.0,125.0,103.0,nan,-0.96,-6.89,-1.11,5.86,-95.7,143.93,2.02,-0.47,-0.01,-0.65,0.69,-0.26,0.17,1.0,26.16,34.79,0.0746226,0.0,19.2633655982906,nan,-99.61436812143441,nan,0.0,0.0,9936.8623,0.0,0.0,2623.5,0.0
2834.0,17.0,32.0,107.0,137.0,111.0,nan,-0.69,-6.8,-0.49,5.83,-95.71,143.93,-1.76,0.09,-1.69,-0.65,0.69,-0.26,0.17,1.0,26.16,34.79,0.0746226,0.0,19.2633655982906,nan,-99.61436812143441,nan,0.0,0.0,9936.8623,0.0,0.0,0.0,0.0
2854.0,5.0,8.0,61.0,138.0,117.0,nan,-0.98,-6.68,-1.65,5.79,-95.79,143.93,0.27,0.16,-3.02,-0.65,0.69,-0.26,0.17,1.0,26.16,34.79,0.0746226,0.0,19.263365555555552,nan,-99.6143680806846,nan,0.0,0.0,9936.8623,0.0,0.0,2623.5,0.0
2877.0,25.0,26.0,76.0,132.0,110.0,nan,-0.8,-6.75,-0.6,5.7,-95.87,143.93,-4.42,0.65,-5.05,-0.65,0.69,-0.26,0.17,1.0,26.16,34.79,0.0746226,0.0,19.26336551282051,nan,-99.6143680399348,nan,0.0,0.0,9936.8623,0.0,0.0,2623.5,0.0
2896.0,2.0,32.0,67.0,140.0,117.0,nan,-0.39,-6.31,-0.43,5.55,-95.84,143.94,0.41,-0.05,-6.24,-0.65,0.69,-0.26,0.17,1.0,26.16,34.79,0.0746226,0.0,19.263365470085468,nan,-99.614367999185,nan,0.0,0.0,9936.8623,0.0,0.0,2623.5,0.0
2919.0,0.0,0.0,82.0,138.0,109.0,nan,-1.17,-7.72,-1.42,5.43,-96.07,143.92,-8.97,1.42,-7.57,-0.65,0.7,-0.26,0.17,1.0,26.16,34.79,0.0746226,0.0,19.263365427350426,nan,-99.61436795843522,nan,0.0,0.0,9936.8623,0.0,0.0,2623.5,0.0
2938.0,0.0,24.0,135.0,138.0,112.0,nan,-1.01,-7.86,-0.85,5.29,-96.24,143.93,-8.76,0.65,-7.71,-0.64,0.7,-0.26,0.17,1.0,26.17,34.82,0.0746234,0.0,19.263365384615383,nan,-99.61436791768546,nan,0.0,0.0,9936.8623,0.0,0.0,2623.5,0.0
2964.0,109.0,147.0,141.0,163.0,126.0,nan,0.42,-5.98,-1.22,5.23,-95.92,144.02,-0.15,-1.31,-2.04,-0.65,0.7,-0.26,0.17,1.0,26.17,34.82,0.0746234,0.0,19.26336534188034,nan,-99.61436787693562,nan,0.0,0.0,9936.8623,0.0,0.0,2623.5,0.0
2990.0,38.0,75.0,151.0,154.0,111.0,nan,0.42,-5.98,-1.22,5.23,-95.92,144.02,0.0,0.0,0.0,-0.65,0.7,-0.26,0.17,1.0,26.17,34.82,0.0746234,0.0,19.26336534188034,nan,-99.61436787693562,nan,0.0,0.0,9936.8623,0.0,0.0,0.0,0.0
3008.0,134.0,150.0,114.0,148.0,116.0,nan,-0.57,-9.64,-0.93,5.21,-96.24,143.97,-7.29,1.07,-2.53,-0.64,0.7,-0.26,0.17,1.0,26.17,34.82,0.0746234,0.0,19.2633652991453,nan,-99.61436783618585,nan,0.0,0.0,9936.8623,0.0,0.0,2623.5,0.0
3032.0,117.0,145.0,91.0,160.0,105.0,nan,-1.28,-8.3,-0.18,5.31,-96.34,143.95,-7.01,1.07,3.28,-0.64,0.7,-0.26,0.17,1.0,26.17,34.82,0.0746234,0.0,19.263365256410257,nan,-99.61436779543605,nan,0.0,0.0,9936.8623,0.0,0.0,2623.5,0.0
3055.0,143.0,138.0,147.0,184.0,110.0,nan,-0.36,-6.88,-1.38,5.29,-96.39,143.94,-0.29,0.37,0.48,-0.64,0.7,-0.26,0.17,1.0,26.17,34.82,0.0746234,0.0,19.263365213675215,nan,-99.61436775468626,nan,0.0,0.0,9936.8623,0.0,0.0,2623.5,0.0
3075.0,295.0,284.0,215.0,220.0,137.0,nan,-1.25,-10.22,-1.88,5.36,-96.46,143.92,-1.13,0.16,2.79,-0.64,0.7,-0.26,0.17,1.0,26.17,34.82,0.0746234,0.0,19.26336517094017,nan,-99.61436771393645,nan,0.0,0.0,9936.8623,0.0,0.0,2623.5,0.0
3098.0,147.0,150.0,189.0,147.0,76.0,nan,-0.67,-8.06,0.45,5.46,-96.1,143.97,13.08,-2.36,4.82,-0.65,0.7,-0.26,0.17,1.0,26.17,34.82,0.0746234,0.0,19.263365128205127,nan,-99.61436767318665,nan,0.0,0.0,9936.8623,0.0,0.0,2623.5,0.0
3119.0,17.0,1.0,114.0,67.0,59.0,nan,-0.66,-7.42,-1.61,5.52,-96.13,143.97,1.6,-0.54,3.42,-0.65,0.7,-0.26,0.17,1.0,26.17,34.82,0.0746234,0.0,19.263365128205127,nan,-99.61436767318665,nan,0.0,0.0,9936.8623,0.0,0.0,0.0,0.0
3140.0,32.0,0.0,56.0,96.0,110.0,nan,-1.05,-6.94,0.22,5.67,-95.94,143.99,5.38,-1.31,5.59,-0.65,0.7,-0.26,0.17,1.0,26.17,34.82,0.0746234,0.0,19.263365085470085,nan,-99.61436763243687,nan,0.0,0.0,9936.8623,0.0,0.0,2623.5,0.0
3159.0,156.0,127.0,146.0,163.0,111.0,nan,-1.07,-7.46,-2.29,5.74,-96.11,143.97,-2.88,-0.05,2.65,-0.65,0.7,-0.26,0.17,1.0,26.17,34.82,0.0746234,0.0,19.263365042735042,nan,-99.61436759168707,nan,0.0,0.0,9936.8623,0.0,0.0,2623.5,0.0
3182.0,62.0,48.0,146.0,110.0,75.0,nan,-0.79,-6.82,-1.75,5.81,-96.01,143.99,-0.57,-0.05,2.3,-0.65,0.7,-0.26,0.17,1.0,26.17,34.82,0.0746234,0.0,19.263365,nan,-99.61436755093726,nan,0.0,0.0,9936.8623,1.0,0.0,2623.5,0.0
3211.0,16.0,17.0,98.0,123.0,101.0,nan,-1.15,-6.06,0.31,5.86,-95.82,144.02,5.1,-0.89,0.06,-0.65,0.69,-0.26,0.17,1.0,26.17,34.82,0.0746234,0.0,19.26336502873563,nan,-99.61436751018746,nan,0.0,0.0,9936.8623,0.0,0.0,2623.5,0.0
3232.0,0.0,0.0,55.0,139.0,111.0,nan,-0.85,-5.15,-1.15,5.81,-95.99,144.0,-5.26,0.79,-4.28,-0.65,0.7,-0.26,0.17,1.0,26.17,34.82,0.0746234,0.0,19.263365043103445,nan,-99.61436746943767,nan,0.0,0.0,9936.8623,0.0,0.0,2623.5,0.0
3251.0,0.0,0.0,77.0,156.0,116.0,nan,-0.78,-5.64,-0.28,5.64,-96.08,144.0,-6.17,1.0,-9.18,-0.65,0.7,-0.26,0.17,1.0,26.17,34.82,0.0746234,0.0,19.263365043103445,nan,-99.61436746943767,nan,0.0,0.0,9936.8623,0.0,0.0,0.0,0.0
3274.0,0.0,0.0,72.0,149.0,124.0,nan,-0.69,-7.2,-0.66,5.54,-96.21,143.99,-6.94,1.07,-4.84,-0.65,0.7,-0.26,0.17,1.0,26.17,34.82,0.0746234,0.0,19.263365057471265,nan,-99.61436742868788,nan,0.0,0.0,9936.8623,0.0,0.0,2623.5,0.0
3294.0,38.0,70.0,136.0,146.0,125.0,nan,-1.02,-10.32,-1.89,5.24,-96.63,143.98,-18.7,2.33,-14.78,-0.64,0.7,-0.26,0.17,1.0,26.17,34.82,0.0746234,0.0,19.26336507183908,nan,-99.61436738793806,nan,0.0,0.0,9936.8623,0.0,0.0,2623.5,0.0
3317.0,260.0,285.0,167.0,220.0,145.0,nan,-4.68,-15.81,0.17,5.43,-96.33,144.03,11.19,-2.5,3.49,-0.64,0.7,-0.26,0.17,1.0,26.17,34.82,0.0746234,0.0,19.263365086206893,nan,-99.61436734718828,nan,0.0,0.0,9936.8623,0.0,0.0,2623.2,0.0
3336.0,125.0,151.0,216.0,150.0,75.0,nan,2.29,-5.94,-0.69,5.12,-96.4,144.05,-3.58,-1.03,-2.81,-0.64,0.7,-0.26,0.17,1.0,26.17,34.82,0.0746234,0.0,19.263365100574713,nan,-99.61436730643848,nan,0.0,0.0,9936.8623,0.0,0.0,2623.2,0.0
3359.0,141.0,157.0,113.0,147.0,117.0,nan,-4.96,-2.41,-6.76,5.46,-98.13,143.84,-64.2,8.28,2.44,-0.63,0.71,-0.26,0.17,1.0,26.17,34.82,0.0746234,0.0,19.263365114942527,nan,-99.61436726568868,nan,0.0,0.0,9936.8623,0.0,0.0,2623.2,0.0
3379.0,259.0,245.0,92.0,164.0,126.0,nan,5.95,-12.23,-5.57,5.14,-98.18,143.8,5.1,1.35,-1.9,-0.63,0.71,-0.26,0.17,1.0,26.17,34.82,0.0746234,0.0,19.263365114942527,nan,-99.61436726568868,nan,0.0,0.0,9936.8623,0.0,0.0,0.0,0.0
3401.0,198.0,203.0,129.0,113.0,111.0,nan,1.07,-9.95,-1.49,5.8,-97.27,143.89,26.66,-4.32,-5.75,-0.64,0.7,-0.26,0.17,1.0,26.19,34.86,0.0746249,0.0,19.263365129310344,nan,-99.61436722493887,nan,0.0,0.0,9936.8623,0.0,0.0,2623.2,0.0
3433.0,33.0,10.0,124.0,67.0,87.0,nan,0.01,-5.7,-0.92,5.83,-97.27,143.88,1.04,-0.33,4.61,-0.64,0.7,-0.26,0.17,1.0,26.19,34.86,0.0746249,0.0,19.263365143678158,nan,-99.61436718418908,nan,0.0,0.0,9936.8623,0.0,0.0,2623.2,0.0
3453.0,28.0,1.0,53.0,101.0,111.0,nan,0.01,-8.26,-2.01,5.81,-97.25,143.89,4.33,-0.96,2.02,-0.64,0.7,-0.26,0.17,1.0,26.19,34.86,0.0746249,0.0,19.26336515804597,nan,-99.6143671434393,nan,0.0,0.0,9936.8623,0.0,0.0,2623.2,0.0
3476.0,38.0,46.0,98.0,134.0,130.0,nan,-2.04,-5.36,1.1,6.1,-96.84,143.92,11.89,-1.59,6.78,-0.64,0.7,-0.26,0.17,1.0,26.19,34.86,0.0746249,0.0,19.263365172413792,nan,-99.61436710268953,nan,0.0,0.0,9936.8623,0.0,0.0,2623.2,0.0
3495.0,97.0,92.0,40.0,147.0,131.0,nan,-1.15,-8.17,-1.65,6.1,-97.05,143.91,-8.34,0.79,-0.85,-0.64,0.7,-0.27,0.17,1.0,26.19,34.86,0.0746249,0.0,19.263365186781606,nan,-99.61436706193969,nan,0.0,0.0,9936.8623,0.0,0.0,2623.2,0.0
3518.0,19.0,33.0,59.0,137.0,125.0,nan,-0.18,-6.77,-0.92,6.0,-96.91,143.94,6.85,-1.24,-2.67,-0.64,0.7,-0.26,0.17,1.0,26.19,34.86,0.0746249,0.0,19.263365201149426,nan,-99.61436702118992,nan,0.0,0.0,9936.8623,0.0,0.0,2623.2,0.0
3538.0,0.0,0.0,107.0,139.0,112.0,nan,-0.24,-7.7,-0.79,5.93,-97.03,143.93,-6.17,0.72,-1.34,-0.64,0.7,-0.26,0.17,1.0,26.19,34.86,0.0746249,0.0,19.26336521551724,nan,-99.61436698044012,nan,0.0,0.0,9936.8623,0.0,0.0,2623.2,0.0
3561.0,0.0,0.0,73.0,126.0,109.0,nan,-1.21,-6.58,-0.03,5.94,-96.98,143.94,-7.29,1.0,-3.44,-0.64,0.7,-0.26,0.17,1.0,26.19,34.86,0.0746249,0.0,19.26336521551724,nan,-99.61436698044012,nan,0.0,0.0,9936.8623,0.0,0.0,0.0,0.0
3587.0,0.0,0.0,72.0,154.0,108.0,nan,-0.27,-6.23,-1.86,5.74,-97.25,143.93,-8.97,1.14,-7.92,-0.64,0.7,-0.26,0.17,1.0,26.19,34.86,0.0746249,0.0,19.263365229885054,nan,-99.61436693969033,nan,0.0,0.0,9936.8623,0.0,0.0,2623.2,0.0
3610.0,0.0,0.0,82.0,156.0,111.0,nan,-1.11,-7.98,0.79,5.63,-97.5,143.92,-18.77,1.98,-6.52,-0.64,0.7,-0.26,0.17,1.0,26.19,34.86,0.0746249,0.0,19.26336524425287,nan,-99.61436689894052,nan,0.0,0.0,9936.8623,0.0,0.0,2623.2,0.0
3629.0,0.0,0.0,67.0,138.0,126.0,nan,-0.95,-8.58,-2.51,5.46,-98.11,143.87,-25.77,3.03,-8.34,-0.63,0.71,-0.26,0.17,1.0,26.19,34.86,0.0746249,0.0,19.263365258620684,nan,-99.61436685819072,nan,0.0,0.0,9936.8623,0.0,0.0,2623.2,0.0
3653.0,161.0,209.0,200.0,233.0,139.0,nan,-4.66,-15.99,0.25,5.76,-97.58,143.92,22.04,-2.99,9.09,-0.64,0.7,-0.26,0.17,1.0,26.19,34.86,0.0746249,0.0,19.263365272988505,nan,-99.61436681744094,nan,0.0,0.0,9936.8623,0.0,0.0,2623.2,0.0
3672.0,123.0,137.0,183.0,209.0,129.0,nan,1.46,-6.78,1.14,5.53,-97.31,143.99,4.68,-2.57,-3.23,-0.64,0.7,-0.26,0.17,1.0,26.19,34.86,0.0746249,0.0,19.26336528735632,nan,-99.61436677669114,nan,0.0,0.0,9936.8623,0.0,0.0,2623.2,0.0
3695.0,141.0,151.0,126.0,191.0,138.0,nan,-4.02,-5.58,1.06,5.98,-97.04,143.99,6.57,-0.4,8.32,-0.64,0.7,-0.26,0.17,1.0,26.19,34.86,0.0746249,0.0,19.26336528735632,nan,-99.61436677669114,nan,0.0,0.0,9936.8623,0.0,0.0,0.0,0.0
3714.0,196.0,210.0,125.0,184.0,139.0,nan,0.18,-9.73,-1.71,5.85,-97.37,143.96,-15.13,1.98,-3.02,-0.64,0.7,-0.26,0.17,1.0,26.19,34.86,0.0746249,0.0,19.26336530172414,nan,-99.61436673594133,nan,0.0,0.0,9936.8623,0.0,0.0,2623.2,0.0
3737.0,247.0,222.0,141.0,167.0,81.0,nan,-1.12,-9.92,-2.27,5.96,-97.08,143.97,17.35,-1.52,5.38,-0.64,0.7,-0.26,0.17,1.0,26.19,34.86,0.0746249,0.0,19.263365316091953,nan,-99.61436669519153,nan,0.0,0.0,9936.8623,0.0,0.0,2623.2,0.0
3757.0,63.0,58.0,87.0,99.0,75.0,nan,-0.46,-7.35,-1.6,6.03,-96.69,144.01,21.76,-2.92,4.47,-0.64,0.7,-0.26,0.17,1.0,26.19,34.86,0.0746249,0.0,19.26336533045977,nan,-99.61436665444174,nan,0.0,0.0,9936.8623,0.0,0.0,2623.2,0.0
3780.0,38.0,35.0,55.0,123.0,102.0,nan,-1.16,-7.52,-1.27,6.3,-96.47,144.04,2.37,-0.89,4.54,-0.65,0.7,-0.26,0.17,1.0,26.19,34.86,0.0746249,0.0,19.263365344827584,nan,-99.61436661369196,nan,0.0,0.0,9936.8623,0.0,0.0,2623.2,0.0
3806.0,142.0,143.0,93.0,148.0,127.0,nan,-0.41,-6.78,-0.63,6.29,-96.29,144.06,8.25,-1.45,0.97,-0.65,0.7,-0.26,0.17,1.0,26.19,34.86,0.0746249,0.0,19.263365359195397,nan,-99.61436657294213,nan,0.0,0.0,9936.8623,0.0,0.0,2623.2,0.0
3829.0,77.0,69.0,73.0,125.0,112.0,nan,-0.62,-7.44,-0.72,6.32,-96.3,144.06,-0.92,-0.12,2.09,-0.65,0.7,-0.26,0.17,1.0,26.19,34.86,0.0746249,0.0,19.263365373563218,nan,-99.61436653219235,nan,0.0,0.0,9936.8623,0.0,0.0,2623.2,0.0
3848.0,17.0,31.0,135.0,125.0,96.0,nan,-1.0,-6.61,-0.98,6.35,-96.22,144.08,5.03,-0.89,0.48,-0.65,0.7,-0.26,0.17,1.0,26.19,34.86,0.0746249,0.0,19.263365373563218,nan,-99.61436653219235,nan,0.0,0.0,9936.8623,0.0,0.0,0.0,0.0
3871.0,8.0,15.0,99.0,138.0,125.0,nan,-0.97,-6.8,-0.32,6.35,-96.22,144.08,-1.97,0.16,-1.06,-0.65,0.7,-0.26,0.17,1.0,26.17,34.8,0.0746167,0.0,19.26336538793103,nan,-99.61436649144255,nan,0.0,0.0,9936.8623,0.0,0.0,2623.2,0.0
3893.0,0.0,0.0,124.0,154.0,123.0,nan,-0.63,-6.15,-0.92,6.26,-96.27,144.09,-1.34,0.02,-4.42,-0.65,0.7,-0.26,0.17,1.0,26.17,34.8,0.0746167,0.0,19.263365402298852,nan,-99.61436645069276,nan,0.0,0.0,9936.8623,0.0,0.0,2623.2,0.0
3916.0,0.0,0.0,87.0,138.0,119.0,nan,-0.8,-5.74,-0.02,6.14,-96.34,144.09,-6.31,0.79,-6.45,-0.65,0.7,-0.26,0.17,1.0,26.17,34.8,0.0746167,0.0,19.263365416666666,nan,-99.61436640994295,nan,0.0,0.0,9936.8623,0.0,0.0,2623.2,0.0
3936.0,0.0,0.0,48.0,160.0,109.0,nan,-0.2,-4.82,-1.19,5.88,-96.74,144.06,-16.53,2.26,-11.0,-0.64,0.7,-0.26,0.17,1.0,26.17,34.8,0.0746167,0.0,19.263365431034483,nan,-99.61436636919315,nan,0.0,0.0,9936.8623,0.0,0.0,2623.2,0.0
3959.0,0.0,0.0,71.0,137.0,111.0,nan,1.57,-14.88,-2.64,5.6,-97.01,144.06,24.21,-3.13,-0.43,-0.64,0.7,-0.26,0.17,1.0,26.17,34.8,0.0746167,0.0,19.263365445402297,nan,-99.61436632844337,nan,0.0,0.0,9936.8623,0.0,0.0,2623.2,0.0
3985.0,196.0,212.0,93.0,199.0,140.0,nan,-2.2,-4.51,-4.25,5.88,-97.24,144.03,4.33,-0.96,6.29,-0.64,0.7,-0.26,0.17,1.0,26.17,34.8,0.0746167,0.0,19.263365459770117,nan,-99.6143662876936,nan,0.0,0.0,9936.8623,0.0,0.0,2623.2,0.0
4008.0,180.0,202.0,113.0,183.0,115.0,nan,-0.29,-10.11,-0.95,5.88,-97.04,144.06,9.02,-1.52,2.09,-0.64,0.7,-0.26,0.17,1.0,26.17,34.8,0.0746167,0.0,19.26336547413793,nan,-99.61436624694376,nan,0.0,0.0,9936.8623,0.0,0.0,2623.2,0.0
4027.0,227.0,205.0,172.0,162.0,111.0,nan,-2.4,-5.65,-1.84,6.18,-97.15,144.02,-0.64,0.37,7.06,-0.64,0.7,-0.27,0.17,1.0,26.17,34.8,0.0746167,0.0,19.26336547413793,nan,-99.61436624694376,nan,0.0,0.0,9936.8623,0.0,0.0,0.0,0.0
4050.0,125.0,112.0,104.0,103.0,119.0,nan,-0.79,-9.53,-0.52,6.2,-96.85,144.06,12.87,-1.87,1.39,-0.64,0.7,-0.26,0.17,1.0,26.17,34.8,0.0746167,0.0,19.263365488505745,nan,-99.61436620619399,nan,0.0,0.0,9936.8623,0.0,0.0,2623.2,0.0
4070.0,66.0,40.0,135.0,110.0,75.0,nan,-0.15,-7.7,0.49,6.23,-96.53,144.1,10.77,-1.73,3.7,-0.64,0.7,-0.26,0.17,1.0,26.17,34.8,0.0746167,0.0,19.263365502873565,nan,-99.6143661654442,nan,0.0,0.0,9936.8623,0.0,0.0,2623.2,0.0
4093.0,46.0,16.0,135.0,110.0,95.0,nan,-0.94,-7.16,-2.32,6.33,-96.55,144.09,4.82,-0.68,4.4,-0.64,0.7,-0.26,0.17,1.0,26.17,34.8,0.0746167,0.0,19.26336551724138,nan,-99.6143661246944,nan,0.0,0.0,9936.8623,0.0,0.0,2623.2,0.0
4112.0,58.0,40.0,77.0,153.0,76.0,nan,-1.24,-6.36,-0.59,6.45,-96.42,144.1,5.45,-0.68,3.63,-0.65,0.7,-0.27,0.17,1.0,26.17,34.8,0.0746167,0.0,19.263365531609196,nan,-99.61436608394462,nan,0.0,0.0,9936.8623,0.0,0.0,2623.2,0.0
4135.0,95.0,96.0,108.0,134.0,103.0,nan,-0.77,-7.44,-0.44,6.46,-96.37,144.1,1.25,-0.19,1.04,-0.65,0.7,-0.27,0.17,1.0,26.17,34.8,0.0746167,0.0,19.263365531609196,nan,-99.61436608394462,nan,0.0,0.0,9936.8623,0.0,0.0,0.0,0.0
4154.0,1.0,16.0,119.0,140.0,138.0,nan,-0.72,-6.78,-0.79,6.44,-96.33,144.1,2.23,-0.05,-0.85,-0.65,0.7,-0.26,0.17,1.0,26.17,34.8,0.0746167,0.0,19.26336554597701,nan,-99.61436604319479,nan,0.0,0.0,9936.8623,0.0,0.0,2623.2,0.0
4177.0,0.0,0.0,111.0,138.0,111.0,nan,-0.98,-6.67,-0.78,6.37,-96.36,144.11,2.3,-0.33,-2.6,-0.65,0.7,-0.26,0.17,1.0,26.17,34.8,0.0746167,0.0,19.26336556034483,nan,-99.61436600244501,nan,0.0,0.0,9936.8623,0.0,0.0,2623.2,0.0
4204.0,0.0,0.0,56.0,155.0,111.0,nan,-0.77,-6.19,-0.29,6.29,-96.39,144.11,-3.23,0.44,-4.42,-0.65,0.7,-0.26,0.17,1.0,26.17,34.8,0.0746167,0.0,19.263365574712644,nan,-99.61436596169521,nan,0.0,0.0,9936.8623,0.0,0.0,2623.2,0.0
4226.0,0.0,0.0,61.0,162.0,116.0,nan,-0.34,-4.87,-0.27,6.09,-96.55,144.11,-9.88,1.35,-8.9,-0.64,0.7,-0.26,0.17,1.0,26.17,34.8,0.0746167,0.0,19.263365589080465,nan,-99.61436592094542,nan,0.0,0.0,9936.8623,0.0,0.0,2623.2,0.0
4246.0,0.0,18.0,48.0,204.0,124.0,nan,-1.08,-9.78,0.46,5.93,-97.02,144.08,-27.8,3.1,-8.06,-0.64,0.7,-0.26,0.17,1.0,26.17,34.8,0.0746167,0.0,19.26336560344828,nan,-99.6143658801956,nan,0.0,0.0,9936.8623,0.0,0.0,2623.2,0.0
4269.0,0.0,0.0,82.0,159.0,116.0,nan,0.11,-7.88,-4.81,5.71,-97.58,144.03,-15.97,2.26,-7.5,-0.64,0.7,-0.26,0.17,1.0,26.17,34.8,0.0746167,0.0,19.263365617816092,nan,-99.61436583944581,nan,0.0,0.0,9936.8623,0.0,0.0,2623.2,0.0
4288.0,198.0,202.0,173.0,235.0,139.0,nan,1.07,-12.32,0.21,5.44,-97.23,144.11,13.01,-2.78,-8.62,-0.64,0.7,-0.26,0.17,1.0,26.17,34.8,0.0746167,0.0,19.263365617816092,nan,-99.61436583944581,nan,0.0,0.0,9936.8623,0.0,0.0,0.0,0.0
4311.0,151.0,152.0,93.0,131.0,118.0,nan,-3.7,-5.35,-1.16,5.92,-97.4,144.07,-6.59,0.37,10.21,-0.64,0.7,-0.26,0.17,1.0,26.17,34.8,0.0746167,0.0,19.26336563218391,nan,-99.61436579869603,nan,0.0,0.0,9936.8623,0.0,0.0,2622.8,0.0
4331.0,148.0,154.0,100.0,161.0,130.0,nan,1.53,-10.48,-1.03,5.63,-97.39,144.1,-0.5,-0.26,-7.43,-0.64,0.7,-0.26,0.17,1.0,26.19,34.82,0.0746234,0.0,19.263365646551723,nan,-99.61436575794623,nan,0.0,0.0,9936.8623,0.0,0.0,2622.8,0.0
4356.0,145.0,137.0,134.0,138.0,104.0,nan,-0.96,-7.39,-1.09,5.93,-96.97,144.12,20.43,-2.71,4.05,-0.64,0.7,-0.26,0.17,1.0,26.19,34.82,0.0746234,0.0,19.263365660919543,nan,-99.61436571719642,nan,0.0,0.0,9936.8623,0.0,0.0,2622.8,0.0
4382.0,12.0,3.0,124.0,111.0,103.0,nan,-1.25,-6.78,0.1,6.08,-96.78,144.14,5.38,-1.1,4.82,-0.64,0.7,-0.26,0.17,1.0,26.19,34.82,0.0746234,0.0,19.263365675287357,nan,-99.61436567644662,nan,0.0,0.0,9936.8623,0.0,0.0,2622.8,0.0
4405.0,16.0,2.0,146.0,138.0,110.0,nan,-0.62,-7.04,-1.04,6.13,-96.74,144.15,3.0,-0.96,2.93,-0.64,0.7,-0.26,0.17,1.0,26.19,34.82,0.0746234,0.0,19.26336568965517,nan,-99.61436563569683,nan,0.0,0.0,9936.8623,0.0,0.0,2622.8,0.0
4425.0,48.0,32.0,40.0,153.0,116.0,nan,-0.3,-7.16,-1.35,6.1,-96.73,144.15,2.37,-0.47,0.27,-0.64,0.7,-0.26,0.17,1.0,26.19,34.82,0.0746234,0.0,19.26336570402299,nan,-99.61436559494705,nan,0.0,0.0,9936.8623,0.0,0.0,2622.8,0.0
4448.0,34.0,34.0,39.0,133.0,124.0,nan,-1.06,-7.09,-0.19,6.17,-96.59,144.17,4.19,-0.82,2.37,-0.64,0.7,-0.26,0.17,1.0,26.19,34.82,0.0746234,0.0,19.26336570402299,nan,-99.61436559494705,nan,0.0,0.0,9936.8623,0.0,0.0,0.0,0.0
4467.0,16.0,15.0,147.0,160.0,125.0,nan,-0.89,-7.14,-1.45,6.17,-96.67,144.16,-1.62,0.16,-0.5,-0.64,0.7,-0.26,0.17,1.0,26.19,34.82,0.0746234,0.0,19.263365718390805,nan,-99.61436555419722,nan,0.0,0.0,9936.8623,0.0,0.0,2622.8,0.0
4490.0,30.0,18.0,121.0,159.0,113.0,nan,-0.86,-7.33,-0.26,6.15,-96.56,144.18,3.07,-0.82,-1.27,-0.64,0.7,-0.26,0.17,1.0,26.19,34.82,0.0746234,0.0,19.263365732758622,nan,-99.61436551344744,nan,0.0,0.0,9936.8623,0.0,0.0,2622.8,0.0
4510.0,0.0,0.0,67.0,133.0,97.0,nan,-0.48,-6.33,-1.58,6.06,-96.71,144.18,-3.65,0.37,-3.37,-0.64,0.7,-0.26,0.17,1.0,26.19,34.82,0.0746234,0.0,19.263365747126436,nan,-99.61436547269767,nan,0.0,0.0,9936.8623,0.0,0.0,2622.8,0.0
4533.0,0.0,0.0,73.0,160.0,124.0,nan,-0.49,-5.87,-0.78,5.86,-96.95,144.17,-14.85,1.91,-5.33,-0.64,0.7,-0.26,0.17,1.0,26.19,34.82,0.0746234,0.0,19.26336576149425,nan,-99.61436543194787,nan,0.0,0.0,9936.8623,0.0,0.0,2622.8,0.0
4560.0,0.0,0.0,50.0,199.0,138.0,nan,-0.49,-5.87,-0.78,5.86,-96.95,144.17,0.0,0.0,0.0,-0.64,0.7,-0.26,0.17,1.0,26.19,34.82,0.0746234,0.0,19.26336577586207,nan,-99.61436539119806,nan,0.0,0.0,9936.8623,0.0,0.0,2622.8,0.0
4577.0,0.0,0.0,76.0,139.0,110.0,nan,-0.34,-9.13,-5.65,5.55,-97.91,144.08,-8.55,1.77,-4.14,-0.64,0.71,-0.26,0.17,1.0,26.19,34.82,0.0746234,0.0,19.263365790229884,nan,-99.61436535044827,nan,0.0,0.0,9936.8623,0.0,0.0,2622.8,0.0
4601.0,156.0,158.0,216.0,214.0,174.0,nan,1.12,-10.71,0.51,5.33,-97.61,144.15,9.58,-2.22,-5.68,-0.64,0.71,-0.26,0.17,1.0,26.19,34.82,0.0746234,0.0,19.263365790229884,nan,-99.61436535044827,nan,0.0,0.0,9936.8623,0.0,0.0,0.0,0.0
4624.0,111.0,145.0,172.0,184.0,134.0,nan,-1.93,-7.49,-1.53,5.52,-97.53,144.16,5.73,-1.38,4.96,-0.64,0.7,-0.26,0.17,1.0,26.19,34.82,0.0746234,0.0,19.263365804597704,nan,-99.61436530969847,nan,0.0,0.0,9936.8623,0.0,0.0,2622.8,0.0
4644.0,213.0,196.0,143.0,211.0,138.0,nan,-0.42,-7.56,-1.07,5.54,-97.6,144.15,-3.02,0.37,2.65,-0.64,0.71,-0.26,0.17,1.0,26.19,34.82,0.0746234,0.0,19.263365818965518,nan,-99.61436526894869,nan,0.0,0.0,9936.8623,0.0,0.0,2622.8,0.0
4666.0,95.0,94.0,151.0,131.0,118.0,nan,-1.66,-9.55,-1.48,5.7,-97.33,144.16,13.71,-1.66,5.73,-0.64,0.7,-0.26,0.17,1.0,26.19,34.82,0.0746234,0.0,19.263365833333335,nan,-99.61436522819886,nan,0.0,0.0,9936.8623,0.0,0.0,2622.8,0.0
4686.0,26.0,6.0,87.0,65.0,96.0,nan,-0.67,-6.83,-0.14,5.78,-96.97,144.2,15.04,-2.15,3.49,-0.64,0.7,-0.26,0.17,1.0,26.19,34.82,0.0746234,0.0,19.26336584770115,nan,-99.61436518744908,nan,0.0,0.0,9936.8623,0.0,0.0,2622.8,0.0
4709.0,48.0,31.0,78.0,108.0,96.0,nan,-0.55,-7.04,-0.66,5.84,-96.86,144.21,4.54,-0.82,3.63,-0.64,0.7,-0.26,0.17,1.0,26.19,34.82,0.0746234,0.0,19.26336584770115,nan,-99.61436518744908,nan,0.0,0.0,9936.8623,0.0,0.0,0.0,0.0
4728.0,19.0,2.0,47.0,124.0,119.0,nan,-0.66,-7.27,-1.2,5.87,-96.78,144.23,5.03,-1.03,1.95,-0.64,0.7,-0.26,0.17,1.0,26.19,34.82,0.0746234,0.0,19.263365862068962,nan,-99.61436514669928,nan,0.0,0.0,9936.8623,0.0,0.0,2622.8,0.0
4751.0,36.0,31.0,52.0,140.0,111.0,nan,-0.88,-7.52,-1.05,5.93,-96.74,144.24,-1.34,0.02,-0.08,-0.64,0.7,-0.26,0.17,1.0,26.19,34.82,0.0746234,0.0,19.263365876436783,nan,-99.61436510594949,nan,0.0,0.0,9936.8623,0.0,0.0,2622.8,0.0
4778.0,30.0,14.0,55.0,154.0,111.0,nan,-0.75,-7.02,-0.57,5.9,-96.67,144.25,2.09,-0.54,-1.55,-0.64,0.7,-0.26,0.17,1.0,26.19,34.82,0.0746234,0.0,19.263365890804597,nan,-99.61436506519968,nan,0.0,0.0,9936.8623,0.0,0.0,2622.8,0.0
4801.0,18.0,17.0,108.0,174.0,138.0,nan,-0.69,-7.14,-1.23,5.86,-96.75,144.25,-2.46,0.23,-1.83,-0.64,0.7,-0.26,0.17,1.0,26.2,34.82,0.0746242,0.0,19.263365905172417,nan,-99.61436502444988,nan,0.0,0.0,9936.8623,0.0,0.0,2622.8,0.0
4823.0,0.0,0.0,71.0,147.0,110.0,nan,-0.97,-6.11,-0.16,5.81,-96.7,144.26,0.2,-0.05,-4.07,-0.64,0.7,-0.26,0.17,1.0,26.2,34.82,0.0746242,0.0,19.26336591954023,nan,-99.6143649837001,nan,0.0,0.0,9936.8623,0.0,0.0,2622.8,0.0
4845.0,0.0,0.0,77.0,162.0,129.0,nan,-0.19,-5.79,-0.46,5.63,-96.95,144.25,-13.59,1.7,-6.94,-0.64,0.7,-0.26,0.17,1.0,26.2,34.82,0.0746242,0.0,19.263365933908045,nan,-99.6143649429503,nan,0.0,0.0,9936.8623,0.0,0.0,2622.8,0.0
4865.0,15.0,25.0,136.0,171.0,139.0,nan,-1.21,-9.37,0.08,5.5,-97.26,144.23,-19.26,2.12,-7.01,-0.64,0.7,-0.26,0.17,1.0,26.2,34.82,0.0746242,0.0,19.26336594827586,nan,-99.61436490220049,nan,0.0,0.0,9936.8623,0.0,0.0,2622.8,0.0
4888.0,0.0,0.0,108.0,111.0,103.0,nan,-0.69,-10.14,-2.49,5.37,-97.69,144.2,-17.79,1.84,-5.4,-0.64,0.71,-0.26,0.17,1.0,26.2,34.82,0.0746242,0.0,19.26336594827586,nan,-99.61436490220049,nan,0.0,0.0,9936.8623,0.0,0.0,0.0,0.0
4908.0,81.0,108.0,147.0,187.0,137.0,nan,-0.12,-10.38,-2.86,5.29,-97.61,144.22,7.69,-1.03,-1.76,-0.64,0.71,-0.26,0.17,1.0,26.2,34.82,0.0746242,0.0,19.263365962643675,nan,-99.6143648614507,nan,0.0,0.0,9936.8623,0.0,0.0,2622.8,0.0
4931.0,136.0,131.0,216.0,216.0,133.0,nan,-1.38,-10.55,-0.18,5.44,-97.4,144.24,10.7,-1.66,3.21,-0.64,0.7,-0.26,0.17,1.0,26.2,34.82,0.0746242,0.0,19.263365977011496,nan,-99.6143648207009,nan,0.0,0.0,9936.8623,0.0,0.0,2622.8,0.0
4957.0,174.0,164.0,204.0,171.0,75.0,nan,-0.9,-7.47,-0.96,5.58,-97.06,144.27,16.72,-2.22,6.36,-0.64,0.7,-0.26,0.17,1.0,26.2,34.82,0.0746242,0.0,19.26336599137931,nan,-99.61436477995112,nan,0.0,0.0,9936.8623,0.0,0.0,2622.8,0.0
4980.0,33.0,33.0,98.0,91.0,89.0,nan,-1.01,-7.08,-1.0,5.67,-96.88,144.28,9.58,-1.1,2.93,-0.64,0.7,-0.26,0.17,1.0,26.2,34.82,0.0746242,0.0,19.263366005747123,nan,-99.61436473920129,nan,0.0,0.0,9936.8623,0.0,0.0,2622.8,0.0
4999.0,107.0,95.0,40.0,147.0,125.0,nan,-0.65,-6.89,-0.36,5.77,-96.72,144.3,5.8,-1.31,5.1,-0.64,0.7,-0.26,0.17,1.0,26.2,34.82,0.0746242,0.0,19.263366020114944,nan,-99.61436469845151,nan,0.0,0.0,9936.8623,0.0,0.0,2622.8,0.0
5022.0,34.0,17.0,108.0,94.0,109.0,nan,-0.86,-6.76,-1.78,5.82,-96.77,144.3,1.32,-0.4,1.67,-0.64,0.7,-0.26,0.17,1.0,26.2,34.82,0.0746242,0.0,19.263366020114944,nan,-99.61436469845151,nan,0.0,0.0,9936.8623,0.0,0.0,0.0,0.0
5041.0,17.0,25.0,68.0,133.0,111.0,nan,-0.87,-6.82,0.37,5.87,-96.57,144.33,5.17,-1.17,1.95,-0.64,0.7,-0.26,0.17,1.0,26.2,34.82,0.0746242,0.0,19.263366034482758,nan,-99.61436465770174,nan,0.0,0.0,9936.8623,0.0,0.0,2622.8,0.0
5064.0,17.0,16.0,53.0,138.0,112.0,nan,-0.71,-6.93,-1.77,5.85,-96.76,144.31,-5.4,0.65,-1.27,-0.64,0.7,-0.26,0.17,1.0,26.2,34.82,0.0746242,0.0,19.263366048850575,nan,-99.61436461695195,nan,0.0,0.0,9936.8623,0.0,0.0,2622.8,0.0
5084.0,18.0,21.0,107.0,148.0,76.0,nan,-0.92,-7.29,-0.07,5.83,-96.63,144.33,3.35,-0.68,-1.55,-0.64,0.7,-0.26,0.17,1.0,26.2,34.82,0.0746242,0.0,19.26336606321839,nan,-99.61436457620214,nan,0.0,0.0,9936.8623,0.0,0.0,2622.8,0.0
5107.0,0.0,0.0,68.0,125.0,89.0,nan,-0.56,-6.63,-1.56,5.75,-96.81,144.32,-6.03,0.65,-3.44,-0.64,0.7,-0.26,0.17,1.0,26.2,34.82,0.0746242,0.0,19.263366077586202,nan,-99.61436453545234,nan,0.0,0.0,9936.8623,0.0,0.0,2622.8,0.0
5126.0,0.0,0.0,37.0,148.0,125.0,nan,-1.01,-6.84,0.37,5.68,-96.71,144.35,0.34,-0.26,-4.84,-0.64,0.7,-0.26,0.17,1.0,26.2,34.82,0.0746242,0.0,19.263366091954023,nan,-99.61436449470254,nan,0.0,0.0,9936.8623,0.0,0.0,2622.8,0.0
5149.0,0.0,0.0,53.0,176.0,126.0,nan,-1.03,-8.49,-0.47,5.41,-97.41,144.3,-20.73,2.4,-8.2,-0.64,0.7,-0.26,0.17,1.0,26.2,34.82,0.0746242,0.0,19.263366106321836,nan,-99.61436445395276,nan,0.0,0.0,9936.8623,0.0,0.0,2622.8,0.0
5176.0,0.0,0.0,50.0,175.0,138.0,nan,-0.77,-10.9,-2.74,5.3,-97.85,144.27,-18.49,1.91,-4.63,-0.64,0.71,-0.26,0.17,1.0,26.2,34.82,0.0746242,0.0,19.263366120689657,nan,-99.61436441320294,nan,0.0,0.0,9936.8623,0.0,0.0,2622.8,0.0
5199.0,142.0,147.0,103.0,193.0,174.0,nan,-2.91,-12.86,0.06,5.45,-97.57,144.3,9.86,-1.73,3.63,-0.64,0.71,-0.26,0.17,1.0,26.2,34.82,0.0746242,0.0,19.263366120689657,nan,-99.61436441320294,nan,0.0,0.0,9936.8623,0.0,0.0,0.0,0.0
5218.0,96.0,121.0,86.0,149.0,138.0,nan,-0.32,-7.04,-1.41,5.46,-97.54,144.31,3.63,-1.03,2.16,-0.64,0.71,-0.26,0.17,1.0,26.2,34.82,0.0746242,0.0,19.26336613505747,nan,-99.61436437245315,nan,0.0,0.0,9936.8623,0.0,0.0,2622.8,0.0
5241.0,185.0,172.0,103.0,160.0,138.0,nan,-1.43,-8.21,-0.62,5.55,-97.45,144.32,2.93,-0.47,2.02,-0.64,0.7,-0.26,0.17,1.0,26.2,34.82,0.0746242,0.0,19.263366149425284,nan,-99.61436433170336,nan,0.0,0.0,9936.8623,0.0,0.0,2622.8,0.0
5260.0,185.0,172.0,173.0,134.0,112.0,nan,-0.69,-10.05,-1.33,5.63,-97.21,144.34,11.75,-1.8,4.4,-0.64,0.7,-0.26,0.17,1.0,26.2,34.84,0.0746069,0.0,19.2633661637931,nan,-99.61436429095356,nan,0.0,0.0,9936.8623,0.0,0.0,2622.8,0.0
5286.0,197.0,177.0,183.0,134.0,76.0,nan,-0.83,-6.66,-0.02,5.73,-96.76,144.38,18.89,-2.36,4.12,-0.64,0.7,-0.26,0.17,1.0,26.2,34.84,0.0746069,0.0,19.263366178160915,nan,-99.61436425020378,nan,0.0,0.0,9936.8623,0.0,0.0,2622.8,0.0
5305.0,108.0,96.0,92.0,111.0,103.0,nan,-0.76,-7.39,-0.68,5.81,-96.68,144.39,3.0,-0.82,3.98,-0.64,0.7,-0.26,0.17,1.0,26.2,34.84,0.0746069,0.0,19.263366178160915,nan,-99.61436425020378,nan,0.0,0.0,9936.8623,0.0,0.0,0.0,0.0
5328.0,40.0,29.0,88.0,123.0,81.0,nan,-0.65,-6.77,-0.2,5.9,-96.49,144.42,3.14,-0.75,1.18,-0.64,0.7,-0.26,0.17,1.0,26.2,34.84,0.0746069,0.0,19.263366192528736,nan,-99.61436420945395,nan,0.0,0.0,9936.8623,0.0,0.0,2622.6,0.0
5354.0,18.0,31.0,119.0,138.0,113.0,nan,-0.88,-7.23,-1.49,5.91,-96.59,144.41,-2.25,0.16,-0.01,-0.64,0.7,-0.26,0.17,1.0,26.2,34.84,0.0746069,0.0,19.26336620689655,nan,-99.61436416870417,nan,0.0,0.0,9936.8623,0.0,0.0,2622.6,0.0
5377.0,38.0,28.0,93.0,154.0,111.0,nan,-1.02,-6.74,-0.44,5.92,-96.5,144.43,3.07,-0.54,-1.2,-0.64,0.7,-0.26,0.17,1.0,26.2,34.84,0.0746069,0.0,19.263366221264363,nan,-99.61436412795437,nan,0.0,0.0,9936.8623,0.0,0.0,2622.6,0.0
5397.0,18.0,29.0,125.0,149.0,125.0,nan,-0.7,-6.58,-1.04,5.85,-96.62,144.42,-4.84,0.51,-3.3,-0.64,0.7,-0.26,0.17,1.0,26.2,34.84,0.0746069,0.0,19.263366235632184,nan,-99.61436408720458,nan,0.0,0.0,9936.8623,0.0,0.0,2622.6,0.0
5420.0,17.0,30.0,98.0,149.0,110.0,nan,-0.97,-5.98,0.25,5.77,-96.56,144.44,-1.62,0.16,-5.61,-0.64,0.7,-0.26,0.17,1.0,26.2,34.84,0.0746069,0.0,19.263366249999997,nan,-99.61436404645477,nan,0.0,0.0,9936.8623,0.0,0.0,2622.6,0.0
5439.0,0.0,0.0,37.0,148.0,105.0,nan,-0.72,-7.05,-0.58,5.66,-96.94,144.41,-19.54,2.33,-5.33,-0.64,0.7,-0.26,0.17,1.0,26.2,34.84,0.0746069,0.0,19.263366264367814,nan,-99.61436400570497,nan,0.0,0.0,9936.8623,0.0,0.0,2622.6,0.0
5462.0,0.0,5.0,110.0,148.0,76.0,nan,-0.88,-8.4,-1.55,5.5,-97.42,144.37,-22.34,2.68,-8.06,-0.64,0.7,-0.26,0.17,1.0,26.2,34.84,0.0746069,0.0,19.263366264367814,nan,-99.61436400570497,nan,0.0,0.0,9936.8623,0.0,0.0,0.0,0.0
5482.0,24.0,74.0,62.0,176.0,110.0,nan,-0.22,-9.67,-5.19,5.37,-97.78,144.34,-7.71,1.28,-4.28,-0.64,0.71,-0.26,0.17,1.0,26.2,34.84,0.0746069,0.0,19.263366278735628,nan,-99.61436396495519,nan,0.0,0.0,9936.8623,0.0,0.0,2622.6,0.0
5504.0,48.0,62.0,102.0,160.0,112.0,nan,1.04,-9.1,-0.34,5.18,-97.65,144.38,3.49,-1.38,-3.93,-0.64,0.71,-0.26,0.17,1.0,26.2,34.84,0.0746069,0.0,19.26336629310345,nan,-99.61436392420542,nan,0.0,0.0,9936.8623,0.0,0.0,2622.6,0.0
5524.0,212.0,196.0,178.0,194.0,131.0,nan,-1.99,-10.31,-0.69,5.36,-97.37,144.41,12.03,-2.08,5.8,-0.64,0.7,-0.26,0.17,1.0,26.2,34.84,0.0746069,0.0,19.263366307471262,nan,-99.61436388345558,nan,0.0,0.0,9936.8623,0.0,0.0,2622.6,0.0
5547.0,152.0,148.0,161.0,153.0,118.0,nan,-1.82,-9.04,-1.41,5.53,-97.06,144.44,14.48,-1.94,5.87,-0.64,0.7,-0.26,0.17,1.0,26.2,34.84,0.0746069,0.0,19.263366321839076,nan,-99.61436384270581,nan,0.0,0.0,9936.8623,0.0,0.0,2622.6,0.0
5573.0,87.0,60.0,135.0,124.0,118.0,nan,-0.38,-5.98,0.03,5.6,-96.83,144.46,7.76,-1.45,4.19,-0.64,0.7,-0.26,0.17,1.0,26.2,34.84,0.0746069,0.0,19.263366336206897,nan,-99.61436380195602,nan,0.0,0.0,9936.8623,0.0,0.0,2622.6,0.0
5596.0,19.0,2.0,135.0,126.0,97.0,nan,-1.3,-7.79,-1.05,5.73,-96.79,144.46,2.3,-0.54,4.26,-0.64,0.7,-0.26,0.17,1.0,26.2,34.84,0.0746069,0.0,19.26336635057471,nan,-99.61436376120622,nan,0.0,0.0,9936.8623,0.0,0.0,2622.6,0.0
5616.0,34.0,12.0,87.0,139.0,111.0,nan,-0.41,-6.33,-0.22,5.72,-96.57,144.49,8.74,-1.45,0.48,-0.64,0.7,-0.26,0.17,1.0,26.2,34.84,0.0746069,0.0,19.26336635057471,nan,-99.61436376120622,nan,0.0,0.0,9936.8623,0.0,0.0,0.0,0.0
5638.0,23.0,26.0,67.0,140.0,129.0,nan,-1.3,-7.45,-0.87,5.79,-96.62,144.49,-2.39,0.23,1.32,-0.64,0.7,-0.26,0.17,1.0,26.2,34.84,0.0746069,0.0,19.263366364942527,nan,-99.61436372045641,nan,0.0,0.0,9936.8623,0.0,0.0,2622.6,0.0
5658.0,11.0,28.0,78.0,124.0,120.0,nan,-0.79,-6.79,-0.74,5.77,-96.54,144.51,3.42,-0.82,-1.48,-0.64,0.7,-0.26,0.17,1.0,26.2,34.84,0.0746069,0.0,19.26336637931034,nan,-99.61436367970661,nan,0.0,0.0,9936.8623,0.0,0.0,2622.6,0.0
5681.0,39.0,27.0,87.0,144.0,111.0,nan,-0.97,-7.43,-0.57,5.74,-96.57,144.51,-2.46,0.3,-2.25,-0.64,0.7,-0.26,0.17,1.0,26.2,34.84,0.0746069,0.0,19.26336639367816,nan,-99.61436363895683,nan,0.0,0.0,9936.8623,0.0,0.0,2622.6,0.0
5700.0,18.0,16.0,77.0,138.0,125.0,nan,-0.82,-6.68,-0.98,5.68,-96.59,144.52,-0.5,-0.05,-3.51,-0.64,0.7,-0.26,0.17,1.0,26.2,34.84,0.0746069,0.0,19.263366408045975,nan,-99.61436359820704,nan,0.0,0.0,9936.8623,0.0,0.0,2622.6,0.0
5724.0,0.0,0.0,55.0,139.0,113.0,nan,-1.42,-7.59,-1.14,5.5,-97.03,144.49,-17.86,2.26,-4.98,-0.64,0.7,-0.26,0.17,1.0,26.22,34.82,0.0746234,0.0,19.263366422413796,nan,-99.61436355745722,nan,0.0,0.0,9936.8623,0.0,0.0,2622.6,0.0
5756.0,0.0,1.0,56.0,182.0,125.0,nan,-0.64,-8.9,-0.26,5.34,-97.37,144.47,-19.19,2.05,-6.87,-0.64,0.71,-0.26,0.17,1.0,26.22,34.82,0.0746234,0.0,19.26336643678161,nan,-99.61436351670743,nan,0.0,0.0,9936.8623,0.0,0.0,2622.6,0.0
5775.0,0.0,17.0,147.0,164.0,110.0,nan,0.43,-10.14,-5.57,5.17,-97.68,144.45,-4.91,0.79,-5.19,-0.64,0.71,-0.26,0.17,1.0,26.22,34.82,0.0746234,0.0,19.263366451149423,nan,-99.61436347595763,nan,0.0,0.0,9936.8623,0.0,0.0,2622.6,0.0
5798.0,63.0,96.0,138.0,133.0,105.0,nan,0.33,-7.82,-0.94,5.06,-97.64,144.46,1.04,-0.68,-1.55,-0.64,0.71,-0.26,0.17,1.0,26.22,34.82,0.0746234,0.0,19.263366451149423,nan,-99.61436347595763,nan,0.0,0.0,9936.8623,0.0,0.0,0.0,0.0
5817.0,100.0,122.0,161.0,149.0,76.0,nan,-1.71,-11.36,-0.36,5.2,-97.35,144.49,11.75,-1.73,4.82,-0.64,0.71,-0.26,0.17,1.0,26.22,34.82,0.0746234,0.0,19.26336646551724,nan,-99.61436343520785,nan,0.0,0.0,9936.8623,0.0,0.0,2622.6,0.0
5840.0,185.0,173.0,183.0,131.0,96.0,nan,-0.04,-6.08,-1.73,5.24,-97.21,144.5,11.26,-1.31,4.61,-0.64,0.7,-0.26,0.17,1.0,26.22,34.82,0.0746234,0.0,19.263366479885054,nan,-99.61436339445802,nan,0.0,0.0,9936.8623,0.0,0.0,2622.6,0.0
5860.0,78.0,90.0,149.0,95.0,101.0,nan,-1.78,-8.65,-0.77,5.38,-96.99,144.52,9.65,-1.45,3.35,-0.64,0.7,-0.26,0.17,1.0,26.22,34.82,0.0746234,0.0,19.263366494252875,nan,-99.61436335370824,nan,0.0,0.0,9936.8623,0.0,0.0,2622.6,0.0
5883.0,66.0,59.0,98.0,112.0,75.0,nan,0.0,-7.12,0.81,5.41,-96.68,144.56,8.74,-1.73,4.19,-0.64,0.7,-0.26,0.17,1.0,26.22,34.82,0.0746234,0.0,19.263366508620688,nan,-99.61436331295845,nan,0.0,0.0,9936.8623,0.0,0.0,2622.6,0.0
