time,p1,p2,p3,p4,p5,termite,ax,ay,az,rx,ry,rz,roll,pitch,yaw,q1,q2,q3,q4,calibration,temperature,humidity,pressure,flag_rm,lat,lacoord,lon,locoord,capacitive,o_lat,o_lon,used_lat,used_lon,altitude,flag_lm
0.0,21.0,30.0,40.0,138.0,102.0,nan,-0.66,-7.87,1.25,4.11,-81.32,130.36,-0.71,-0.05,-0.29,-0.7,0.58,-0.3,0.3,1.0,27.87,27.28,0.0747343,0.0,19.250389696969695,nan,-99.59641992063493,nan,0.0,0.0,9935.7852,1.0,1.0,2599.7,0.0
19.0,27.0,31.0,124.0,147.0,109.0,nan,-0.53,-7.86,1.16,4.1,-81.32,130.36,-0.01,0.09,-0.15,-0.7,0.58,-0.3,0.3,1.0,27.87,27.28,0.0747343,0.0,19.250389696969695,nan,-99.59641992063493,nan,0.0,0.0,9935.7852,0.0,0.0,0.0,0.0
42.0,32.0,26.0,73.0,161.0,111.0,nan,-0.56,-8.03,1.32,4.09,-81.3,130.36,0.97,-0.05,-0.29,-0.7,0.58,-0.3,0.3,1.0,27.87,27.28,0.0747343,0.0,19.250389696969695,nan,-99.59641992063493,nan,0.0,0.0,9935.7852,0.0,0.0,0.0,0.0
62.0,27.0,31.0,52.0,139.0,126.0,nan,-0.5,-7.99,1.24,4.09,-81.34,130.36,-2.11,0.3,-0.15,-0.7,0.58,-0.3,0.3,1.0,27.87,27.28,0.0747343,0.0,19.250389696969695,nan,-99.59641992063493,nan,0.0,0.0,9935.7852,0.0,0.0,0.0,0.0
85.0,18.0,31.0,55.0,174.0,124.0,nan,-0.53,-7.97,1.09,4.08,-81.36,130.35,-0.57,0.09,-0.36,-0.7,0.58,-0.3,0.3,1.0,27.87,27.28,0.0747343,0.0,19.250389696969695,nan,-99.59641992063493,nan,0.0,0.0,9935.7852,0.0,0.0,0.0,0.0
104.0,18.0,21.0,52.0,149.0,104.0,nan,-0.59,-7.98,1.2,4.07,-81.37,130.35,-0.71,0.02,-0.22,-0.7,0.58,-0.3,0.3,1.0,27.87,27.28,0.0747343,0.0,19.250389696969695,nan,-99.59641992063493,nan,0.0,0.0,9935.7852,0.0,0.0,0.0,0.0
127.0,26.0,17.0,77.0,137.0,76.0,nan,-0.71,-7.89,1.12,4.08,-81.39,130.34,2.3,-0.19,-0.01,-0.7,0.58,-0.3,0.3,1.0,27.87,27.28,0.0747343,0.0,19.250389696969695,nan,-99.59641992063493,nan,0.0,0.0,9935.7852,0.0,0.0,0.0,0.0
154.0,16.0,29.0,66.0,140.0,102.0,nan,-0.71,-7.89,1.12,4.08,-81.39,130.34,0.0,0.0,0.0,-0.7,0.58,-0.3,0.3,1.0,27.87,27.28,0.0747343,0.0,19.250389696969695,nan,-99.59641992063493,nan,0.0,0.0,9935.7852,0.0,0.0,0.0,0.0
171.0,18.0,30.0,119.0,133.0,111.0,nan,-0.77,-7.72,1.11,4.1,-81.34,130.35,0.97,0.09,0.06,-0.7,0.58,-0.3,0.3,1.0,27.87,27.28,0.0747343,0.0,19.250389696969695,nan,-99.59641992063493,nan,0.0,0.0,9935.7852,0.0,0.0,0.0,0.0
195.0,27.0,30.0,99.0,140.0,110.0,nan,-0.67,-7.91,1.42,4.1,-81.27,130.36,2.72,-0.4,-0.08,-0.7,0.58,-0.3,0.3,1.0,27.87,27.28,0.0747343,0.0,19.250389696969695,nan,-99.59641992063493,nan,0.0,0.0,9935.7852,0.0,0.0,0.0,0.0
219.0,26.0,27.0,52.0,126.0,111.0,nan,-0.76,-7.79,1.25,4.11,-81.3,130.35,-1.97,0.23,-0.15,-0.7,0.58,-0.3,0.3,1.0,27.9,27.28,0.0747343,0.0,19.250389696969695,nan,-99.59641992063493,nan,0.0,0.0,9935.7852,0.0,0.0,0.0,0.0
240.0,18.0,31.0,55.0,154.0,110.0,nan,-0.54,-7.85,1.22,4.1,-81.29,130.35,0.48,-0.12,-0.43,-0.7,0.58,-0.3,0.3,1.0,27.9,27.28,0.0747343,0.0,19.250389393939397,nan,-99.59641984126984,nan,0.0,0.0,9935.7852,0.0,0.0,2599.7,0.0
263.0,23.0,18.0,146.0,153.0,75.0,nan,-0.66,-7.99,1.38,4.1,-81.29,130.35,-0.57,-0.12,-0.29,-0.7,0.58,-0.3,0.3,1.0,27.9,27.28,0.0747343,0.0,19.250389393939397,nan,-99.59641984126984,nan,0.0,0.0,9935.7852,0.0,0.0,0.0,0.0
283.0,36.0,30.0,109.0,132.0,103.0,nan,-0.46,-7.85,1.06,4.09,-81.37,130.35,-3.23,0.37,-0.22,-0.7,0.58,-0.3,0.3,1.0,27.9,27.28,0.0747343,0.0,19.250389393939397,nan,-99.59641984126984,nan,0.0,0.0,9935.7852,0.0,0.0,0.0,0.0
305.0,18.0,31.0,67.0,137.0,76.0,nan,-0.61,-7.97,1.13,4.09,-81.34,130.35,1.53,-0.19,-0.29,-0.7,0.58,-0.3,0.3,1.0,27.9,27.28,0.0747343,0.0,19.250389393939397,nan,-99.59641984126984,nan,0.0,0.0,9935.7852,0.0,0.0,0.0,0.0
325.0,17.0,30.0,53.0,126.0,103.0,nan,-0.47,-7.95,1.26,4.07,-81.35,130.35,-0.78,-0.05,-0.29,-0.7,0.58,-0.3,0.3,1.0,27.9,27.28,0.0747343,0.0,19.250389393939397,nan,-99.59641984126984,nan,0.0,0.0,9935.7852,0.0,0.0,0.0,0.0
348.0,27.0,32.0,68.0,139.0,111.0,nan,-0.58,-8.03,1.31,4.07,-81.34,130.34,2.23,-0.19,-0.15,-0.7,0.58,-0.3,0.3,1.0,27.9,27.28,0.0747343,0.0,19.250389393939397,nan,-99.59641984126984,nan,0.0,0.0,9935.7852,0.0,0.0,0.0,0.0
374.0,25.0,29.0,51.0,138.0,97.0,nan,-0.66,-7.83,1.13,4.07,-81.36,130.34,-0.99,0.09,-0.08,-0.7,0.58,-0.3,0.3,1.0,27.9,27.28,0.0747343,0.0,19.250389393939397,nan,-99.59641984126984,nan,0.0,0.0,9935.7852,0.0,0.0,0.0,0.0
397.0,17.0,31.0,67.0,148.0,110.0,nan,-0.66,-7.82,1.12,4.08,-81.34,130.34,1.25,-0.12,-0.01,-0.7,0.58,-0.3,0.3,1.0,27.9,27.28,0.0747343,0.0,19.250389393939397,nan,-99.59641984126984,nan,0.0,0.0,9935.7852,0.0,0.0,0.0,0.0
417.0,25.0,30.0,135.0,154.0,104.0,nan,-0.69,-7.95,1.31,4.08,-81.34,130.34,-0.22,0.02,-0.36,-0.7,0.58,-0.3,0.3,1.0,27.9,27.28,0.0747343,0.0,19.250389393939397,nan,-99.59641984126984,nan,0.0,0.0,9935.7852,0.0,0.0,0.0,0.0
440.0,17.0,26.0,89.0,137.0,75.0,nan,-0.66,-7.79,1.03,4.09,-81.4,130.33,-2.18,0.3,-0.08,-0.7,0.58,-0.3,0.3,1.0,27.9,27.28,0.0747343,0.0,19.250389393939397,nan,-99.59641984126984,nan,0.0,0.0,9935.7852,0.0,0.0,0.0,0.0
459.0,18.0,26.0,147.0,134.0,90.0,nan,-0.66,-7.91,1.14,4.09,-81.34,130.34,2.86,-0.4,-0.15,-0.7,0.58,-0.3,0.3,1.0,27.9,27.28,0.0747343,0.0,19.25038909090909,nan,-99.5964197619048,nan,0.0,0.0,9935.7852,0.0,0.0,2599.7,0.0
482.0,21.0,17.0,87.0,139.0,125.0,nan,-0.69,-7.86,1.29,4.1,-81.32,130.34,0.62,-0.12,0.06,-0.7,0.58,-0.3,0.3,1.0,27.9,27.28,0.0747343,0.0,19.25038909090909,nan,-99.5964197619048,nan,0.0,0.0,9935.7852,0.0,0.0,0.0,0.0
501.0,31.0,30.0,120.0,146.0,112.0,nan,-0.54,-7.75,1.12,4.1,-81.33,130.34,-0.22,0.23,-0.08,-0.7,0.58,-0.3,0.3,1.0,27.9,27.28,0.0747343,0.0,19.25038909090909,nan,-99.5964197619048,nan,0.0,0.0,9935.7852,0.0,0.0,0.0,0.0
524.0,25.0,30.0,88.0,136.0,112.0,nan,-0.68,-7.96,1.36,4.1,-81.29,130.34,1.81,-0.19,-0.15,-0.7,0.58,-0.3,0.3,1.0,27.9,27.28,0.0747343,0.0,19.25038909090909,nan,-99.5964197619048,nan,0.0,0.0,9935.7852,0.0,0.0,0.0,0.0
544.0,17.0,26.0,88.0,136.0,97.0,nan,-0.49,-7.91,1.29,4.09,-81.29,130.34,-0.71,0.02,-0.29,-0.7,0.58,-0.3,0.3,1.0,27.9,27.28,0.0747343,0.0,19.25038909090909,nan,-99.5964197619048,nan,0.0,0.0,9935.7852,0.0,0.0,0.0,0.0
567.0,25.0,30.0,68.0,138.0,125.0,nan,-0.55,-8.02,1.35,4.08,-81.3,130.34,-0.5,0.09,-0.43,-0.7,0.58,-0.3,0.3,1.0,27.9,27.28,0.0747343,0.0,19.25038909090909,nan,-99.5964197619048,nan,0.0,0.0,9935.7852,0.0,0.0,0.0,0.0
593.0,27.0,30.0,67.0,154.0,104.0,nan,-0.67,-7.86,1.06,4.09,-81.37,130.33,-2.88,0.3,-0.22,-0.7,0.58,-0.3,0.3,1.0,27.9,27.28,0.0747343,0.0,19.25038909090909,nan,-99.5964197619048,nan,0.0,0.0,9935.7852,0.0,0.0,0.0,0.0
616.0,26.0,31.0,87.0,136.0,75.0,nan,-0.55,-7.92,1.11,4.08,-81.36,130.33,1.04,-0.12,-0.29,-0.7,0.58,-0.3,0.3,1.0,27.9,27.28,0.0747343,0.0,19.25038909090909,nan,-99.5964197619048,nan,0.0,0.0,9935.7852,0.0,0.0,0.0,0.0
635.0,16.0,30.0,52.0,139.0,111.0,nan,-0.68,-7.91,1.19,4.08,-81.36,130.33,-0.15,0.02,-0.15,-0.7,0.58,-0.3,0.3,1.0,27.9,27.28,0.0747343,0.0,19.25038909090909,nan,-99.5964197619048,nan,0.0,0.0,9935.7852,0.0,0.0,0.0,0.0
658.0,37.0,26.0,78.0,147.0,76.0,nan,-0.58,-7.82,1.09,4.09,-81.37,130.33,-0.01,0.09,0.06,-0.7,0.58,-0.3,0.3,1.0,27.9,27.28,0.0747343,0.0,19.25038909090909,nan,-99.5964197619048,nan,0.0,0.0,9935.7852,0.0,0.0,0.0,0.0
678.0,18.0,30.0,77.0,160.0,103.0,nan,-0.71,-7.89,1.19,4.09,-81.32,130.33,2.37,-0.33,-0.15,-0.7,0.58,-0.3,0.3,1.0,27.9,27.28,0.0747367,0.0,19.25038878787879,nan,-99.5964196825397,nan,0.0,0.0,9935.7852,0.0,0.0,2599.7,0.0
703.0,26.0,31.0,68.0,137.0,76.0,nan,-0.57,-7.83,1.31,4.09,-81.3,130.33,0.62,-0.05,-0.08,-0.7,0.58,-0.3,0.3,1.0,27.9,27.28,0.0747367,0.0,19.25038848484849,nan,-99.59641960317461,nan,0.0,0.0,9935.7852,0.0,0.0,2599.7,0.0
722.0,21.0,21.0,78.0,138.0,103.0,nan,-0.62,-7.81,1.18,4.09,-81.31,130.33,-0.29,0.23,-0.29,-0.7,0.58,-0.3,0.3,1.0,27.9,27.28,0.0747367,0.0,19.250388181818185,nan,-99.59641952380953,nan,0.0,0.0,9935.7852,0.0,0.0,2599.7,0.0
745.0,19.0,30.0,68.0,159.0,110.0,nan,-0.61,-7.85,1.14,4.09,-81.33,130.33,-1.76,0.02,-0.22,-0.7,0.58,-0.3,0.3,1.0,27.9,27.28,0.0747367,0.0,19.250387878787883,nan,-99.59641944444444,nan,0.0,0.0,9935.7852,0.0,0.0,2599.7,0.0
772.0,25.0,26.0,147.0,148.0,110.0,nan,-0.64,-7.85,1.13,4.09,-81.33,130.33,-0.08,0.02,-0.15,-0.7,0.58,-0.3,0.3,1.0,27.9,27.28,0.0747367,0.0,19.25038757575758,nan,-99.59641936507937,nan,0.0,0.0,9935.7852,0.0,0.0,2599.7,0.0
794.0,20.0,31.0,76.0,138.0,111.0,nan,-0.57,-7.94,1.25,4.08,-81.33,130.33,-0.22,0.02,-0.43,-0.7,0.58,-0.3,0.3,1.0,27.9,27.28,0.0747367,0.0,19.25038757575758,nan,-99.59641936507937,nan,0.0,0.0,9935.7852,0.0,0.0,0.0,0.0
814.0,30.0,30.0,77.0,138.0,110.0,nan,-0.66,-7.91,1.07,4.09,-81.38,130.32,-1.9,0.3,-0.15,-0.7,0.58,-0.3,0.3,1.0,27.9,27.28,0.0747367,0.0,19.250387272727277,nan,-99.5964192857143,nan,0.0,0.0,9935.7852,0.0,0.0,2599.7,0.0
837.0,25.0,20.0,77.0,137.0,111.0,nan,-0.57,-7.96,1.12,4.08,-81.35,130.32,1.81,-0.26,-0.22,-0.7,0.58,-0.3,0.3,1.0,27.9,27.28,0.0747367,0.0,19.250386969696972,nan,-99.59641920634921,nan,0.0,0.0,9935.7852,0.0,0.0,2599.7,0.0
856.0,26.0,25.0,77.0,137.0,111.0,nan,-0.68,-7.88,1.22,4.09,-81.34,130.33,0.48,-0.19,-0.01,-0.7,0.58,-0.3,0.3,1.0,27.9,27.28,0.0747367,0.0,19.25038641304348,nan,-99.59641912698415,nan,0.0,0.0,9935.7852,1.0,0.0,2599.7,0.0
879.0,31.0,30.0,67.0,152.0,110.0,nan,-0.53,-7.78,1.06,4.08,-81.36,130.32,-0.64,0.44,-0.22,-0.7,0.58,-0.3,0.3,1.0,27.9,27.28,0.0747367,0.0,19.250386159420295,nan,-99.59641904761907,nan,0.0,0.0,9935.7852,0.0,0.0,2599.7,0.0
899.0,28.0,31.0,108.0,144.0,109.0,nan,-0.71,-7.97,1.28,4.09,-81.33,130.32,1.53,-0.05,-0.22,-0.7,0.58,-0.3,0.3,1.0,27.9,27.28,0.0747367,0.0,19.250385905797106,nan,-99.59641896825397,nan,0.0,0.0,9935.7852,0.0,0.0,2599.7,0.0
921.0,17.0,30.0,119.0,160.0,133.0,nan,-0.55,-7.87,1.19,4.08,-81.35,130.31,-0.92,0.09,-0.15,-0.7,0.58,-0.3,0.3,1.0,27.9,27.28,0.0747367,0.0,19.250385905797106,nan,-99.59641896825397,nan,0.0,0.0,9935.7852,0.0,0.0,0.0,0.0
941.0,32.0,31.0,134.0,146.0,120.0,nan,-0.69,-7.76,1.05,4.09,-81.34,130.31,0.83,0.02,-0.01,-0.7,0.58,-0.3,0.3,1.0,27.9,27.28,0.0747367,0.0,19.250385652173915,nan,-99.59641888888888,nan,0.0,0.0,9935.7852,0.0,0.0,2599.7,0.0
964.0,28.0,29.0,147.0,154.0,111.0,nan,-0.68,-7.8,1.11,4.1,-81.34,130.31,-2.39,0.23,-0.22,-0.7,0.58,-0.3,0.3,1.0,27.9,27.28,0.0747367,0.0,19.250385398550723,nan,-99.59641880952384,nan,0.0,0.0,9935.7852,0.0,0.0,2599.7,0.0
990.0,27.0,32.0,109.0,137.0,75.0,nan,-0.55,-7.91,1.24,4.09,-81.3,130.32,2.09,-0.26,-0.15,-0.7,0.58,-0.3,0.3,1.0,27.9,27.28,0.0747367,0.0,19.250385144927538,nan,-99.59641873015875,nan,0.0,0.0,9935.7852,0.0,0.0,2599.7,0.0
1013.0,19.0,29.0,52.0,124.0,101.0,nan,-0.65,-7.94,1.29,4.09,-81.3,130.32,-0.36,0.02,-0.22,-0.7,0.58,-0.3,0.3,1.0,27.9,27.28,0.0747367,0.0,19.25038489130435,nan,-99.59641865079367,nan,0.0,0.0,9935.7852,0.0,0.0,2599.1,0.0
1032.0,17.0,30.0,67.0,136.0,104.0,nan,-0.56,-7.85,1.14,4.09,-81.33,130.31,-1.13,0.37,-0.08,-0.7,0.58,-0.3,0.3,1.0,27.9,27.28,0.0747367,0.0,19.250384637681165,nan,-99.59641857142857,nan,0.0,0.0,9935.7852,0.0,0.0,2599.1,0.0
1055.0,17.0,30.0,52.0,138.0,118.0,nan,-0.63,-8.0,1.29,4.08,-81.29,130.31,1.32,-0.26,-0.43,-0.7,0.58,-0.3,0.3,1.0,27.9,27.28,0.0747367,0.0,19.250384637681165,nan,-99.59641857142857,nan,0.0,0.0,9935.7852,0.0,0.0,0.0,0.0
1075.0,25.0,28.0,87.0,139.0,110.0,nan,-0.62,-7.88,1.19,4.09,-81.35,130.31,-2.67,0.3,-0.08,-0.7,0.58,-0.3,0.3,1.0,27.9,27.28,0.0747367,0.0,19.250384384057973,nan,-99.59641849206348,nan,0.0,0.0,9935.7852,0.0,0.0,2599.1,0.0
1098.0,16.0,31.0,77.0,139.0,111.0,nan,-0.62,-7.83,0.97,4.09,-81.37,130.3,-0.22,0.23,-0.22,-0.7,0.58,-0.3,0.3,1.0,27.9,27.28,0.0747367,0.0,19.25038413043479,nan,-99.59641841269841,nan,0.0,0.0,9935.7852,0.0,0.0,2599.1,0.0
1117.0,17.0,30.0,108.0,138.0,109.0,nan,-0.73,-8.0,1.31,4.09,-81.34,130.3,1.25,-0.19,-0.15,-0.7,0.58,-0.3,0.3,1.0,27.9,27.28,0.0747367,0.0,19.250383876811597,nan,-99.59641833333335,nan,0.0,0.0,9935.7852,0.0,0.0,2599.1,0.0
1140.0,24.0,26.0,79.0,131.0,111.0,nan,-0.72,-7.89,1.17,4.1,-81.34,130.3,2.37,-0.26,-0.08,-0.7,0.58,-0.3,0.3,1.0,27.9,27.26,0.0747425,0.0,19.25038362318841,nan,-99.59641825396827,nan,0.0,0.0,9935.7852,0.0,0.0,2599.1,0.0
1172.0,30.0,29.0,136.0,139.0,110.0,nan,-0.6,-7.93,1.28,4.1,-81.33,130.3,0.2,0.02,-0.22,-0.7,0.58,-0.3,0.3,1.0,27.9,27.26,0.0747425,0.0,19.250383369565217,nan,-99.59641817460317,nan,0.0,0.0,9935.7852,0.0,0.0,2599.1,0.0
1191.0,37.0,26.0,73.0,132.0,111.0,nan,-0.72,-7.79,1.07,4.11,-81.33,130.3,0.13,-0.05,0.06,-0.7,0.58,-0.3,0.3,1.0,27.9,27.26,0.0747425,0.0,19.250383115942032,nan,-99.5964180952381,nan,0.0,0.0,9935.7852,0.0,0.0,2599.1,0.0
1214.0,26.0,30.0,53.0,124.0,123.0,nan,-0.57,-7.96,1.34,4.1,-81.27,130.31,2.51,-0.4,-0.36,-0.7,0.58,-0.3,0.3,1.0,27.9,27.26,0.0747425,0.0,19.25038286231884,nan,-99.59641801587301,nan,0.0,0.0,9935.7852,0.0,0.0,2599.1,0.0
1234.0,26.0,31.0,107.0,139.0,112.0,nan,-0.65,-7.81,1.24,4.11,-81.3,130.31,-1.55,0.23,-0.08,-0.7,0.58,-0.3,0.3,1.0,27.9,27.26,0.0747425,0.0,19.25038286231884,nan,-99.59641801587301,nan,0.0,0.0,9935.7852,0.0,0.0,0.0,0.0
1257.0,25.0,20.0,77.0,154.0,110.0,nan,-0.5,-7.87,1.21,4.1,-81.28,130.3,0.9,0.02,-0.22,-0.7,0.58,-0.3,0.3,1.0,27.9,27.26,0.0747425,0.0,19.250382608695652,nan,-99.59641793650793,nan,0.0,0.0,9935.7852,0.0,0.0,2599.1,0.0
1276.0,31.0,25.0,67.0,138.0,111.0,nan,-0.67,-7.99,1.38,4.1,-81.24,130.31,1.32,-0.26,-0.15,-0.7,0.58,-0.3,0.3,1.0,27.9,27.26,0.0747425,0.0,19.250382355072468,nan,-99.59641785714288,nan,0.0,0.0,9935.7852,0.0,0.0,2599.1,0.0
1299.0,27.0,30.0,77.0,154.0,110.0,nan,-0.61,-7.9,1.29,4.09,-81.24,130.31,0.27,0.16,-0.36,-0.7,0.58,-0.3,0.3,1.0,27.9,27.26,0.0747425,0.0,19.250382101449276,nan,-99.5964177777778,nan,0.0,0.0,9935.7852,0.0,0.0,2599.1,0.0
1326.0,26.0,30.0,77.0,139.0,110.0,nan,-0.61,-7.9,1.29,4.09,-81.24,130.31,0.0,0.0,0.0,-0.7,0.58,-0.3,0.3,1.0,27.9,27.26,0.0747425,0.0,19.25038184782609,nan,-99.59641769841271,nan,0.0,0.0,9935.7852,0.0,0.0,2599.1,0.0
1343.0,37.0,26.0,78.0,154.0,98.0,nan,-0.61,-7.85,1.1,4.08,-81.3,130.3,-1.62,0.23,-0.22,-0.7,0.58,-0.3,0.3,1.0,27.9,27.26,0.0747425,0.0,19.2503815942029,nan,-99.59641761904761,nan,0.0,0.0,9935.7852,0.0,0.0,2599.1,0.0
1368.0,27.0,30.0,71.0,154.0,109.0,nan,-0.6,-7.95,1.28,4.08,-81.29,130.3,0.27,-0.05,-0.15,-0.7,0.58,-0.3,0.3,1.0,27.9,27.26,0.0747425,0.0,19.25038134057971,nan,-99.59641753968253,nan,0.0,0.0,9935.7852,0.0,0.0,2599.1,0.0
1391.0,31.0,17.0,41.0,124.0,109.0,nan,-0.61,-7.85,1.13,4.07,-81.36,130.29,-2.74,0.37,-0.29,-0.7,0.58,-0.3,0.3,1.0,27.9,27.26,0.0747425,0.0,19.25038134057971,nan,-99.59641753968253,nan,0.0,0.0,9935.7852,0.0,0.0,0.0,0.0
1410.0,38.0,31.0,118.0,135.0,110.0,nan,-0.64,-7.86,1.01,4.08,-81.4,130.28,-1.48,0.23,-0.15,-0.7,0.58,-0.3,0.3,1.0,27.9,27.26,0.0747425,0.0,19.250381086956526,nan,-99.59641746031747,nan,0.0,0.0,9935.7852,0.0,0.0,2599.1,0.0
1433.0,27.0,19.0,134.0,154.0,110.0,nan,-0.69,-7.98,1.13,4.08,-81.39,130.29,0.48,-0.19,-0.29,-0.7,0.58,-0.3,0.3,1.0,27.9,27.26,0.0747425,0.0,19.250380833333335,nan,-99.5964173809524,nan,0.0,0.0,9935.7852,0.0,0.0,2599.1,0.0
1453.0,30.0,29.0,40.0,137.0,111.0,nan,-0.71,-7.78,0.98,4.09,-81.43,130.28,-1.2,0.09,-0.01,-0.7,0.58,-0.3,0.3,1.0,27.9,27.26,0.0747425,0.0,19.250380579710143,nan,-99.59641730158731,nan,0.0,0.0,9935.7852,0.0,0.0,2599.1,0.0
1475.0,30.0,30.0,134.0,156.0,111.0,nan,-0.7,-7.84,1.04,4.1,-81.42,130.28,1.11,-0.05,-0.15,-0.7,0.58,-0.3,0.3,1.0,27.9,27.26,0.0747425,0.0,19.250380326086958,nan,-99.59641722222221,nan,0.0,0.0,9935.7852,0.0,0.0,2599.1,0.0
1495.0,29.0,27.0,39.0,138.0,111.0,nan,-0.77,-7.92,1.17,4.11,-81.41,130.29,0.76,-0.26,-0.15,-0.7,0.58,-0.3,0.3,1.0,27.9,27.26,0.0747425,0.0,19.25038007246377,nan,-99.59641714285715,nan,0.0,0.0,9935.7852,0.0,0.0,2599.1,0.0
1518.0,32.0,30.0,76.0,138.0,111.0,nan,-0.78,-7.86,1.14,4.12,-81.37,130.29,2.23,-0.19,-0.15,-0.7,0.58,-0.3,0.3,1.0,27.9,27.26,0.0747425,0.0,19.25038007246377,nan,-99.59641714285715,nan,0.0,0.0,9935.7852,0.0,0.0,0.0,0.0
1544.0,26.0,30.0,77.0,154.0,111.0,nan,-0.78,-7.86,1.14,4.12,-81.37,130.29,0.0,0.0,0.0,-0.7,0.58,-0.3,0.3,1.0,27.9,27.26,0.0747425,0.0,19.250379818840585,nan,-99.59641706349207,nan,0.0,0.0,9935.7852,0.0,0.0,2599.1,0.0
1561.0,21.0,30.0,52.0,138.0,124.0,nan,-0.62,-7.87,1.13,4.11,-81.35,130.29,-0.15,0.02,-0.29,-0.7,0.58,-0.3,0.3,1.0,27.9,27.26,0.0747425,0.0,19.250379565217393,nan,-99.596416984127,nan,0.0,0.0,9935.7852,0.0,0.0,2599.1,0.0
1586.0,26.0,31.0,67.0,138.0,112.0,nan,-0.42,-8.02,1.37,4.09,-81.29,130.3,2.37,-0.47,-0.36,-0.7,0.58,-0.3,0.3,1.0,27.9,27.26,0.0747425,0.0,19.25037931159421,nan,-99.59641690476194,nan,0.0,0.0,9935.7852,0.0,0.0,2599.1,0.0
1609.0,25.0,19.0,77.0,166.0,136.0,nan,-0.49,-7.91,1.29,4.09,-81.3,130.29,-0.5,0.09,-0.15,-0.7,0.58,-0.3,0.3,1.0,27.87,27.25,0.0747467,0.0,19.250379057971017,nan,-99.59641682539684,nan,0.0,0.0,9935.7852,0.0,0.0,2599.1,0.0
1631.0,38.0,26.0,82.0,169.0,125.0,nan,-0.33,-7.92,1.22,4.07,-81.3,130.29,-0.29,0.23,-0.15,-0.7,0.58,-0.3,0.3,1.0,27.87,27.25,0.0747467,0.0,19.25037880434783,nan,-99.59641674603175,nan,0.0,0.0,9935.7852,0.0,0.0,2599.1,0.0
1654.0,26.0,30.0,97.0,134.0,110.0,nan,-0.49,-7.96,1.35,4.06,-81.28,130.29,0.48,0.02,-0.22,-0.7,0.58,-0.3,0.3,1.0,27.87,27.25,0.0747467,0.0,19.25037880434783,nan,-99.59641674603175,nan,0.0,0.0,9935.7852,0.0,0.0,0.0,0.0
1673.0,26.0,18.0,67.0,161.0,110.0,nan,-0.41,-7.77,1.18,4.05,-81.32,130.28,-1.69,0.37,-0.01,-0.7,0.58,-0.3,0.3,1.0,27.87,27.25,0.0747467,0.0,19.250378550724637,nan,-99.59641666666667,nan,0.0,0.0,9935.7852,0.0,0.0,2599.1,0.0
1696.0,26.0,18.0,77.0,160.0,108.0,nan,-0.64,-7.89,1.42,4.06,-81.27,130.28,0.06,-0.05,0.2,-0.7,0.58,-0.3,0.3,1.0,27.87,27.25,0.0747467,0.0,19.250378297101452,nan,-99.59641658730158,nan,0.0,0.0,9935.7852,0.0,0.0,2599.1,0.0
1723.0,26.0,30.0,77.0,139.0,110.0,nan,-0.64,-7.89,1.42,4.06,-81.27,130.28,0.0,0.0,0.0,-0.7,0.58,-0.3,0.3,1.0,27.87,27.25,0.0747467,0.0,19.25037804347826,nan,-99.59641650793654,nan,0.0,0.0,9935.7852,0.0,0.0,2599.1,0.0
1740.0,19.0,31.0,88.0,139.0,110.0,nan,-0.81,-7.94,1.3,4.09,-81.29,130.28,0.2,-0.19,-0.15,-0.7,0.58,-0.3,0.3,1.0,27.87,27.25,0.0747467,0.0,19.250377789855072,nan,-99.59641642857144,nan,0.0,0.0,9935.7852,0.0,0.0,2599.1,0.0
1765.0,17.0,30.0,67.0,137.0,111.0,nan,-0.8,-7.9,1.15,4.1,-81.37,130.27,-3.58,0.37,-0.36,-0.7,0.58,-0.3,0.3,1.0,27.87,27.25,0.0747467,0.0,19.250377536231888,nan,-99.59641634920635,nan,0.0,0.0,9935.7852,0.0,0.0,2599.1,0.0
1788.0,27.0,31.0,77.0,162.0,126.0,nan,-0.8,-7.91,0.91,4.11,-81.43,130.27,-2.04,0.09,-0.29,-0.7,0.58,-0.3,0.3,1.0,27.87,27.25,0.0747467,0.0,19.250377282608696,nan,-99.59641626984127,nan,0.0,0.0,9935.7852,0.0,0.0,2599.1,0.0
1807.0,29.0,21.0,87.0,155.0,110.0,nan,-0.74,-8.05,1.12,4.11,-81.43,130.27,0.55,-0.33,-0.43,-0.7,0.58,-0.3,0.3,1.0,27.87,27.25,0.0747467,0.0,19.250377282608696,nan,-99.59641626984127,nan,0.0,0.0,9935.7852,0.0,0.0,0.0,0.0
1830.0,27.0,31.0,68.0,125.0,111.0,nan,-0.65,-7.8,0.87,4.12,-81.47,130.27,-1.2,0.23,-0.15,-0.7,0.58,-0.3,0.3,1.0,27.87,27.25,0.0747467,0.0,19.25037702898551,nan,-99.5964161904762,nan,0.0,0.0,9935.7852,0.0,0.0,2599.1,0.0
1849.0,18.0,31.0,55.0,155.0,104.0,nan,-0.5,-7.87,1.13,4.11,-81.4,130.27,3.91,-0.33,-0.22,-0.7,0.58,-0.3,0.3,1.0,27.87,27.25,0.0747467,0.0,19.25037677536232,nan,-99.59641611111111,nan,0.0,0.0,9935.7852,0.0,0.0,2599.1,0.0
1872.0,17.0,25.0,136.0,137.0,75.0,nan,-0.55,-7.84,1.32,4.1,-81.36,130.27,1.53,-0.05,-0.15,-0.7,0.58,-0.3,0.3,1.0,27.87,27.25,0.0747467,0.0,19.25037652173913,nan,-99.59641603174605,nan,0.0,0.0,9935.7852,0.0,0.0,2599.1,0.0
1892.0,16.0,27.0,39.0,139.0,103.0,nan,-0.37,-7.82,1.26,4.08,-81.35,130.27,0.06,0.16,-0.22,-0.7,0.58,-0.3,0.3,1.0,27.87,27.25,0.0747467,0.0,19.250376268115946,nan,-99.59641595238095,nan,0.0,0.0,9935.7852,0.0,0.0,2599.1,0.0
1915.0,19.0,31.0,98.0,137.0,109.0,nan,-0.47,-7.98,1.07,4.07,-81.46,130.26,-4.77,0.51,-0.29,-0.7,0.58,-0.3,0.3,1.0,27.87,27.25,0.0747467,0.0,19.250376014492755,nan,-99.59641587301589,nan,0.0,0.0,9935.7852,0.0,0.0,2599.1,0.0
1941.0,27.0,30.0,82.0,133.0,111.0,nan,-0.47,-7.98,1.07,4.07,-81.46,130.26,0.0,0.0,0.0,-0.7,0.58,-0.3,0.3,1.0,27.87,27.25,0.0747467,0.0,19.250376014492755,nan,-99.59641587301589,nan,0.0,0.0,9935.7852,0.0,0.0,0.0,0.0
1958.0,27.0,31.0,135.0,155.0,110.0,nan,-0.64,-8.04,1.05,4.08,-81.51,130.25,0.55,-0.05,0.06,-0.7,0.58,-0.3,0.3,1.0,27.87,27.25,0.0747467,0.0,19.250375760869563,nan,-99.5964157936508,nan,0.0,0.0,9935.7852,0.0,0.0,2599.1,0.0
1983.0,26.0,18.0,109.0,138.0,110.0,nan,-0.74,-7.73,0.79,4.1,-81.52,130.25,0.83,0.09,0.27,-0.7,0.58,-0.3,0.3,1.0,27.87,27.25,0.0747467,0.0,19.250375507246375,nan,-99.59641571428571,nan,0.0,0.0,9935.7852,0.0,0.0,2599.1,0.0
2007.0,30.0,21.0,59.0,134.0,111.0,nan,-0.7,-7.84,1.16,4.11,-81.37,130.26,7.06,-0.68,0.48,-0.7,0.58,-0.3,0.3,1.0,27.87,27.25,0.0747467,0.0,19.25037525362319,nan,-99.59641563492062,nan,0.0,0.0,9935.7852,0.0,0.0,2599.1,0.0
2026.0,17.0,27.0,157.0,134.0,110.0,nan,-0.79,-7.69,1.47,4.14,-81.22,130.28,6.57,-0.68,0.41,-0.7,0.58,-0.3,0.3,1.0,27.87,27.25,0.0747467,0.0,19.250374914529914,nan,-99.59641555555558,nan,0.0,0.0,9935.7852,1.0,0.0,2599.1,0.0
2048.0,27.0,30.0,138.0,156.0,111.0,nan,-0.67,-7.6,1.63,4.15,-81.08,130.29,5.31,-0.33,0.2,-0.7,0.58,-0.3,0.3,1.0,27.87,27.25,0.0747467,0.0,19.25037482905983,nan,-99.59641547619049,nan,0.0,0.0,9935.7852,0.0,0.0,2599.1,0.0
2068.0,38.0,30.0,156.0,132.0,109.0,nan,-0.73,-7.82,1.98,4.15,-80.94,130.3,4.26,-0.4,-0.15,-0.7,0.58,-0.3,0.3,1.0,27.9,27.24,0.0747482,0.0,19.250374743589745,nan,-99.5964153968254,nan,0.0,0.0,9935.7852,0.0,0.0,2599.1,0.0
2094.0,37.0,26.0,103.0,137.0,111.0,nan,-0.65,-7.81,1.92,4.15,-80.94,130.3,-2.53,0.16,-0.43,-0.7,0.58,-0.3,0.3,1.0,27.9,27.24,0.0747482,0.0,19.250374743589745,nan,-99.5964153968254,nan,0.0,0.0,9935.7852,0.0,0.0,0.0,0.0
2113.0,31.0,30.0,119.0,154.0,104.0,nan,-0.63,-7.9,1.65,4.14,-81.02,130.29,-4.98,0.3,-0.92,-0.7,0.58,-0.3,0.3,1.0,27.9,27.24,0.0747482,0.0,19.25037465811966,nan,-99.59641531746031,nan,0.0,0.0,9935.7852,0.0,0.0,2599.1,0.0
2136.0,27.0,31.0,89.0,137.0,109.0,nan,-0.39,-8.02,0.92,4.08,-81.43,130.25,-11.49,1.07,-1.27,-0.7,0.58,-0.3,0.3,1.0,27.9,27.24,0.0747482,0.0,19.250374572649577,nan,-99.59641523809525,nan,0.0,0.0,9935.7852,0.0,0.0,2599.1,0.0
2162.0,29.0,31.0,136.0,149.0,110.0,nan,-0.49,-8.1,0.57,4.06,-81.61,130.24,-6.87,0.44,-0.71,-0.7,0.58,-0.3,0.3,1.0,27.9,27.24,0.0747482,0.0,19.250374487179485,nan,-99.59641515873015,nan,0.0,0.0,9935.7852,0.0,0.0,2599.1,0.0
2185.0,29.0,30.0,77.0,157.0,110.0,nan,-0.37,-8.04,0.53,4.04,-81.72,130.23,-2.88,0.02,-0.5,-0.7,0.58,-0.3,0.3,1.0,27.9,27.24,0.0747482,0.0,19.2503744017094,nan,-99.59641507936509,nan,0.0,0.0,9935.7852,0.0,0.0,2599.1,0.0
2204.0,30.0,29.0,135.0,155.0,111.0,nan,-0.5,-7.85,0.35,4.03,-81.79,130.22,-0.5,0.23,0.06,-0.7,0.58,-0.3,0.3,1.0,27.9,27.24,0.0747482,0.0,19.250374316239316,nan,-99.59641500000001,nan,0.0,0.0,9935.7852,0.0,0.0,2600.0,0.0
2227.0,31.0,30.0,109.0,137.0,109.0,nan,-0.53,-7.91,0.69,4.04,-81.73,130.23,4.47,-0.19,0.2,-0.7,0.58,-0.3,0.3,1.0,27.9,27.24,0.0747482,0.0,19.250374230769232,nan,-99.59641492063494,nan,0.0,0.0,9935.7852,0.0,0.0,2600.0,0.0
2247.0,30.0,30.0,52.0,137.0,111.0,nan,-0.72,-7.78,0.87,4.06,-81.64,130.23,5.59,-0.4,0.48,-0.7,0.58,-0.3,0.3,1.0,27.9,27.24,0.0747482,0.0,19.250374230769232,nan,-99.59641492063494,nan,0.0,0.0,9935.7852,0.0,0.0,0.0,0.0
2270.0,18.0,17.0,78.0,155.0,110.0,nan,-0.75,-7.73,1.12,4.08,-81.5,130.25,6.85,-0.47,0.48,-0.7,0.58,-0.3,0.3,1.0,27.9,27.24,0.0747482,0.0,19.250374145299144,nan,-99.59641484126985,nan,0.0,0.0,9935.7852,0.0,0.0,2600.0,0.0
2289.0,17.0,30.0,108.0,165.0,124.0,nan,-0.91,-7.8,1.37,4.11,-81.37,130.25,5.52,-0.33,0.27,-0.7,0.58,-0.3,0.3,1.0,27.9,27.24,0.0747482,0.0,19.250374059829063,nan,-99.59641476190475,nan,0.0,0.0,9935.7852,0.0,0.0,2600.0,0.0
2312.0,18.0,30.0,88.0,147.0,109.0,nan,-0.81,-7.83,1.49,4.12,-81.33,130.25,0.97,0.09,-0.08,-0.7,0.58,-0.3,0.3,1.0,27.9,27.24,0.0747482,0.0,19.250373974358975,nan,-99.59641468253967,nan,0.0,0.0,9935.7852,0.0,0.0,2600.0,0.0
2331.0,38.0,26.0,77.0,140.0,110.0,nan,-0.86,-7.89,1.3,4.14,-81.32,130.25,0.13,0.02,-0.29,-0.7,0.58,-0.3,0.3,1.0,27.9,27.24,0.0747482,0.0,19.25037388888889,nan,-99.59641460317462,nan,0.0,0.0,9935.7852,0.0,0.0,2600.0,0.0
2355.0,27.0,30.0,65.0,132.0,111.0,nan,-0.56,-7.85,1.22,4.13,-81.33,130.25,-1.55,0.23,-0.29,-0.7,0.58,-0.3,0.3,1.0,27.9,27.24,0.0747482,0.0,19.250373803418807,nan,-99.59641452380954,nan,0.0,0.0,9935.7852,0.0,0.0,2600.0,0.0
2381.0,27.0,18.0,83.0,161.0,110.0,nan,-0.42,-7.93,1.24,4.11,-81.3,130.25,0.97,0.02,-0.15,-0.7,0.58,-0.3,0.3,1.0,27.9,27.24,0.0747482,0.0,19.250373717948722,nan,-99.59641444444445,nan,0.0,0.0,9935.7852,0.0,0.0,2600.0,0.0
2403.0,31.0,29.0,146.0,141.0,111.0,nan,-0.43,-7.94,1.39,4.1,-81.25,130.26,2.09,-0.33,-0.15,-0.7,0.58,-0.3,0.3,1.0,27.9,27.24,0.0747482,0.0,19.250373717948722,nan,-99.59641444444445,nan,0.0,0.0,9935.7852,0.0,0.0,0.0,0.0
2423.0,31.0,29.0,40.0,155.0,110.0,nan,-0.34,-7.82,1.32,4.08,-81.24,130.26,0.27,0.09,-0.01,-0.7,0.58,-0.3,0.3,1.0,27.9,27.24,0.0747482,0.0,19.25037363247863,nan,-99.59641436507935,nan,0.0,0.0,9935.7852,0.0,0.0,2600.0,0.0
2447.0,27.0,30.0,110.0,138.0,112.0,nan,-0.46,-7.97,1.5,4.07,-81.19,130.26,1.46,-0.12,-0.15,-0.7,0.58,-0.3,0.3,1.0,27.9,27.24,0.0747482,0.0,19.250373547008554,nan,-99.59641428571429,nan,0.0,0.0,9935.7852,0.0,0.0,2600.0,0.0
2465.0,29.0,25.0,78.0,153.0,124.0,nan,-0.57,-7.9,1.43,4.07,-81.22,130.26,-2.11,0.09,0.06,-0.7,0.58,-0.3,0.3,1.0,27.9,27.24,0.0747482,0.0,19.250373461538462,nan,-99.59641420634922,nan,0.0,0.0,9935.7852,0.0,0.0,2600.0,0.0
2488.0,31.0,30.0,119.0,134.0,110.0,nan,-0.66,-7.84,1.21,4.08,-81.24,130.25,-1.41,0.16,-0.15,-0.7,0.58,-0.3,0.3,1.0,27.9,27.24,0.0747482,0.0,19.250373376068378,nan,-99.59641412698414,nan,0.0,0.0,9935.7852,0.0,0.0,2600.0,0.0
2508.0,26.0,30.0,63.0,117.0,110.0,nan,-0.78,-7.91,1.36,4.09,-81.25,130.26,-0.64,-0.12,-0.22,-0.7,0.58,-0.3,0.3,1.0,27.9,27.24,0.0747482,0.0,19.250373376068378,nan,-99.59641412698414,nan,0.0,0.0,9935.7852,0.0,0.0,0.0,0.0
2532.0,38.0,27.0,88.0,124.0,112.0,nan,-0.86,-7.91,1.03,4.11,-81.36,130.24,-0.78,0.02,-0.22,-0.7,0.58,-0.3,0.3,1.0,27.88,27.29,0.0747433,0.0,19.250373290598294,nan,-99.59641404761905,nan,0.0,0.0,9935.7852,0.0,0.0,2600.0,0.0
2563.0,25.0,29.0,83.0,126.0,75.0,nan,-0.78,-7.93,1.16,4.12,-81.37,130.25,-0.29,-0.26,-0.29,-0.7,0.58,-0.3,0.3,1.0,27.88,27.29,0.0747433,0.0,19.25037320512821,nan,-99.59641396825398,nan,0.0,0.0,9935.7852,0.0,0.0,2600.0,0.0
2582.0,31.0,29.0,147.0,137.0,103.0,nan,-0.74,-7.67,0.88,4.13,-81.43,130.24,-1.76,0.37,-0.15,-0.7,0.58,-0.3,0.3,1.0,27.88,27.29,0.0747433,0.0,19.250373119658118,nan,-99.59641388888889,nan,0.0,0.0,9935.7852,0.0,0.0,2600.0,0.0
2605.0,27.0,20.0,109.0,138.0,111.0,nan,-0.59,-7.91,1.2,4.12,-81.4,130.24,1.67,-0.05,-0.43,-0.7,0.58,-0.3,0.3,1.0,27.88,27.29,0.0747433,0.0,19.250373034188033,nan,-99.59641380952381,nan,0.0,0.0,9935.7852,0.0,0.0,2600.0,0.0
2625.0,19.0,29.0,77.0,140.0,110.0,nan,-0.64,-7.91,1.13,4.12,-81.43,130.24,-1.41,0.02,-0.36,-0.7,0.58,-0.3,0.3,1.0,27.88,27.29,0.0747433,0.0,19.25037294871795,nan,-99.59641373015874,nan,0.0,0.0,9935.7852,0.0,0.0,2600.0,0.0
2648.0,31.0,29.0,137.0,159.0,125.0,nan,-0.47,-7.84,1.0,4.11,-81.44,130.24,0.27,-0.05,-0.29,-0.7,0.58,-0.3,0.3,1.0,27.88,27.29,0.0747433,0.0,19.250372863247865,nan,-99.59641365079368,nan,0.0,0.0,9935.7852,0.0,0.0,2600.0,0.0
2667.0,27.0,26.0,87.0,155.0,111.0,nan,-0.59,-7.93,1.19,4.1,-81.41,130.24,1.39,-0.19,-0.29,-0.7,0.58,-0.3,0.3,1.0,27.88,27.29,0.0747433,0.0,19.25037277777778,nan,-99.59641357142858,nan,0.0,0.0,9935.7852,0.0,0.0,2600.0,0.0
2690.0,28.0,31.0,108.0,159.0,126.0,nan,-0.55,-7.97,1.02,4.08,-81.45,130.23,0.97,-0.05,-0.36,-0.7,0.58,-0.3,0.3,1.0,27.88,27.29,0.0747433,0.0,19.25037277777778,nan,-99.59641357142858,nan,0.0,0.0,9935.7852,0.0,0.0,0.0,0.0
2717.0,30.0,30.0,77.0,134.0,109.0,nan,-0.49,-8.03,1.23,4.07,-81.41,130.23,1.67,-0.33,-0.01,-0.7,0.58,-0.3,0.3,1.0,27.88,27.29,0.0747433,0.0,19.250372692307693,nan,-99.59641349206349,nan,0.0,0.0,9935.7852,0.0,0.0,2600.0,0.0
2739.0,17.0,26.0,67.0,137.0,125.0,nan,-0.6,-7.81,1.04,4.08,-81.41,130.23,0.55,0.09,0.13,-0.7,0.58,-0.3,0.3,1.0,27.88,27.29,0.0747433,0.0,19.250372606837608,nan,-99.59641341269841,nan,0.0,0.0,9935.7852,0.0,0.0,2600.0,0.0
2758.0,27.0,31.0,67.0,134.0,111.0,nan,-0.61,-7.94,1.3,4.08,-81.33,130.24,3.49,-0.26,0.13,-0.7,0.58,-0.3,0.3,1.0,27.88,27.29,0.0747433,0.0,19.250372521367524,nan,-99.59641333333332,nan,0.0,0.0,9935.7852,0.0,0.0,2600.0,0.0
2781.0,26.0,30.0,59.0,139.0,97.0,nan,-0.68,-7.82,1.34,4.08,-81.31,130.24,0.69,-0.05,-0.15,-0.7,0.58,-0.3,0.3,1.0,27.88,27.29,0.0747433,0.0,19.25037243589744,nan,-99.59641325396828,nan,0.0,0.0,9935.7852,0.0,0.0,2600.0,0.0
2802.0,27.0,32.0,77.0,139.0,124.0,nan,-0.6,-7.78,1.28,4.09,-81.29,130.24,0.48,0.02,-0.01,-0.7,0.58,-0.3,0.3,1.0,27.88,27.29,0.0747433,0.0,19.250372350427355,nan,-99.59641317460319,nan,0.0,0.0,9935.7852,0.0,0.0,2600.0,0.0
2824.0,37.0,26.0,77.0,133.0,111.0,nan,-0.7,-7.97,1.45,4.09,-81.24,130.24,1.67,-0.12,-0.08,-0.7,0.58,-0.3,0.3,1.0,27.88,27.29,0.0747433,0.0,19.250372350427355,nan,-99.59641317460319,nan,0.0,0.0,9935.7852,0.0,0.0,0.0,0.0
2843.0,26.0,30.0,66.0,157.0,110.0,nan,-0.69,-7.81,1.31,4.11,-81.26,130.24,-1.13,0.09,0.13,-0.7,0.58,-0.3,0.3,1.0,27.88,27.29,0.0747433,0.0,19.25037226495727,nan,-99.59641309523809,nan,0.0,0.0,9935.7852,0.0,0.0,2600.0,0.0
2866.0,17.0,30.0,124.0,124.0,109.0,nan,-0.71,-7.81,1.28,4.11,-81.24,130.24,0.48,-0.05,-0.15,-0.7,0.58,-0.3,0.3,1.0,27.88,27.29,0.0747433,0.0,19.25037217948718,nan,-99.59641301587303,nan,0.0,0.0,9935.7852,0.0,0.0,2600.0,0.0
2887.0,21.0,19.0,110.0,143.0,110.0,nan,-0.69,-7.91,1.39,4.11,-81.26,130.24,-1.34,0.16,-0.36,-0.7,0.58,-0.3,0.3,1.0,27.88,27.29,0.0747433,0.0,19.250372094017095,nan,-99.59641293650795,nan,0.0,0.0,9935.7852,0.0,0.0,2600.0,0.0
2909.0,28.0,31.0,68.0,136.0,117.0,nan,-0.7,-8.02,1.16,4.11,-81.33,130.23,-0.15,-0.05,-0.22,-0.7,0.58,-0.3,0.3,1.0,27.88,27.29,0.0747433,0.0,19.25037200854701,nan,-99.59641285714285,nan,0.0,0.0,9935.7852,0.0,0.0,2600.0,0.0
2935.0,37.0,30.0,51.0,139.0,109.0,nan,-0.58,-7.99,1.17,4.11,-81.35,130.23,-0.5,-0.19,-0.15,-0.7,0.58,-0.3,0.3,1.0,27.88,27.29,0.0747433,0.0,19.250371923076926,nan,-99.59641277777779,nan,0.0,0.0,9935.7852,0.0,0.0,2600.0,0.0
2958.0,31.0,17.0,67.0,154.0,76.0,nan,-0.65,-7.73,0.95,4.11,-81.4,130.22,-1.76,0.23,-0.22,-0.7,0.58,-0.3,0.3,1.0,27.88,27.29,0.0747433,0.0,19.250371837606835,nan,-99.59641269841272,nan,0.0,0.0,9935.7852,0.0,0.0,2600.0,0.0
2978.0,18.0,27.0,87.0,125.0,102.0,nan,-0.52,-7.87,1.17,4.1,-81.38,130.22,0.9,0.02,-0.5,-0.7,0.58,-0.3,0.3,1.0,27.88,27.29,0.0747433,0.0,19.250371752136758,nan,-99.59641261904763,nan,0.0,0.0,9935.7852,0.0,0.0,2600.0,0.0
3000.0,17.0,28.0,66.0,137.0,98.0,nan,-0.66,-7.86,1.13,4.1,-81.4,130.22,-0.5,0.02,-0.15,-0.7,0.58,-0.3,0.3,1.0,27.9,27.24,0.0747425,0.0,19.250371752136758,nan,-99.59641261904763,nan,0.0,0.0,9935.7852,0.0,0.0,0.0,0.0
3022.0,18.0,27.0,147.0,133.0,119.0,nan,-0.53,-7.82,1.11,4.1,-81.36,130.22,1.95,-0.26,-0.15,-0.7,0.58,-0.3,0.3,1.0,27.9,27.24,0.0747425,0.0,19.250371623931624,nan,-99.59641253968255,nan,0.0,0.0,9935.7852,1.0,0.0,2600.0,0.0
3045.0,17.0,30.0,92.0,137.0,97.0,nan,-0.72,-7.9,1.33,4.11,-81.31,130.23,2.37,-0.4,0.06,-0.7,0.58,-0.3,0.3,1.0,27.9,27.24,0.0747425,0.0,19.250371581196582,nan,-99.59641246031745,nan,0.0,0.0,9935.7852,0.0,0.0,2600.0,0.0
3065.0,27.0,26.0,136.0,134.0,125.0,nan,-0.55,-7.85,1.27,4.1,-81.32,130.23,-1.06,0.23,-0.08,-0.7,0.58,-0.3,0.3,1.0,27.9,27.24,0.0747425,0.0,19.25037153846154,nan,-99.59641238095236,nan,0.0,0.0,9935.7852,0.0,0.0,2600.0,0.0
3087.0,27.0,31.0,77.0,158.0,123.0,nan,-0.52,-7.98,1.36,4.09,-81.34,130.23,-0.5,-0.05,-0.43,-0.7,0.58,-0.3,0.3,1.0,27.9,27.24,0.0747425,0.0,19.250371495726498,nan,-99.59641230158732,nan,0.0,0.0,9935.7852,0.0,0.0,2600.0,0.0
3113.0,26.0,30.0,52.0,133.0,111.0,nan,-0.52,-7.98,1.36,4.09,-81.34,130.23,0.0,0.0,0.0,-0.7,0.58,-0.3,0.3,1.0,27.9,27.24,0.0747425,0.0,19.250371452991455,nan,-99.59641222222223,nan,0.0,0.0,9935.7852,0.0,0.0,2600.0,0.0
3131.0,27.0,31.0,107.0,161.0,123.0,nan,-0.52,-7.94,1.11,4.08,-81.39,130.22,1.18,-0.12,-0.08,-0.7,0.58,-0.3,0.3,1.0,27.9,27.24,0.0747425,0.0,19.250371452991455,nan,-99.59641222222223,nan,0.0,0.0,9935.7852,0.0,0.0,0.0,0.0
3157.0,17.0,26.0,88.0,138.0,110.0,nan,-0.6,-7.93,1.2,4.08,-81.39,130.22,0.2,-0.12,-0.22,-0.7,0.58,-0.3,0.3,1.0,27.9,27.24,0.0747425,0.0,19.250371410256413,nan,-99.59641214285715,nan,0.0,0.0,9935.7852,0.0,0.0,2600.0,0.0
3178.0,25.0,20.0,78.0,154.0,111.0,nan,-0.54,-7.78,0.99,4.08,-81.42,130.21,-0.99,0.3,-0.08,-0.7,0.58,-0.3,0.3,1.0,27.9,27.24,0.0747425,0.0,19.25037136752137,nan,-99.59641206349208,nan,0.0,0.0,9935.7852,0.0,0.0,2600.0,0.0
3198.0,32.0,30.0,47.0,125.0,110.0,nan,-0.6,-7.97,1.23,4.08,-81.38,130.21,2.16,-0.12,-0.22,-0.7,0.58,-0.3,0.3,1.0,27.9,27.24,0.0747425,0.0,19.250371324786325,nan,-99.59641198412699,nan,0.0,0.0,9935.7852,0.0,0.0,2600.4,0.0
3221.0,26.0,26.0,98.0,138.0,110.0,nan,-0.67,-7.84,1.17,4.09,-81.39,130.21,-0.43,0.09,0.13,-0.7,0.58,-0.3,0.3,1.0,27.9,27.24,0.0747425,0.0,19.250371282051283,nan,-99.5964119047619,nan,0.0,0.0,9935.7852,0.0,0.0,2600.4,0.0
3241.0,27.0,31.0,83.0,155.0,112.0,nan,-0.63,-7.78,1.09,4.09,-81.35,130.21,2.16,-0.12,-0.15,-0.7,0.58,-0.3,0.3,1.0,27.9,27.24,0.0747425,0.0,19.250371239316244,nan,-99.59641182539683,nan,0.0,0.0,9935.7852,0.0,0.0,2600.4,0.0
3263.0,16.0,17.0,109.0,138.0,75.0,nan,-0.76,-7.92,1.4,4.1,-81.3,130.22,1.88,-0.26,-0.08,-0.7,0.58,-0.3,0.3,1.0,27.9,27.24,0.0747425,0.0,19.250371239316244,nan,-99.59641182539683,nan,0.0,0.0,9935.7852,0.0,0.0,0.0,0.0
3283.0,17.0,26.0,147.0,135.0,103.0,nan,-0.58,-7.81,1.2,4.09,-81.33,130.21,-1.62,0.37,-0.29,-0.7,0.58,-0.3,0.3,1.0,27.9,27.24,0.0747425,0.0,19.2503711965812,nan,-99.59641174603176,nan,0.0,0.0,9935.7852,0.0,0.0,2600.4,0.0
3305.0,31.0,30.0,78.0,161.0,111.0,nan,-0.58,-7.9,1.38,4.1,-81.28,130.22,0.41,-0.19,-0.29,-0.7,0.58,-0.3,0.3,1.0,27.9,27.24,0.0747425,0.0,19.250371153846157,nan,-99.59641166666668,nan,0.0,0.0,9935.7852,0.0,0.0,2600.4,0.0
3333.0,32.0,29.0,136.0,133.0,76.0,nan,-0.7,-7.76,1.07,4.11,-81.31,130.21,-1.41,0.3,-0.22,-0.7,0.58,-0.3,0.3,1.0,27.9,27.24,0.0747425,0.0,19.250371111111114,nan,-99.59641158730159,nan,0.0,0.0,9935.7852,0.0,0.0,2600.4,0.0
3355.0,18.0,31.0,82.0,161.0,101.0,nan,-0.54,-7.94,1.39,4.1,-81.28,130.22,1.11,-0.19,-0.36,-0.7,0.58,-0.3,0.3,1.0,27.9,27.24,0.0747425,0.0,19.250371068376072,nan,-99.5964115079365,nan,0.0,0.0,9935.7852,0.0,0.0,2600.4,0.0
3374.0,17.0,26.0,87.0,136.0,110.0,nan,-0.63,-7.88,1.16,4.09,-81.32,130.21,-1.97,0.16,-0.43,-0.7,0.58,-0.3,0.3,1.0,27.9,27.24,0.0747425,0.0,19.25037102564103,nan,-99.59641142857146,nan,0.0,0.0,9935.7852,0.0,0.0,2600.4,0.0
3397.0,38.0,31.0,72.0,155.0,124.0,nan,-0.49,-7.94,1.22,4.09,-81.3,130.22,1.18,-0.26,-0.08,-0.7,0.58,-0.3,0.3,1.0,27.9,27.24,0.0747425,0.0,19.25037098290598,nan,-99.59641134920636,nan,0.0,0.0,9935.7852,0.0,0.0,2600.4,0.0
3418.0,17.0,29.0,39.0,137.0,125.0,nan,-0.6,-7.86,1.26,4.08,-81.29,130.22,-0.01,-0.05,-0.29,-0.7,0.58,-0.3,0.3,1.0,27.9,27.24,0.0747425,0.0,19.25037098290598,nan,-99.59641134920636,nan,0.0,0.0,9935.7852,0.0,0.0,0.0,0.0
3440.0,37.0,30.0,77.0,154.0,111.0,nan,-0.47,-7.73,1.07,4.07,-81.33,130.21,-1.55,0.44,-0.22,-0.7,0.58,-0.3,0.3,1.0,27.9,27.24,0.0747425,0.0,19.25037094017094,nan,-99.59641126984128,nan,0.0,0.0,9935.7852,0.0,0.0,2600.4,0.0
3459.0,18.0,31.0,77.0,154.0,119.0,nan,-0.53,-7.86,1.3,4.06,-81.27,130.21,2.51,-0.4,-0.57,-0.7,0.58,-0.3,0.3,1.0,27.9,27.34,0.0747343,0.0,19.250370897435904,nan,-99.59641119047619,nan,0.0,0.0,9935.7852,0.0,0.0,2600.4,0.0
3484.0,21.0,30.0,98.0,138.0,75.0,nan,-0.58,-7.93,1.15,4.04,-81.33,130.2,-0.64,0.09,-0.15,-0.7,0.58,-0.3,0.3,1.0,27.9,27.34,0.0747343,0.0,19.250370854700854,nan,-99.5964111111111,nan,0.0,0.0,9935.7852,0.0,0.0,2600.4,0.0
3511.0,16.0,30.0,52.0,136.0,103.0,nan,-0.58,-7.93,1.15,4.04,-81.33,130.2,0.0,0.0,0.0,-0.7,0.58,-0.3,0.3,1.0,27.9,27.34,0.0747343,0.0,19.250370811965812,nan,-99.59641103174603,nan,0.0,0.0,9935.7852,0.0,0.0,2600.4,0.0
3528.0,26.0,20.0,77.0,139.0,76.0,nan,-0.72,-7.76,1.1,4.06,-81.34,130.2,-0.85,0.23,-0.43,-0.7,0.58,-0.3,0.3,1.0,27.9,27.34,0.0747343,0.0,19.25037076923077,nan,-99.59641095238096,nan,0.0,0.0,9935.7852,0.0,0.0,2600.4,0.0
3553.0,28.0,26.0,88.0,136.0,117.0,nan,-0.85,-7.83,1.14,4.07,-81.36,130.2,-0.78,0.16,-0.5,-0.7,0.58,-0.3,0.3,1.0,27.9,27.34,0.0747343,0.0,19.250370726495728,nan,-99.59641087301588,nan,0.0,0.0,9935.7852,0.0,0.0,2600.4,0.0
3576.0,29.0,30.0,109.0,154.0,110.0,nan,-0.72,-7.92,1.2,4.07,-81.39,130.19,-1.55,0.3,-0.57,-0.7,0.58,-0.3,0.3,1.0,27.9,27.34,0.0747343,0.0,19.250370726495728,nan,-99.59641087301588,nan,0.0,0.0,9935.7852,0.0,0.0,0.0,0.0
3597.0,39.0,30.0,88.0,138.0,112.0,nan,-0.78,-7.95,0.98,4.09,-81.39,130.19,0.83,-0.33,0.06,-0.7,0.58,-0.3,0.3,1.0,27.9,27.34,0.0747343,0.0,19.250370683760686,nan,-99.59641079365082,nan,0.0,0.0,9935.7852,0.0,0.0,2600.4,0.0
3618.0,25.0,31.0,78.0,138.0,111.0,nan,-0.72,-8.04,1.25,4.09,-81.32,130.21,3.14,-0.61,-0.08,-0.7,0.58,-0.3,0.3,1.0,27.9,27.34,0.0747343,0.0,19.250370641025643,nan,-99.59641071428572,nan,0.0,0.0,9935.7852,0.0,0.0,2600.4,0.0
3637.0,25.0,31.0,87.0,155.0,110.0,nan,-0.64,-7.85,1.19,4.09,-81.36,130.2,-1.55,0.3,-0.36,-0.7,0.58,-0.3,0.3,1.0,27.9,27.34,0.0747343,0.0,19.250370598290594,nan,-99.59641063492063,nan,0.0,0.0,9935.7852,0.0,0.0,2600.4,0.0
3660.0,28.0,31.0,66.0,160.0,124.0,nan,-0.51,-8.03,1.11,4.07,-81.4,130.19,-1.83,0.44,-0.71,-0.7,0.58,-0.3,0.3,1.0,27.9,27.34,0.0747343,0.0,19.25037055555556,nan,-99.59641055555555,nan,0.0,0.0,9935.7852,0.0,0.0,2600.4,0.0
3682.0,37.0,29.0,52.0,137.0,111.0,nan,-0.49,-8.09,1.12,4.06,-81.4,130.19,0.41,-0.26,-0.15,-0.7,0.58,-0.3,0.3,1.0,27.9,27.34,0.0747343,0.0,19.250370512820517,nan,-99.5964104761905,nan,0.0,0.0,9935.7852,0.0,0.0,2600.4,0.0
3703.0,18.0,31.0,55.0,156.0,110.0,nan,-0.55,-7.83,1.17,4.05,-81.33,130.2,2.09,0.02,0.13,-0.7,0.58,-0.3,0.3,1.0,27.9,27.34,0.0747343,0.0,19.250370512820517,nan,-99.5964104761905,nan,0.0,0.0,9935.7852,0.0,0.0,0.0,0.0
3729.0,26.0,30.0,124.0,154.0,110.0,nan,-0.55,-7.83,1.17,4.05,-81.33,130.2,0.0,0.0,0.0,-0.7,0.58,-0.3,0.3,1.0,27.9,27.34,0.0747343,0.0,19.250370470085468,nan,-99.59641039682542,nan,0.0,0.0,9935.7852,0.0,0.0,2600.4,0.0
3746.0,27.0,20.0,157.0,148.0,125.0,nan,-0.56,-7.88,1.2,4.04,-81.31,130.2,-0.5,0.16,-0.22,-0.7,0.58,-0.3,0.3,1.0,27.9,27.34,0.0747343,0.0,19.250370427350425,nan,-99.59641031746033,nan,0.0,0.0,9935.7852,0.0,0.0,2600.4,0.0
3773.0,26.0,30.0,150.0,153.0,111.0,nan,-0.67,-7.85,1.29,4.05,-81.28,130.2,1.32,-0.19,0.13,-0.7,0.58,-0.3,0.3,1.0,27.9,27.34,0.0747343,0.0,19.250370384615383,nan,-99.59641023809523,nan,0.0,0.0,9935.7852,0.0,0.0,2600.4,0.0
3794.0,26.0,30.0,78.0,154.0,109.0,nan,-0.69,-7.82,1.26,4.06,-81.27,130.2,0.06,0.16,0.13,-0.7,0.58,-0.3,0.3,1.0,27.9,27.34,0.0747343,0.0,19.25037034188034,nan,-99.59641015873015,nan,0.0,0.0,9935.7852,0.0,0.0,2600.4,0.0
3813.0,27.0,30.0,52.0,138.0,111.0,nan,-0.75,-7.8,1.27,4.07,-81.31,130.19,-1.83,0.23,-0.36,-0.7,0.58,-0.3,0.3,1.0,27.9,27.34,0.0747343,0.0,19.2503702991453,nan,-99.59641007936509,nan,0.0,0.0,9935.7852,0.0,0.0,2600.4,0.0
3836.0,27.0,27.0,79.0,137.0,125.0,nan,-0.71,-7.95,1.1,4.07,-81.34,130.19,-1.2,0.16,-0.5,-0.7,0.58,-0.3,0.3,1.0,27.9,27.34,0.0747343,0.0,19.2503702991453,nan,-99.59641007936509,nan,0.0,0.0,9935.7852,0.0,0.0,0.0,0.0
3859.0,37.0,26.0,78.0,153.0,111.0,nan,-0.64,-7.81,1.13,4.07,-81.35,130.19,-0.36,-0.05,-0.01,-0.7,0.58,-0.3,0.3,1.0,27.9,27.34,0.0747343,0.0,19.250370256410257,nan,-99.59641000000002,nan,0.0,0.0,9935.7852,0.0,0.0,2600.4,0.0
3879.0,17.0,30.0,60.0,156.0,109.0,nan,-0.64,-7.87,1.12,4.08,-81.33,130.19,1.53,0.09,-0.08,-0.7,0.58,-0.3,0.3,1.0,27.9,27.34,0.0747343,0.0,19.250370213675215,nan,-99.59640992063493,nan,0.0,0.0,9935.7852,0.0,0.0,2600.4,0.0
3898.0,31.0,30.0,52.0,126.0,126.0,nan,-0.64,-8.0,1.37,4.08,-81.29,130.19,1.04,-0.33,-0.22,-0.7,0.58,-0.3,0.3,1.0,27.9,27.34,0.0747343,0.0,19.250370170940172,nan,-99.59640984126986,nan,0.0,0.0,9935.7852,0.0,0.0,2600.4,0.0
3921.0,17.0,30.0,77.0,154.0,124.0,nan,-0.64,-7.83,1.17,4.08,-81.31,130.19,0.9,0.02,-0.15,-0.7,0.58,-0.3,0.3,1.0,27.87,27.28,0.0747467,0.0,19.25037012820513,nan,-99.59640976190477,nan,0.0,0.0,9935.7852,0.0,0.0,2600.4,0.0
3956.0,26.0,30.0,53.0,124.0,97.0,nan,-0.65,-8.06,1.36,4.08,-81.28,130.19,1.11,-0.12,-0.22,-0.7,0.58,-0.3,0.3,1.0,27.87,27.28,0.0747467,0.0,19.250370085470085,nan,-99.59640968253969,nan,0.0,0.0,9935.7852,0.0,0.0,2600.4,0.0
3973.0,26.0,31.0,108.0,153.0,110.0,nan,-0.73,-7.81,1.2,4.08,-81.34,130.18,-2.88,0.23,-0.29,-0.7,0.58,-0.3,0.3,1.0,27.87,27.28,0.0747467,0.0,19.250370042735042,nan,-99.59640960317459,nan,0.0,0.0,9935.7852,0.0,0.0,2600.4,0.0
3995.0,38.0,26.0,136.0,132.0,111.0,nan,-0.57,-7.97,1.05,4.08,-81.35,130.18,-0.08,0.02,-0.43,-0.7,0.58,-0.3,0.3,1.0,27.87,27.28,0.0747467,0.0,19.25037,nan,-99.59640952380956,nan,0.0,0.0,9935.7852,0.0,0.0,2600.4,0.0
4015.0,19.0,29.0,88.0,125.0,126.0,nan,-0.65,-7.97,1.27,4.08,-81.35,130.19,0.13,-0.26,-0.08,-0.7,0.58,-0.3,0.3,1.0,27.87,27.28,0.0747467,0.0,19.25037,nan,-99.59640952380956,nan,0.0,0.0,9935.7852,0.0,0.0,0.0,0.0
4040.0,27.0,31.0,67.0,154.0,111.0,nan,-0.46,-7.76,1.01,4.07,-81.38,130.18,-0.85,0.3,-0.22,-0.7,0.58,-0.3,0.3,1.0,27.87,27.28,0.0747467,0.0,19.250369957264958,nan,-99.59640944444446,nan,0.0,0.0,9935.7852,0.0,0.0,2600.4,0.0
4057.0,22.0,17.0,53.0,137.0,124.0,nan,-0.58,-7.89,1.25,4.06,-81.35,130.18,1.32,-0.12,-0.29,-0.7,0.58,-0.3,0.3,1.0,27.87,27.28,0.0747467,0.0,19.250369914529916,nan,-99.59640936507937,nan,0.0,0.0,9935.7852,0.0,0.0,2600.4,0.0
4080.0,18.0,21.0,82.0,154.0,96.0,nan,-0.57,-7.79,1.07,4.05,-81.38,130.17,-1.06,0.23,-0.08,-0.7,0.58,-0.3,0.3,1.0,27.87,27.28,0.0747467,0.0,19.250369871794874,nan,-99.59640928571429,nan,0.0,0.0,9935.7852,0.0,0.0,2600.4,0.0
4107.0,26.0,27.0,121.0,140.0,111.0,nan,-0.53,-7.98,1.24,4.04,-81.34,130.18,2.16,-0.19,-0.01,-0.7,0.58,-0.3,0.3,1.0,27.87,27.28,0.0747467,0.0,19.25036982905983,nan,-99.5964092063492,nan,0.0,0.0,9935.7852,0.0,0.0,2600.4,0.0
4132.0,26.0,29.0,52.0,124.0,110.0,nan,-0.73,-7.76,1.13,4.06,-81.38,130.17,-2.18,0.23,-0.08,-0.7,0.58,-0.3,0.3,1.0,27.87,27.28,0.0747467,0.0,19.25036978632479,nan,-99.59640912698413,nan,0.0,0.0,9935.7852,0.0,0.0,2600.4,0.0
4149.0,32.0,29.0,87.0,139.0,111.0,nan,-0.64,-7.83,1.05,4.06,-81.38,130.17,0.62,0.23,-0.29,-0.7,0.58,-0.3,0.3,1.0,27.87,27.28,0.0747467,0.0,19.25036974358974,nan,-99.59640904761906,nan,0.0,0.0,9935.7852,0.0,0.0,2600.4,0.0
4172.0,26.0,30.0,78.0,136.0,110.0,nan,-0.79,-7.96,1.28,4.07,-81.37,130.17,0.2,-0.19,-0.15,-0.7,0.58,-0.3,0.3,1.0,27.87,27.28,0.0747467,0.0,19.25036974358974,nan,-99.59640904761906,nan,0.0,0.0,9935.7852,0.0,0.0,0.0,0.0
4191.0,27.0,21.0,87.0,144.0,110.0,nan,-0.65,-7.72,0.99,4.07,-81.39,130.17,-0.43,0.02,-0.08,-0.7,0.58,-0.3,0.3,1.0,27.87,27.28,0.0747467,0.0,19.250369700854705,nan,-99.59640896825397,nan,0.0,0.0,9935.7852,0.0,0.0,2600.4,0.0
4217.0,27.0,30.0,77.0,139.0,110.0,nan,-0.77,-7.84,1.21,4.09,-81.32,130.18,3.77,-0.47,-0.08,-0.7,0.58,-0.3,0.3,1.0,27.87,27.28,0.0747467,0.0,19.250369658119663,nan,-99.59640888888889,nan,0.0,0.0,9935.7852,0.0,0.0,2600.7,0.0
4234.0,18.0,28.0,98.0,138.0,111.0,nan,-0.6,-8.02,1.47,4.08,-81.28,130.18,0.97,-0.19,-0.29,-0.7,0.58,-0.3,0.3,1.0,27.87,27.28,0.0747467,0.0,19.250369615384614,nan,-99.59640880952382,nan,0.0,0.0,9935.7852,0.0,0.0,2600.7,0.0
4257.0,37.0,26.0,125.0,133.0,117.0,nan,-0.61,-7.76,1.11,4.08,-81.32,130.18,-1.83,0.23,-0.22,-0.7,0.58,-0.3,0.3,1.0,27.87,27.28,0.0747467,0.0,19.25036957264957,nan,-99.59640873015873,nan,0.0,0.0,9935.7852,0.0,0.0,2600.7,0.0
4276.0,17.0,31.0,135.0,154.0,111.0,nan,-0.5,-8.05,1.43,4.07,-81.25,130.18,2.93,-0.4,-0.29,-0.7,0.58,-0.3,0.3,1.0,27.87,27.28,0.0747467,0.0,19.25036957264957,nan,-99.59640873015873,nan,0.0,0.0,9935.7852,0.0,0.0,0.0,0.0
4302.0,26.0,30.0,108.0,137.0,111.0,nan,-0.46,-7.81,1.16,4.05,-81.31,130.17,-0.71,0.3,-0.36,-0.7,0.58,-0.3,0.3,1.0,27.87,27.28,0.0747467,0.0,19.25036952991453,nan,-99.59640865079366,nan,0.0,0.0,9935.7852,0.0,0.0,2600.7,0.0
4326.0,31.0,31.0,72.0,136.0,111.0,nan,-0.65,-8.08,1.26,4.05,-81.32,130.17,-0.78,0.02,-0.43,-0.7,0.58,-0.3,0.3,1.0,27.87,27.28,0.0747467,0.0,19.250369487179487,nan,-99.5964085714286,nan,0.0,0.0,9935.7852,0.0,0.0,2600.7,0.0
4348.0,25.0,26.0,77.0,139.0,112.0,nan,-0.54,-7.89,1.12,4.05,-81.37,130.16,-2.04,0.3,-0.08,-0.7,0.58,-0.3,0.3,1.0,27.87,27.28,0.0747467,0.0,19.250369444444445,nan,-99.5964084920635,nan,0.0,0.0,9935.7852,0.0,0.0,2600.7,0.0
4368.0,27.0,31.0,108.0,156.0,111.0,nan,-0.68,-7.86,0.97,4.05,-81.37,130.16,0.62,-0.05,-0.15,-0.7,0.58,-0.3,0.3,1.0,27.87,27.28,0.0747467,0.0,19.250369401709403,nan,-99.59640841269842,nan,0.0,0.0,9935.7852,0.0,0.0,2600.7,0.0
4392.0,26.0,30.0,67.0,139.0,110.0,nan,-0.62,-7.99,1.37,4.05,-81.34,130.17,1.11,-0.12,-0.01,-0.7,0.58,-0.3,0.3,1.0,27.88,27.34,0.0747335,0.0,19.25036935897436,nan,-99.59640833333333,nan,0.0,0.0,9935.7852,0.0,0.0,2600.7,0.0
4412.0,17.0,30.0,67.0,138.0,125.0,nan,-0.63,-7.7,0.93,4.06,-81.4,130.16,-2.25,0.3,-0.15,-0.7,0.58,-0.3,0.3,1.0,27.88,27.34,0.0747335,0.0,19.25036931623932,nan,-99.59640825396824,nan,0.0,0.0,9935.7852,0.0,0.0,2600.7,0.0
4435.0,31.0,30.0,77.0,154.0,111.0,nan,-0.62,-7.91,1.27,4.06,-81.34,130.17,3.0,-0.33,-0.15,-0.7,0.58,-0.3,0.3,1.0,27.88,27.34,0.0747335,0.0,19.250369273504276,nan,-99.5964081746032,nan,0.0,0.0,9935.7852,0.0,0.0,2600.7,0.0
4455.0,27.0,25.0,98.0,136.0,97.0,nan,-0.63,-7.95,1.21,4.06,-81.34,130.17,-0.29,-0.12,-0.15,-0.7,0.58,-0.3,0.3,1.0,27.88,27.34,0.0747335,0.0,19.250369273504276,nan,-99.5964081746032,nan,0.0,0.0,9935.7852,0.0,0.0,0.0,0.0
4480.0,38.0,26.0,136.0,135.0,111.0,nan,-0.61,-7.88,1.17,4.06,-81.34,130.16,0.97,-0.05,-0.43,-0.7,0.58,-0.3,0.3,1.0,27.88,27.34,0.0747335,0.0,19.250369230769227,nan,-99.5964080952381,nan,0.0,0.0,9935.7852,0.0,0.0,2600.7,0.0
4504.0,27.0,18.0,86.0,136.0,111.0,nan,-0.61,-7.9,1.27,4.05,-81.36,130.16,-0.78,0.02,-0.29,-0.7,0.58,-0.3,0.3,1.0,27.88,27.34,0.0747335,0.0,19.250369188034185,nan,-99.59640801587302,nan,0.0,0.0,9935.7852,0.0,0.0,2600.7,0.0
4527.0,31.0,24.0,67.0,158.0,119.0,nan,-0.63,-7.8,0.96,4.06,-81.38,130.16,-0.5,0.16,-0.22,-0.7,0.58,-0.3,0.3,1.0,27.88,27.34,0.0747335,0.0,19.25036914529915,nan,-99.59640793650793,nan,0.0,0.0,9935.7852,0.0,0.0,2600.7,0.0
4546.0,26.0,17.0,77.0,138.0,110.0,nan,-0.73,-7.89,1.28,4.06,-81.33,130.16,2.51,-0.33,-0.15,-0.7,0.58,-0.3,0.3,1.0,27.88,27.34,0.0747335,0.0,19.2503691025641,nan,-99.59640785714286,nan,0.0,0.0,9935.7852,0.0,0.0,2600.7,0.0
4571.0,26.0,30.0,77.0,153.0,111.0,nan,-0.47,-7.7,1.16,4.05,-81.32,130.16,0.41,-0.12,-0.57,-0.7,0.58,-0.3,0.3,1.0,27.88,27.34,0.0747335,0.0,19.250369059829058,nan,-99.59640777777777,nan,0.0,0.0,9935.7852,0.0,0.0,2600.7,0.0
4589.0,31.0,29.0,55.0,154.0,125.0,nan,-0.33,-7.56,1.23,4.01,-81.29,130.16,0.9,-0.05,-0.85,-0.7,0.58,-0.3,0.3,1.0,27.88,27.34,0.0747335,0.0,19.250369059829058,nan,-99.59640777777777,nan,0.0,0.0,9935.7852,0.0,0.0,0.0,0.0
4612.0,38.0,30.0,66.0,140.0,111.0,nan,-0.17,-7.86,1.4,3.96,-81.25,130.16,1.39,-0.12,-1.2,-0.7,0.58,-0.3,0.3,1.0,27.88,27.34,0.0747335,0.0,19.250369017094016,nan,-99.5964076984127,nan,0.0,0.0,9935.7852,0.0,0.0,2600.7,0.0
4631.0,24.0,19.0,78.0,139.0,126.0,nan,-0.08,-8.0,1.41,3.91,-81.26,130.16,-1.13,-0.12,-0.64,-0.7,0.58,-0.3,0.3,1.0,27.88,27.34,0.0747335,0.0,19.250368974358974,nan,-99.59640761904764,nan,0.0,0.0,9935.7852,0.0,0.0,2600.7,0.0
4656.0,27.0,31.0,77.0,154.0,111.0,nan,-0.09,-7.99,1.2,3.87,-81.25,130.17,0.76,-0.4,-0.64,-0.7,0.58,-0.3,0.3,1.0,27.88,27.34,0.0747335,0.0,19.25036893162393,nan,-99.59640753968256,nan,0.0,0.0,9935.7852,0.0,0.0,2600.7,0.0
4674.0,19.0,26.0,77.0,138.0,112.0,nan,0.06,-8.02,1.43,3.81,-81.26,130.17,-0.99,-0.26,-0.85,-0.7,0.58,-0.3,0.3,1.0,27.88,27.34,0.0747335,0.0,19.25036888888889,nan,-99.59640746031747,nan,0.0,0.0,9935.7852,0.0,0.0,2600.7,0.0
4696.0,31.0,29.0,60.0,153.0,109.0,nan,-0.01,-8.11,1.03,3.7,-81.39,130.15,-0.92,0.23,-0.85,-0.7,0.58,-0.3,0.3,1.0,27.88,27.34,0.0747335,0.0,19.250368846153844,nan,-99.59640738095237,nan,0.0,0.0,9935.7852,0.0,0.0,2600.7,0.0
4723.0,17.0,30.0,109.0,137.0,110.0,nan,-0.12,-8.11,1.22,3.67,-81.35,130.15,1.88,-0.33,-0.29,-0.7,0.58,-0.3,0.3,1.0,27.88,27.34,0.0747335,0.0,19.250368803418805,nan,-99.59640730158729,nan,0.0,0.0,9935.7852,0.0,0.0,2600.7,0.0
4747.0,25.0,29.0,77.0,153.0,112.0,nan,-0.1,-7.8,1.02,3.64,-81.36,130.15,0.13,0.02,0.06,-0.7,0.58,-0.3,0.3,1.0,27.88,27.34,0.0747335,0.0,19.25036876068376,nan,-99.59640722222224,nan,0.0,0.0,9935.7852,0.0,0.0,2600.7,0.0
4765.0,27.0,31.0,119.0,149.0,111.0,nan,-0.31,-8.06,1.31,3.62,-81.26,130.16,5.1,-0.4,-0.15,-0.7,0.58,-0.3,0.3,1.0,27.88,27.34,0.0747335,0.0,19.25036876068376,nan,-99.59640722222224,nan,0.0,0.0,9935.7852,0.0,0.0,0.0,0.0
4788.0,29.0,30.0,110.0,126.0,119.0,nan,-0.26,-8.1,1.47,3.6,-81.24,130.16,-0.22,-0.12,-0.22,-0.7,0.58,-0.3,0.3,1.0,27.88,27.34,0.0747335,0.0,19.250368717948717,nan,-99.59640714285716,nan,0.0,0.0,9935.7852,0.0,0.0,2600.7,0.0
4807.0,18.0,30.0,77.0,138.0,118.0,nan,-0.27,-7.89,1.22,3.58,-81.26,130.16,-0.71,0.23,-0.22,-0.7,0.58,-0.3,0.3,1.0,27.88,27.34,0.0747335,0.0,19.250368675213675,nan,-99.59640706349207,nan,0.0,0.0,9935.7852,0.0,0.0,2600.7,0.0
4831.0,20.0,30.0,52.0,138.0,119.0,nan,-0.24,-7.99,1.37,3.55,-81.23,130.16,1.04,-0.33,-0.22,-0.7,0.58,-0.3,0.3,1.0,27.88,27.34,0.0747335,0.0,19.250368632478633,nan,-99.59640698412697,nan,0.0,0.0,9935.7852,0.0,0.0,2600.7,0.0
4850.0,25.0,30.0,108.0,149.0,110.0,nan,-0.19,-7.94,1.39,3.52,-81.25,130.16,-1.97,0.23,-0.29,-0.7,0.58,-0.3,0.3,1.0,27.88,27.23,0.0747376,0.0,19.250368632478633,nan,-99.59640698412697,nan,0.0,0.0,9935.7852,0.0,0.0,0.0,0.0
4875.0,28.0,31.0,88.0,134.0,111.0,nan,-0.09,-7.94,1.26,3.46,-81.3,130.15,0.9,-0.19,-0.36,-0.7,0.58,-0.3,0.3,1.0,27.88,27.23,0.0747376,0.0,19.25036854700855,nan,-99.59640682539683,nan,0.0,0.0,9935.7852,0.0,0.0,2600.7,0.0
4901.0,25.0,29.0,52.0,126.0,104.0,nan,-0.16,-7.72,1.05,3.44,-81.33,130.15,-0.99,0.09,-0.08,-0.7,0.58,-0.3,0.3,1.0,27.88,27.23,0.0747376,0.0,19.25036854700855,nan,-99.59640682539683,nan,0.0,0.0,9935.7852,0.0,0.0,0.0,0.0
4925.0,30.0,31.0,68.0,117.0,112.0,nan,-0.12,-7.95,1.3,3.4,-81.28,130.15,2.16,0.02,-0.29,-0.7,0.58,-0.29,0.3,1.0,27.88,27.23,0.0747376,0.0,19.2503685042735,nan,-99.59640674603176,nan,0.0,0.0,9935.7852,0.0,0.0,2600.7,0.0
4944.0,17.0,17.0,66.0,117.0,117.0,nan,-0.24,-8.02,1.37,3.39,-81.29,130.15,-0.78,-0.05,-0.08,-0.7,0.58,-0.29,0.3,1.0,27.88,27.23,0.0747376,0.0,19.250368461538464,nan,-99.59640666666667,nan,0.0,0.0,9935.7852,0.0,0.0,2600.7,0.0
4967.0,32.0,25.0,98.0,139.0,126.0,nan,-0.16,-7.87,1.06,3.36,-81.35,130.14,-2.25,0.37,-0.15,-0.7,0.58,-0.29,0.3,1.0,27.88,27.23,0.0747376,0.0,19.250368418803422,nan,-99.5964065873016,nan,0.0,0.0,9935.7852,0.0,0.0,2600.7,0.0
4986.0,27.0,32.0,77.0,159.0,125.0,nan,-0.44,-7.95,1.13,3.35,-81.32,130.14,1.67,-0.19,-0.22,-0.7,0.58,-0.29,0.3,1.0,27.88,27.23,0.0747376,0.0,19.250368376068373,nan,-99.5964065079365,nan,0.0,0.0,9935.7852,0.0,0.0,2600.7,0.0
5010.0,19.0,17.0,78.0,132.0,110.0,nan,-0.23,-7.99,1.37,3.33,-81.35,130.14,-2.04,0.23,-0.43,-0.7,0.58,-0.29,0.3,1.0,27.88,27.23,0.0747376,0.0,19.250368249999998,nan,-99.59640642857143,nan,0.0,0.0,9935.7852,1.0,0.0,2600.7,0.0
5029.0,38.0,30.0,107.0,154.0,110.0,nan,-0.3,-7.76,0.82,3.32,-81.44,130.13,-3.3,0.44,-0.22,-0.69,0.58,-0.29,0.3,1.0,27.88,27.23,0.0747376,0.0,19.250368249999998,nan,-99.59640642857143,nan,0.0,0.0,9935.7852,0.0,0.0,0.0,0.0
5051.0,26.0,30.0,67.0,124.0,109.0,nan,-0.18,-8.04,1.24,3.29,-81.38,130.14,3.0,-0.4,-0.15,-0.7,0.58,-0.29,0.3,1.0,27.88,27.23,0.0747376,0.0,19.250368166666668,nan,-99.59640634920633,nan,0.0,0.0,9935.7852,0.0,0.0,2600.7,0.0
5071.0,37.0,25.0,77.0,139.0,110.0,nan,-0.34,-7.83,1.07,3.29,-81.36,130.14,1.11,-0.19,0.2,-0.7,0.58,-0.29,0.3,1.0,27.88,27.23,0.0747376,0.0,19.250368083333335,nan,-99.5964062698413,nan,0.0,0.0,9935.7852,0.0,0.0,2600.7,0.0
5095.0,31.0,31.0,78.0,134.0,112.0,nan,-0.28,-7.85,1.41,3.24,-81.25,130.15,2.51,-0.26,-0.29,-0.7,0.58,-0.29,0.3,1.0,27.88,27.23,0.0747376,0.0,19.250367999999998,nan,-99.5964061904762,nan,0.0,0.0,9935.7852,0.0,0.0,2600.7,0.0
5120.0,27.0,18.0,52.0,136.0,111.0,nan,-0.04,-7.91,1.4,3.21,-81.27,130.14,-1.41,0.16,-0.36,-0.7,0.58,-0.29,0.3,1.0,27.88,27.23,0.0747376,0.0,19.250367916666665,nan,-99.59640611111111,nan,0.0,0.0,9935.7852,0.0,0.0,2600.7,0.0
5143.0,26.0,30.0,67.0,133.0,111.0,nan,-0.25,-7.87,1.25,3.19,-81.24,130.14,1.25,-0.12,-0.29,-0.7,0.58,-0.29,0.3,1.0,27.88,27.23,0.0747376,0.0,19.250367833333335,nan,-99.59640603174603,nan,0.0,0.0,9935.7852,0.0,0.0,2600.7,0.0
5163.0,26.0,29.0,108.0,161.0,111.0,nan,-0.1,-7.9,1.46,3.16,-81.24,130.14,-0.85,-0.05,-0.29,-0.7,0.58,-0.29,0.3,1.0,27.88,27.23,0.0747376,0.0,19.250367833333335,nan,-99.59640603174603,nan,0.0,0.0,9935.7852,0.0,0.0,0.0,0.0
5186.0,20.0,30.0,66.0,154.0,109.0,nan,-0.18,-7.78,1.14,3.13,-81.29,130.13,-2.25,0.44,-0.64,-0.7,0.58,-0.29,0.3,1.0,27.88,27.23,0.0747376,0.0,19.250367749999995,nan,-99.59640595238096,nan,0.0,0.0,9935.7852,0.0,0.0,2600.7,0.0
5205.0,38.0,26.0,52.0,137.0,112.0,nan,-0.1,-8.04,1.19,3.09,-81.33,130.13,-1.83,0.09,-0.78,-0.69,0.58,-0.29,0.3,1.0,27.88,27.23,0.0747376,0.0,19.25036766666667,nan,-99.5964058730159,nan,0.0,0.0,9935.7852,0.0,0.0,2600.3,0.0
5228.0,17.0,28.0,78.0,137.0,109.0,nan,-0.06,-7.89,1.14,3.05,-81.36,130.12,-1.62,0.16,-0.64,-0.69,0.58,-0.29,0.3,1.0,27.88,27.23,0.0747376,0.0,19.250367583333333,nan,-99.5964057936508,nan,0.0,0.0,9935.7852,0.0,0.0,2600.3,0.0
5247.0,37.0,26.0,77.0,137.0,110.0,nan,-0.06,-7.8,0.88,3.01,-81.37,130.12,0.62,0.09,-0.36,-0.69,0.58,-0.29,0.3,1.0,27.88,27.23,0.0747376,0.0,19.2503675,nan,-99.59640571428571,nan,0.0,0.0,9935.7852,0.0,0.0,2600.3,0.0
5270.0,37.0,26.0,82.0,154.0,110.0,nan,-0.04,-7.88,1.28,2.97,-81.3,130.13,3.28,-0.4,-0.71,-0.69,0.58,-0.29,0.3,1.0,27.88,27.23,0.0747376,0.0,19.250367416666666,nan,-99.59640563492064,nan,0.0,0.0,9935.7852,0.0,0.0,2600.3,0.0
5290.0,26.0,30.0,135.0,154.0,110.0,nan,0.06,-7.73,1.23,2.92,-81.29,130.12,0.48,-0.05,-0.78,-0.69,0.58,-0.29,0.3,1.0,27.88,27.23,0.0747376,0.0,19.250367416666666,nan,-99.59640563492064,nan,0.0,0.0,9935.7852,0.0,0.0,0.0,0.0
5313.0,28.0,31.0,156.0,152.0,109.0,nan,0.18,-7.88,1.42,2.81,-81.15,130.14,3.28,-0.54,-1.06,-0.7,0.58,-0.29,0.31,1.0,27.88,27.27,0.0747418,0.0,19.25036733333333,nan,-99.59640555555556,nan,0.0,0.0,9935.7852,0.0,0.0,2600.3,0.0
5345.0,29.0,21.0,161.0,156.0,95.0,nan,0.32,-7.82,1.47,2.73,-81.09,130.15,1.88,-0.61,-1.34,-0.7,0.58,-0.29,0.31,1.0,27.88,27.27,0.0747418,0.0,19.250367166666663,nan,-99.59640539682543,nan,0.0,0.0,9935.7852,0.0,0.0,2600.3,0.0
5365.0,31.0,31.0,110.0,136.0,125.0,nan,0.44,-7.87,1.29,2.64,-81.09,130.15,-0.22,-0.47,-1.55,-0.7,0.58,-0.29,0.31,1.0,27.88,27.27,0.0747418,0.0,19.250367166666663,nan,-99.59640539682543,nan,0.0,0.0,9935.7852,0.0,0.0,0.0,0.0
5387.0,30.0,31.0,67.0,154.0,111.0,nan,0.52,-7.88,1.31,2.54,-81.08,130.15,0.27,-0.47,-1.76,-0.7,0.58,-0.29,0.31,1.0,27.88,27.27,0.0747418,0.0,19.250367083333334,nan,-99.59640531746034,nan,0.0,0.0,9935.7852,0.0,0.0,2600.3,0.0
5407.0,27.0,27.0,124.0,155.0,125.0,nan,0.85,-8.05,1.24,2.41,-81.06,130.16,1.18,-0.68,-1.9,-0.69,0.58,-0.29,0.31,1.0,27.88,27.27,0.0747418,0.0,19.250367,nan,-99.59640523809524,nan,0.0,0.0,9935.7852,0.0,0.0,2600.3,0.0
5429.0,18.0,31.0,77.0,124.0,112.0,nan,1.61,-8.08,1.44,2.24,-81.06,130.16,-0.85,-0.26,-2.11,-0.69,0.58,-0.29,0.31,1.0,27.88,27.27,0.0747418,0.0,19.250366916666664,nan,-99.59640515873016,nan,0.0,0.0,9935.7852,0.0,0.0,2600.3,0.0
5450.0,31.0,30.0,108.0,138.0,111.0,nan,1.76,-7.95,1.37,2.06,-81.11,130.15,-2.46,0.37,-1.83,-0.69,0.58,-0.29,0.31,1.0,27.88,27.27,0.0747418,0.0,19.25036683333333,nan,-99.59640507936507,nan,0.0,0.0,9935.7852,0.0,0.0,2600.3,0.0
5472.0,38.0,31.0,77.0,137.0,110.0,nan,0.89,-7.88,1.2,1.8,-81.21,130.13,-2.32,0.3,-1.06,-0.69,0.59,-0.29,0.31,1.0,27.88,27.27,0.0747418,0.0,19.25036683333333,nan,-99.59640507936507,nan,0.0,0.0,9935.7852,0.0,0.0,0.0,0.0
5498.0,31.0,30.0,77.0,138.0,76.0,nan,0.62,-8.03,1.18,1.73,-81.24,130.12,-1.13,0.3,-0.85,-0.69,0.59,-0.28,0.31,1.0,27.88,27.27,0.0747418,0.0,19.25036675,nan,-99.596405,nan,0.0,0.0,9935.7852,0.0,0.0,2600.3,0.0
5521.0,17.0,30.0,76.0,138.0,102.0,nan,0.58,-8.21,1.07,1.65,-81.27,130.11,-0.85,0.23,-0.92,-0.69,0.59,-0.28,0.31,1.0,27.88,27.27,0.0747418,0.0,19.250366666666668,nan,-99.59640492063494,nan,0.0,0.0,9935.7852,0.0,0.0,2600.3,0.0
5542.0,18.0,30.0,67.0,133.0,111.0,nan,0.42,-8.23,1.14,1.59,-81.24,130.11,2.09,-0.26,-0.64,-0.69,0.59,-0.28,0.31,1.0,27.88,27.27,0.0747418,0.0,19.250366583333335,nan,-99.59640484126984,nan,0.0,0.0,9935.7852,0.0,0.0,2600.3,0.0
5563.0,32.0,29.0,135.0,154.0,125.0,nan,0.77,-8.04,1.3,1.51,-81.19,130.11,2.02,-0.19,-0.57,-0.69,0.59,-0.28,0.31,1.0,27.88,27.27,0.0747418,0.0,19.2503665,nan,-99.59640476190476,nan,0.0,0.0,9935.7852,0.0,0.0,2600.3,0.0
5583.0,26.0,30.0,108.0,137.0,110.0,nan,1.16,-7.86,1.32,1.4,-81.14,130.12,1.95,-0.26,-0.36,-0.69,0.59,-0.28,0.31,1.0,27.88,27.27,0.0747418,0.0,19.250366416666665,nan,-99.5964046825397,nan,0.0,0.0,9935.7852,0.0,0.0,2600.3,0.0
5606.0,26.0,30.0,67.0,153.0,111.0,nan,1.25,-7.88,1.38,1.29,-81.1,130.12,1.74,-0.12,-0.36,-0.69,0.59,-0.28,0.31,1.0,27.88,27.27,0.0747418,0.0,19.250366333333332,nan,-99.5964046031746,nan,0.0,0.0,9935.7852,0.0,0.0,2600.3,0.0
5632.0,27.0,30.0,124.0,155.0,110.0,nan,0.99,-7.85,1.41,1.21,-81.07,130.12,0.97,0.16,-0.22,-0.69,0.59,-0.28,0.31,1.0,27.88,27.27,0.0747418,0.0,19.250366333333332,nan,-99.5964046031746,nan,0.0,0.0,9935.7852,0.0,0.0,0.0,0.0
5648.0,26.0,30.0,136.0,139.0,111.0,nan,0.73,-7.95,1.44,1.14,-81.05,130.11,0.27,0.16,-0.22,-0.69,0.59,-0.28,0.31,1.0,27.88,27.27,0.0747418,0.0,19.250366249999995,nan,-99.59640452380951,nan,0.0,0.0,9935.7852,0.0,0.0,2600.3,0.0
5668.0,26.0,30.0,88.0,152.0,112.0,nan,0.52,-8.13,1.35,1.09,-81.04,130.1,-0.08,0.37,-0.08,-0.69,0.59,-0.28,0.31,1.0,27.88,27.27,0.0747418,0.0,19.25036616666667,nan,-99.59640444444445,nan,0.0,0.0,9935.7852,0.0,0.0,2600.3,0.0
5690.0,26.0,30.0,52.0,138.0,109.0,nan,0.42,-8.24,1.36,1.02,-81.0,130.1,0.2,0.09,0.13,-0.69,0.59,-0.28,0.32,1.0,27.88,27.27,0.0747418,0.0,19.250366083333333,nan,-99.59640436507938,nan,0.0,0.0,9935.7852,0.0,0.0,2600.3,0.0
5716.0,27.0,29.0,60.0,137.0,111.0,nan,0.63,-8.0,1.38,0.97,-81.0,130.1,0.06,0.3,0.13,-0.69,0.59,-0.28,0.32,1.0,27.88,27.27,0.0747418,0.0,19.250366,nan,-99.5964042857143,nan,0.0,0.0,9935.7852,0.0,0.0,2600.3,0.0
5739.0,31.0,30.0,124.0,133.0,109.0,nan,0.81,-7.83,1.27,0.9,-81.01,130.09,-0.99,0.3,-0.08,-0.69,0.59,-0.28,0.32,1.0,27.88,27.27,0.0747418,0.0,19.250365916666667,nan,-99.5964042063492,nan,0.0,0.0,9935.7852,0.0,0.0,2600.3,0.0
5759.0,38.0,26.0,99.0,139.0,112.0,nan,0.84,-8.02,1.31,0.83,-81.01,130.09,0.2,0.02,-0.22,-0.69,0.59,-0.28,0.32,1.0,27.88,27.27,0.0747418,0.0,19.250365916666667,nan,-99.5964042063492,nan,0.0,0.0,9935.7852,0.0,0.0,0.0,0.0
5782.0,25.0,26.0,87.0,125.0,111.0,nan,0.67,-7.92,1.42,0.77,-81.01,130.08,-0.78,0.37,-0.01,-0.69,0.59,-0.28,0.32,1.0,27.88,27.27,0.074741,0.0,19.25036583333333,nan,-99.59640412698411,nan,0.0,0.0,9935.7852,0.0,0.0,2600.3,0.0
5804.0,31.0,17.0,67.0,137.0,111.0,nan,0.57,-7.73,1.19,0.73,-81.04,130.08,-1.34,0.44,0.13,-0.69,0.59,-0.28,0.32,1.0,27.88,27.27,0.074741,0.0,19.250365750000004,nan,-99.59640404761903,nan,0.0,0.0,9935.7852,0.0,0.0,2600.3,0.0
5826.0,27.0,30.0,67.0,155.0,111.0,nan,0.56,-7.68,1.23,0.68,-81.0,130.08,1.67,0.02,-0.15,-0.69,0.59,-0.28,0.32,1.0,27.88,27.27,0.074741,0.0,19.250365666666664,nan,-99.59640396825398,nan,0.0,0.0,9935.7852,0.0,0.0,2600.3,0.0
5846.0,26.0,31.0,147.0,155.0,110.0,nan,0.62,-7.92,1.44,0.62,-80.95,130.07,1.88,0.23,-0.22,-0.69,0.59,-0.28,0.32,1.0,27.88,27.27,0.074741,0.0,19.250365583333334,nan,-99.5964038888889,nan,0.0,0.0,9935.7852,0.0,0.0,2600.3,0.0
5869.0,26.0,30.0,93.0,136.0,110.0,nan,0.89,-8.24,1.42,0.51,-80.94,130.07,-2.25,0.3,0.13,-0.69,0.59,-0.28,0.32,1.0,27.88,27.27,0.074741,0.0,19.2503655,nan,-99.5964038095238,nan,0.0,0.0,9935.7852,0.0,0.0,2600.3,0.0
5895.0,26.0,30.0,51.0,138.0,110.0,nan,0.76,-7.69,1.26,0.45,-81.0,130.06,-3.3,0.44,-0.08,-0.69,0.59,-0.28,0.32,1.0,27.88,27.27,0.074741,0.0,19.250365416666664,nan,-99.59640373015874,nan,0.0,0.0,9935.7852,0.0,0.0,2600.3,0.0
5918.0,28.0,27.0,67.0,138.0,109.0,nan,0.76,-7.81,1.07,0.38,-81.09,130.05,-3.93,0.44,-0.43,-0.69,0.59,-0.28,0.32,1.0,27.88,27.27,0.074741,0.0,19.25036533333333,nan,-99.59640365079365,nan,0.0,0.0,9935.7852,0.0,0.0,2600.3,0.0
5938.0,27.0,31.0,67.0,137.0,124.0,nan,0.58,-7.9,0.95,0.32,-81.18,130.04,-3.37,0.58,-0.57,-0.69,0.59,-0.28,0.32,1.0,27.88,27.27,0.074741,0.0,19.25036533333333,nan,-99.59640365079365,nan,0.0,0.0,9935.7852,0.0,0.0,0.0,0.0
5960.0,37.0,29.0,108.0,154.0,111.0,nan,0.69,-7.85,0.9,0.27,-81.23,130.03,-1.41,0.16,-0.29,-0.69,0.59,-0.28,0.32,1.0,27.88,27.27,0.074741,0.0,19.25036525,nan,-99.59640357142857,nan,0.0,0.0,9935.7852,0.0,0.0,2600.3,0.0
