time,p1,p2,p3,p4,p5,termite,ax,ay,az,rx,ry,rz,roll,pitch,yaw,q1,q2,q3,q4,calibration,temperature,humidity,pressure,flag_rm,lat,lacoord,lon,locoord,capacitive,o_lat,o_lon,used_lat,used_lon,altitude,flag_lm
0.0,26.0,31.0,147.0,135.0,89.0,nan,-0.52,-7.79,0.85,3.89,-82.89,111.53,0.9,-0.19,-0.43,-0.63,0.53,-0.39,0.4,1.0,27.76,27.94,0.0748871,0.0,19.250376180555556,nan,-99.5780745138889,nan,0.0,0.0,9934.6885,1.0,1.0,2579.0,0.0
20.0,30.0,29.0,40.0,138.0,111.0,nan,-0.64,-7.89,1.05,3.89,-82.87,111.53,0.62,-0.12,-0.22,-0.63,0.53,-0.39,0.4,1.0,27.76,27.94,0.0748871,0.0,19.250376180555556,nan,-99.5780745138889,nan,0.0,0.0,9934.6885,0.0,0.0,0.0,0.0
42.0,26.0,31.0,67.0,156.0,82.0,nan,-0.62,-7.95,0.98,3.89,-82.88,111.53,-0.43,-0.12,-0.29,-0.63,0.53,-0.39,0.4,1.0,27.76,27.94,0.0748871,0.0,19.250376180555556,nan,-99.5780745138889,nan,0.0,0.0,9934.6885,0.0,0.0,0.0,0.0
62.0,26.0,30.0,66.0,137.0,110.0,nan,-0.67,-7.9,0.86,3.9,-82.92,111.53,-1.27,0.02,-0.22,-0.63,0.53,-0.39,0.4,1.0,27.76,27.94,0.0748871,0.0,19.250376180555556,nan,-99.5780745138889,nan,0.0,0.0,9934.6885,0.0,0.0,0.0,0.0
85.0,32.0,31.0,68.0,118.0,110.0,nan,-0.63,-7.86,0.81,3.9,-82.94,111.53,-1.48,0.02,-0.43,-0.63,0.53,-0.39,0.4,1.0,27.76,27.94,0.0748871,0.0,19.250376180555556,nan,-99.5780745138889,nan,0.0,0.0,9934.6885,0.0,0.0,0.0,0.0
111.0,26.0,30.0,67.0,125.0,110.0,nan,-0.63,-7.86,0.81,3.9,-82.94,111.53,0.0,0.0,0.0,-0.63,0.53,-0.39,0.4,1.0,27.76,27.94,0.0748871,0.0,19.250376180555556,nan,-99.5780745138889,nan,0.0,0.0,9934.6885,0.0,0.0,0.0,0.0
128.0,17.0,30.0,107.0,136.0,120.0,nan,-0.72,-7.99,0.91,3.9,-82.96,111.53,-0.78,-0.12,-0.36,-0.63,0.53,-0.39,0.4,1.0,27.76,27.94,0.0748871,0.0,19.250376180555556,nan,-99.5780745138889,nan,0.0,0.0,9934.6885,0.0,0.0,0.0,0.0
154.0,17.0,30.0,78.0,136.0,118.0,nan,-0.59,-7.78,0.74,3.9,-82.97,111.53,0.62,-0.05,-0.29,-0.63,0.53,-0.39,0.4,1.0,27.76,27.94,0.0748871,0.0,19.250376180555556,nan,-99.5780745138889,nan,0.0,0.0,9934.6885,0.0,0.0,0.0,0.0
176.0,27.0,26.0,136.0,132.0,76.0,nan,-0.61,-7.9,0.99,3.9,-82.92,111.54,2.09,-0.4,-0.29,-0.63,0.53,-0.39,0.4,1.0,27.76,27.94,0.0748871,0.0,19.250376180555556,nan,-99.5780745138889,nan,0.0,0.0,9934.6885,0.0,0.0,0.0,0.0
196.0,17.0,27.0,89.0,124.0,103.0,nan,-0.68,-7.97,1.01,3.9,-82.91,111.54,0.55,-0.26,-0.36,-0.63,0.53,-0.39,0.4,1.0,27.76,27.94,0.0748871,0.0,19.250376180555556,nan,-99.5780745138889,nan,0.0,0.0,9934.6885,0.0,0.0,0.0,0.0
219.0,26.0,17.0,67.0,138.0,111.0,nan,-0.65,-7.87,0.78,3.9,-82.94,111.54,-0.99,0.02,-0.36,-0.63,0.53,-0.39,0.4,1.0,27.77,27.99,0.0748863,0.0,19.25037236111111,nan,-99.57800736111112,nan,0.0,0.0,9934.6885,0.0,0.0,2579.0,0.0
241.0,27.0,30.0,67.0,154.0,125.0,nan,-0.67,-7.91,1.04,3.91,-82.9,111.55,2.02,-0.47,-0.15,-0.63,0.53,-0.39,0.4,1.0,27.77,27.99,0.0748863,0.0,19.25037236111111,nan,-99.57800736111112,nan,0.0,0.0,9934.6885,0.0,0.0,0.0,0.0
263.0,30.0,28.0,112.0,138.0,105.0,nan,-0.56,-7.84,0.89,3.9,-82.92,111.55,-0.57,0.09,-0.5,-0.63,0.53,-0.39,0.4,1.0,27.77,27.99,0.0748863,0.0,19.25037236111111,nan,-99.57800736111112,nan,0.0,0.0,9934.6885,0.0,0.0,0.0,0.0
283.0,28.0,30.0,109.0,167.0,111.0,nan,-0.64,-7.9,0.94,3.9,-82.92,111.55,-0.29,-0.05,-0.29,-0.63,0.53,-0.39,0.4,1.0,27.77,27.99,0.0748863,0.0,19.25037236111111,nan,-99.57800736111112,nan,0.0,0.0,9934.6885,0.0,0.0,0.0,0.0
305.0,28.0,31.0,88.0,149.0,75.0,nan,-0.64,-7.88,0.79,3.9,-82.96,111.55,-0.43,-0.05,-0.29,-0.63,0.53,-0.39,0.4,1.0,27.77,27.99,0.0748863,0.0,19.25037236111111,nan,-99.57800736111112,nan,0.0,0.0,9934.6885,0.0,0.0,0.0,0.0
332.0,15.0,29.0,78.0,125.0,102.0,nan,-0.57,-7.91,0.97,3.9,-82.93,111.55,1.32,-0.19,-0.22,-0.63,0.53,-0.39,0.4,1.0,27.77,27.99,0.0748863,0.0,19.25037236111111,nan,-99.57800736111112,nan,0.0,0.0,9934.6885,0.0,0.0,0.0,0.0
355.0,18.0,31.0,55.0,160.0,110.0,nan,-0.67,-7.94,0.97,3.9,-82.93,111.55,0.34,-0.26,-0.36,-0.63,0.53,-0.39,0.4,1.0,27.77,27.99,0.0748863,0.0,19.25037236111111,nan,-99.57800736111112,nan,0.0,0.0,9934.6885,0.0,0.0,0.0,0.0
374.0,26.0,30.0,67.0,134.0,98.0,nan,-0.56,-7.89,0.8,3.89,-82.93,111.55,0.2,-0.05,-0.29,-0.63,0.53,-0.39,0.4,1.0,27.77,27.99,0.0748863,0.0,19.25037236111111,nan,-99.57800736111112,nan,0.0,0.0,9934.6885,0.0,0.0,0.0,0.0
397.0,27.0,30.0,77.0,138.0,125.0,nan,-0.69,-7.93,0.99,3.9,-82.91,111.56,1.25,-0.33,-0.15,-0.63,0.53,-0.39,0.4,1.0,27.77,27.99,0.0748863,0.0,19.25037236111111,nan,-99.57800736111112,nan,0.0,0.0,9934.6885,0.0,0.0,0.0,0.0
417.0,37.0,26.0,88.0,140.0,112.0,nan,-0.57,-7.9,0.96,3.9,-82.9,111.56,0.41,-0.12,-0.36,-0.63,0.53,-0.39,0.4,1.0,27.77,27.99,0.0748863,0.0,19.25037236111111,nan,-99.57800736111112,nan,0.0,0.0,9934.6885,0.0,0.0,0.0,0.0
440.0,21.0,30.0,52.0,125.0,111.0,nan,-0.65,-7.89,0.92,3.9,-82.91,111.56,-0.08,-0.12,-0.29,-0.63,0.53,-0.39,0.4,1.0,27.77,27.99,0.0748863,0.0,19.25036854166667,nan,-99.57794020833335,nan,0.0,0.0,9934.6885,0.0,0.0,2579.0,0.0
459.0,24.0,30.0,108.0,138.0,111.0,nan,-0.62,-7.94,0.99,3.9,-82.9,111.57,0.41,-0.19,-0.22,-0.63,0.53,-0.39,0.4,1.0,27.77,27.99,0.0748863,0.0,19.25036854166667,nan,-99.57794020833335,nan,0.0,0.0,9934.6885,0.0,0.0,0.0,0.0
482.0,27.0,30.0,119.0,132.0,111.0,nan,-0.64,-7.86,0.99,3.91,-82.92,111.57,0.69,-0.12,-0.15,-0.63,0.53,-0.39,0.4,1.0,27.77,27.99,0.0748863,0.0,19.25036854166667,nan,-99.57794020833335,nan,0.0,0.0,9934.6885,0.0,0.0,0.0,0.0
508.0,27.0,31.0,63.0,139.0,110.0,nan,-0.64,-7.86,0.99,3.91,-82.92,111.57,0.0,0.0,0.0,-0.63,0.53,-0.39,0.4,1.0,27.77,27.99,0.0748863,0.0,19.25036854166667,nan,-99.57794020833335,nan,0.0,0.0,9934.6885,0.0,0.0,0.0,0.0
526.0,38.0,22.0,77.0,139.0,112.0,nan,-0.6,-7.87,0.84,3.91,-82.94,111.57,0.2,-0.12,-0.22,-0.63,0.53,-0.39,0.4,1.0,27.77,27.99,0.0748863,0.0,19.25036854166667,nan,-99.57794020833335,nan,0.0,0.0,9934.6885,0.0,0.0,0.0,0.0
551.0,37.0,26.0,52.0,138.0,110.0,nan,-0.67,-7.93,0.92,3.91,-82.94,111.57,-0.08,-0.05,-0.22,-0.63,0.53,-0.39,0.4,1.0,27.77,27.99,0.0748863,0.0,19.25036854166667,nan,-99.57794020833335,nan,0.0,0.0,9934.6885,0.0,0.0,0.0,0.0
573.0,31.0,30.0,90.0,154.0,110.0,nan,-0.65,-7.95,0.98,3.91,-82.94,111.57,0.2,-0.12,-0.43,-0.63,0.53,-0.39,0.4,1.0,27.77,27.99,0.0748863,0.0,19.25036854166667,nan,-99.57794020833335,nan,0.0,0.0,9934.6885,0.0,0.0,0.0,0.0
593.0,27.0,30.0,77.0,138.0,124.0,nan,-0.59,-7.86,0.8,3.91,-82.95,111.57,-0.15,-0.19,-0.36,-0.63,0.53,-0.39,0.4,1.0,27.77,27.99,0.0748863,0.0,19.25036854166667,nan,-99.57794020833335,nan,0.0,0.0,9934.6885,0.0,0.0,0.0,0.0
616.0,31.0,29.0,53.0,137.0,110.0,nan,-0.59,-7.91,0.98,3.9,-82.93,111.58,1.11,-0.26,-0.22,-0.63,0.53,-0.39,0.4,1.0,27.77,27.99,0.0748863,0.0,19.25036854166667,nan,-99.57794020833335,nan,0.0,0.0,9934.6885,0.0,0.0,0.0,0.0
635.0,27.0,31.0,108.0,138.0,110.0,nan,-0.59,-7.93,0.85,3.9,-82.95,111.58,-0.36,-0.12,-0.43,-0.63,0.53,-0.39,0.4,1.0,27.77,27.99,0.0748863,0.0,19.25036854166667,nan,-99.57794020833335,nan,0.0,0.0,9934.6885,0.0,0.0,0.0,0.0
658.0,25.0,17.0,125.0,133.0,111.0,nan,-0.67,-7.9,0.94,3.9,-82.94,111.58,0.48,-0.19,-0.22,-0.63,0.53,-0.39,0.4,1.0,27.77,27.99,0.0748863,0.0,19.25036854166667,nan,-99.57794020833335,nan,0.0,0.0,9934.6885,0.0,0.0,0.0,0.0
678.0,27.0,31.0,77.0,136.0,112.0,nan,-0.61,-7.96,0.96,3.9,-82.93,111.58,0.48,-0.19,-0.36,-0.63,0.53,-0.39,0.4,1.0,27.74,27.97,0.0748995,0.0,19.250364722222223,nan,-99.57787305555557,nan,0.0,0.0,9934.6885,0.0,0.0,2579.0,0.0
703.0,17.0,26.0,147.0,137.0,111.0,nan,-0.59,-7.88,0.92,3.9,-82.93,111.59,0.41,-0.12,-0.15,-0.63,0.53,-0.39,0.4,1.0,27.74,27.97,0.0748995,0.0,19.250360902777775,nan,-99.57780590277777,nan,0.0,0.0,9934.6885,0.0,0.0,2579.0,0.0
729.0,26.0,29.0,158.0,146.0,112.0,nan,-0.71,-7.99,1.03,3.9,-82.92,111.59,0.48,-0.19,-0.29,-0.63,0.53,-0.39,0.4,1.0,27.74,27.97,0.0748995,0.0,19.250357083333334,nan,-99.57773875,nan,0.0,0.0,9934.6885,0.0,0.0,2579.0,0.0
752.0,26.0,31.0,150.0,154.0,76.0,nan,-0.6,-7.84,0.81,3.9,-82.93,111.59,-0.01,-0.19,-0.36,-0.63,0.53,-0.39,0.4,1.0,27.74,27.97,0.0748995,0.0,19.25035326388889,nan,-99.57767159722222,nan,0.0,0.0,9934.6885,0.0,0.0,2579.0,0.0
771.0,24.0,29.0,76.0,138.0,73.0,nan,-0.66,-7.91,0.99,3.9,-82.91,111.6,1.04,-0.26,-0.22,-0.63,0.53,-0.39,0.4,1.0,27.74,27.97,0.0748995,0.0,19.25034944444445,nan,-99.57760444444445,nan,0.0,0.0,9934.6885,0.0,0.0,2579.0,0.0
795.0,18.0,30.0,67.0,149.0,89.0,nan,-0.6,-7.94,1.0,3.9,-82.9,111.6,0.48,-0.12,-0.29,-0.63,0.53,-0.39,0.4,1.0,27.74,27.97,0.0748995,0.0,19.250345625,nan,-99.57753729166667,nan,0.0,0.0,9934.6885,0.0,0.0,2579.0,0.0
814.0,25.0,30.0,53.0,139.0,112.0,nan,-0.7,-7.88,0.85,3.91,-82.93,111.6,-1.06,0.02,-0.29,-0.63,0.53,-0.39,0.4,1.0,27.74,27.97,0.0748995,0.0,19.250341805555554,nan,-99.5774701388889,nan,0.0,0.0,9934.6885,0.0,0.0,2579.0,0.0
837.0,26.0,31.0,67.0,160.0,111.0,nan,-0.63,-7.95,0.99,3.91,-82.91,111.6,0.97,-0.33,-0.22,-0.63,0.53,-0.39,0.4,1.0,27.74,27.97,0.0748995,0.0,19.250341805555554,nan,-99.5774701388889,nan,0.0,0.0,9934.6885,0.0,0.0,0.0,0.0
856.0,27.0,30.0,108.0,140.0,125.0,nan,-0.66,-7.85,0.84,3.91,-82.94,111.6,-0.78,0.02,-0.43,-0.63,0.53,-0.39,0.4,1.0,27.74,27.97,0.0748995,0.0,19.25033798611111,nan,-99.57740298611112,nan,0.0,0.0,9934.6885,0.0,0.0,2579.0,0.0
880.0,19.0,30.0,78.0,138.0,110.0,nan,-0.69,-8.02,0.96,3.91,-82.95,111.61,-0.64,-0.12,-0.43,-0.63,0.53,-0.39,0.4,1.0,27.74,27.97,0.0748995,0.0,19.25033416666667,nan,-99.57733583333334,nan,0.0,0.0,9934.6885,0.0,0.0,2579.0,0.0
906.0,24.0,26.0,125.0,134.0,110.0,nan,-0.59,-7.86,0.76,3.91,-82.97,111.6,-0.15,-0.05,-0.36,-0.63,0.53,-0.39,0.4,1.0,27.74,27.97,0.0748995,0.0,19.25033034722222,nan,-99.57726868055556,nan,0.0,0.0,9934.6885,0.0,0.0,2579.0,0.0
929.0,38.0,30.0,88.0,137.0,106.0,nan,-0.63,-7.92,0.94,3.91,-82.95,111.61,0.9,-0.12,-0.22,-0.63,0.53,-0.39,0.4,1.0,27.74,27.97,0.0748995,0.0,19.25032652777778,nan,-99.57720152777779,nan,0.0,0.0,9934.6885,0.0,0.0,2579.0,0.0
948.0,38.0,27.0,98.0,153.0,125.0,nan,-0.63,-7.92,0.98,3.91,-82.94,111.61,0.62,-0.26,-0.29,-0.63,0.53,-0.39,0.4,1.0,27.74,27.97,0.0748995,0.0,19.250322708333332,nan,-99.57713437500001,nan,0.0,0.0,9934.6885,0.0,0.0,2579.0,0.0
971.0,27.0,30.0,81.0,154.0,111.0,nan,-0.59,-7.85,0.77,3.9,-82.97,111.61,-0.78,-0.05,-0.36,-0.63,0.53,-0.39,0.4,1.0,27.74,27.97,0.0748995,0.0,19.250318888888888,nan,-99.57706722222224,nan,0.0,0.0,9934.6885,0.0,0.0,2579.0,0.0
991.0,31.0,18.0,120.0,138.0,110.0,nan,-0.66,-7.99,1.05,3.91,-82.92,111.62,2.16,-0.47,-0.15,-0.63,0.53,-0.39,0.4,1.0,27.74,27.97,0.0748995,0.0,19.250318888888888,nan,-99.57706722222224,nan,0.0,0.0,9934.6885,0.0,0.0,0.0,0.0
1014.0,37.0,30.0,119.0,134.0,110.0,nan,-0.6,-7.89,0.86,3.9,-82.95,111.62,-0.85,0.09,-0.43,-0.63,0.53,-0.39,0.4,1.0,27.74,27.97,0.0748995,0.0,19.250315069444447,nan,-99.57700006944447,nan,0.0,0.0,9934.6885,0.0,0.0,2579.0,0.0
1033.0,28.0,29.0,40.0,154.0,125.0,nan,-0.65,-7.9,0.94,3.91,-82.94,111.62,0.55,-0.19,-0.08,-0.63,0.53,-0.39,0.4,1.0,27.74,27.97,0.0748995,0.0,19.25031125,nan,-99.57693291666669,nan,0.0,0.0,9934.6885,0.0,0.0,2579.0,0.0
1056.0,31.0,21.0,120.0,138.0,110.0,nan,-0.61,-7.92,0.97,3.9,-82.93,111.62,0.41,-0.33,-0.36,-0.63,0.53,-0.39,0.4,1.0,27.74,27.97,0.0748995,0.0,19.25030743055556,nan,-99.57686576388892,nan,0.0,0.0,9934.6885,0.0,0.0,2579.0,0.0
1076.0,37.0,26.0,89.0,139.0,110.0,nan,-0.63,-7.85,0.82,3.9,-82.95,111.62,-0.43,-0.05,-0.36,-0.63,0.53,-0.39,0.4,1.0,27.74,27.97,0.0748995,0.0,19.25030361111111,nan,-99.57679861111114,nan,0.0,0.0,9934.6885,0.0,0.0,2579.0,0.0
1098.0,26.0,31.0,108.0,138.0,110.0,nan,-0.74,-7.98,0.97,3.91,-82.93,111.63,-0.15,-0.19,-0.36,-0.63,0.53,-0.39,0.4,1.0,27.74,27.97,0.0748995,0.0,19.25030361111111,nan,-99.57679861111114,nan,0.0,0.0,9934.6885,0.0,0.0,0.0,0.0
1125.0,25.0,29.0,67.0,153.0,76.0,nan,-0.55,-7.86,0.81,3.9,-82.94,111.63,0.2,-0.12,-0.36,-0.63,0.53,-0.39,0.4,1.0,27.74,27.97,0.0748995,0.0,19.250299791666666,nan,-99.57673145833331,nan,0.0,0.0,9934.6885,0.0,0.0,2579.0,0.0
1148.0,32.0,31.0,67.0,116.0,101.0,nan,-0.69,-7.92,1.0,3.91,-82.92,111.64,0.97,-0.26,-0.22,-0.63,0.53,-0.39,0.4,1.0,27.77,27.92,0.074892,0.0,19.250295972222226,nan,-99.57666430555554,nan,0.0,0.0,9934.6885,0.0,0.0,2579.0,0.0
1170.0,27.0,27.0,77.0,125.0,111.0,nan,-0.61,-7.91,0.91,3.91,-82.93,111.64,-0.15,-0.05,-0.29,-0.63,0.53,-0.39,0.4,1.0,27.77,27.92,0.074892,0.0,19.250292152777778,nan,-99.57659715277777,nan,0.0,0.0,9934.6885,0.0,0.0,2579.0,0.0
1193.0,24.0,26.0,77.0,136.0,111.0,nan,-0.68,-7.93,0.92,3.91,-82.94,111.64,-0.15,-0.12,-0.29,-0.63,0.53,-0.39,0.4,1.0,27.77,27.92,0.074892,0.0,19.25028833333333,nan,-99.57652999999999,nan,0.0,0.0,9934.6885,0.0,0.0,2579.0,0.0
1212.0,32.0,30.0,107.0,154.0,111.0,nan,-0.6,-7.95,1.0,3.91,-82.92,111.64,0.76,-0.26,-0.36,-0.63,0.53,-0.39,0.4,1.0,27.77,27.92,0.074892,0.0,19.25028451388889,nan,-99.57646284722222,nan,0.0,0.0,9934.6885,0.0,0.0,2579.0,0.0
1235.0,37.0,27.0,53.0,137.0,125.0,nan,-0.59,-7.88,0.82,3.9,-82.94,111.64,-0.64,0.02,-0.43,-0.63,0.53,-0.39,0.4,1.0,27.77,27.92,0.074892,0.0,19.250280694444445,nan,-99.57639569444444,nan,0.0,0.0,9934.6885,0.0,0.0,2579.0,0.0
1254.0,31.0,29.0,87.0,137.0,111.0,nan,-0.62,-7.95,1.01,3.9,-82.92,111.64,1.25,-0.26,-0.08,-0.63,0.53,-0.39,0.4,1.0,27.77,27.92,0.074892,0.0,19.250280694444445,nan,-99.57639569444444,nan,0.0,0.0,9934.6885,0.0,0.0,0.0,0.0
1277.0,18.0,31.0,48.0,138.0,109.0,nan,-0.59,-7.85,0.79,3.91,-82.95,111.65,0.27,-0.19,-0.22,-0.63,0.53,-0.39,0.4,1.0,27.77,27.92,0.074892,0.0,19.250276875000004,nan,-99.57632854166667,nan,0.0,0.0,9934.6885,0.0,0.0,2579.0,0.0
1304.0,26.0,30.0,77.0,156.0,96.0,nan,-0.6,-7.87,0.96,3.9,-82.93,111.65,1.25,-0.26,-0.29,-0.63,0.53,-0.39,0.4,1.0,27.77,27.92,0.074892,0.0,19.250273055555557,nan,-99.57626138888888,nan,0.0,0.0,9934.6885,0.0,0.0,2579.0,0.0
1327.0,28.0,31.0,88.0,144.0,110.0,nan,-0.65,-7.93,0.97,3.9,-82.92,111.65,0.48,-0.26,-0.36,-0.63,0.53,-0.39,0.4,1.0,27.77,27.92,0.074892,0.0,19.25026923611111,nan,-99.5761942361111,nan,0.0,0.0,9934.6885,0.0,0.0,2579.0,0.0
1346.0,26.0,31.0,108.0,139.0,110.0,nan,-0.61,-7.91,0.87,3.9,-82.94,111.66,-0.5,-0.12,-0.29,-0.63,0.53,-0.39,0.4,1.0,27.77,27.92,0.074892,0.0,19.250265416666664,nan,-99.57612708333333,nan,0.0,0.0,9934.6885,0.0,0.0,2579.0,0.0
1369.0,30.0,31.0,58.0,139.0,111.0,nan,-0.7,-7.95,0.98,3.91,-82.92,111.66,0.76,-0.26,-0.15,-0.63,0.53,-0.39,0.4,1.0,27.77,27.92,0.074892,0.0,19.250261597222224,nan,-99.57605993055556,nan,0.0,0.0,9934.6885,0.0,0.0,2579.0,0.0
1388.0,21.0,17.0,88.0,154.0,112.0,nan,-0.55,-7.85,0.86,3.9,-82.93,111.66,0.06,-0.12,-0.36,-0.63,0.53,-0.39,0.4,1.0,27.77,27.92,0.074892,0.0,19.250257777777783,nan,-99.57599277777778,nan,0.0,0.0,9934.6885,0.0,0.0,2579.0,0.0
1411.0,26.0,31.0,77.0,139.0,124.0,nan,-0.67,-7.9,0.99,3.9,-82.93,111.66,0.13,-0.19,-0.36,-0.63,0.53,-0.39,0.4,1.0,27.77,27.92,0.074892,0.0,19.250257777777783,nan,-99.57599277777778,nan,0.0,0.0,9934.6885,0.0,0.0,0.0,0.0
1431.0,26.0,31.0,68.0,125.0,111.0,nan,-0.63,-7.98,0.95,3.9,-82.95,111.66,-0.99,-0.05,-0.43,-0.63,0.53,-0.39,0.4,1.0,27.77,27.92,0.074892,0.0,19.250253958333335,nan,-99.57592562500001,nan,0.0,0.0,9934.6885,0.0,0.0,2579.0,0.0
1454.0,31.0,29.0,67.0,139.0,110.0,nan,-0.69,-7.91,0.8,3.91,-82.98,111.66,-0.92,-0.05,-0.29,-0.63,0.53,-0.39,0.4,1.0,27.77,27.92,0.074892,0.0,19.250250138888887,nan,-99.57585847222224,nan,0.0,0.0,9934.6885,0.0,0.0,2579.0,0.0
1473.0,37.0,27.0,88.0,137.0,118.0,nan,-0.6,-7.93,0.95,3.91,-82.97,111.66,0.55,-0.05,-0.22,-0.63,0.53,-0.39,0.4,1.0,27.77,27.92,0.074892,0.0,19.250246319444443,nan,-99.57579131944446,nan,0.0,0.0,9934.6885,0.0,0.0,2579.0,0.0
1496.0,27.0,30.0,67.0,162.0,111.0,nan,-0.57,-7.84,0.78,3.9,-82.98,111.67,0.62,-0.19,-0.22,-0.63,0.53,-0.39,0.4,1.0,27.77,27.92,0.074892,0.0,19.250242500000002,nan,-99.57572416666669,nan,0.0,0.0,9934.6885,0.0,0.0,2579.0,0.0
1523.0,31.0,26.0,136.0,137.0,117.0,nan,-0.7,-7.98,0.98,3.91,-82.95,111.67,1.11,-0.33,-0.22,-0.63,0.53,-0.39,0.4,1.0,27.77,27.92,0.074892,0.0,19.250238680555555,nan,-99.57565701388889,nan,0.0,0.0,9934.6885,0.0,0.0,2579.0,0.0
1545.0,19.0,31.0,108.0,152.0,110.0,nan,-0.62,-7.87,0.88,3.91,-82.94,111.68,1.04,-0.26,-0.29,-0.63,0.53,-0.39,0.4,1.0,27.77,27.92,0.074892,0.0,19.250234861111114,nan,-99.57558986111111,nan,0.0,0.0,9934.6885,0.0,0.0,2579.0,0.0
1565.0,25.0,29.0,78.0,160.0,110.0,nan,-0.63,-7.85,0.94,3.91,-82.92,111.68,0.97,-0.19,-0.29,-0.63,0.53,-0.39,0.4,1.0,27.77,27.92,0.074892,0.0,19.250234861111114,nan,-99.57558986111111,nan,0.0,0.0,9934.6885,0.0,0.0,0.0,0.0
1588.0,27.0,18.0,137.0,132.0,110.0,nan,-0.61,-7.94,1.07,3.91,-82.89,111.69,1.53,-0.4,-0.29,-0.63,0.53,-0.39,0.4,1.0,27.77,27.92,0.074892,0.0,19.250231041666666,nan,-99.57552270833334,nan,0.0,0.0,9934.6885,0.0,0.0,2579.0,0.0
1607.0,27.0,31.0,78.0,137.0,110.0,nan,-0.62,-7.87,0.84,3.9,-82.93,111.68,-1.62,0.16,-0.36,-0.63,0.53,-0.39,0.4,1.0,27.74,27.93,0.074897,0.0,19.25022722222222,nan,-99.57545555555556,nan,0.0,0.0,9934.6885,0.0,0.0,2579.0,0.0
1632.0,22.0,18.0,76.0,160.0,111.0,nan,-0.67,-7.96,1.03,3.91,-82.92,111.69,0.41,-0.19,-0.15,-0.63,0.53,-0.39,0.4,1.0,27.74,27.93,0.074897,0.0,19.25022340277778,nan,-99.57538840277779,nan,0.0,0.0,9934.6885,0.0,0.0,2579.0,0.0
1652.0,31.0,30.0,55.0,154.0,125.0,nan,-0.61,-7.91,0.93,3.9,-82.93,111.69,-0.57,-0.12,-0.57,-0.63,0.53,-0.39,0.4,1.0,27.74,27.93,0.074897,0.0,19.250219583333333,nan,-99.57532125000002,nan,0.0,0.0,9934.6885,0.0,0.0,2579.0,0.0
1675.0,24.0,26.0,53.0,138.0,111.0,nan,-0.62,-8.01,1.0,3.9,-82.95,111.69,0.2,-0.19,-0.29,-0.63,0.53,-0.39,0.4,1.0,27.74,27.93,0.074897,0.0,19.250215763888892,nan,-99.57525409722224,nan,0.0,0.0,9934.6885,0.0,0.0,2579.0,0.0
1701.0,27.0,27.0,78.0,154.0,76.0,nan,-0.72,-7.95,0.85,3.9,-82.97,111.69,-0.64,-0.19,-0.36,-0.63,0.53,-0.39,0.4,1.0,27.74,27.93,0.074897,0.0,19.250211944444445,nan,-99.57518694444444,nan,0.0,0.0,9934.6885,0.0,0.0,2579.0,0.0
1724.0,16.0,17.0,77.0,125.0,101.0,nan,-0.59,-7.86,0.84,3.9,-82.96,111.69,0.76,-0.19,-0.22,-0.63,0.53,-0.39,0.4,1.0,27.74,27.93,0.074897,0.0,19.250211944444445,nan,-99.57518694444444,nan,0.0,0.0,9934.6885,0.0,0.0,0.0,0.0
1744.0,22.0,18.0,67.0,158.0,125.0,nan,-0.69,-7.89,0.99,3.91,-82.93,111.7,1.46,-0.33,-0.29,-0.63,0.53,-0.39,0.4,1.0,27.74,27.93,0.074897,0.0,19.250208125,nan,-99.57511979166667,nan,0.0,0.0,9934.6885,0.0,0.0,2579.0,0.0
1766.0,26.0,31.0,108.0,147.0,111.0,nan,-0.55,-7.86,0.86,3.9,-82.94,111.7,-0.01,-0.12,-0.36,-0.63,0.53,-0.39,0.4,1.0,27.74,27.93,0.074897,0.0,19.25020430555556,nan,-99.57505263888889,nan,0.0,0.0,9934.6885,0.0,0.0,2579.0,0.0
1786.0,17.0,29.0,52.0,139.0,96.0,nan,-0.72,-8.0,1.02,3.91,-82.93,111.71,0.55,-0.26,-0.15,-0.63,0.53,-0.39,0.4,1.0,27.74,27.93,0.074897,0.0,19.250200486111112,nan,-99.57498548611112,nan,0.0,0.0,9934.6885,0.0,0.0,2579.0,0.0
1809.0,37.0,26.0,78.0,137.0,112.0,nan,-0.62,-7.92,0.92,3.91,-82.93,111.71,0.13,-0.19,-0.36,-0.63,0.53,-0.39,0.4,1.0,27.74,27.93,0.074897,0.0,19.250196666666664,nan,-99.57491826118327,nan,0.0,0.0,9934.4951,1.0,1.0,2579.0,0.0
1828.0,18.0,19.0,67.0,138.0,109.0,nan,-0.63,-7.82,0.84,3.9,-82.94,111.71,-0.29,0.02,-0.36,-0.63,0.53,-0.39,0.4,1.0,27.74,27.93,0.074897,0.0,19.250196724137933,nan,-99.57491818903318,nan,0.0,0.0,9934.4951,0.0,0.0,2579.0,0.0
1851.0,38.0,26.0,77.0,154.0,111.0,nan,-0.59,-7.93,1.07,3.9,-82.91,111.71,1.39,-0.33,-0.15,-0.63,0.53,-0.39,0.4,1.0,27.74,27.93,0.074897,0.0,19.250196724137933,nan,-99.57491818903318,nan,0.0,0.0,9934.4951,0.0,0.0,0.0,0.0
1871.0,26.0,31.0,78.0,138.0,111.0,nan,-0.68,-7.93,0.86,3.9,-82.95,111.71,-1.9,0.02,-0.5,-0.63,0.53,-0.39,0.4,1.0,27.74,27.93,0.074897,0.0,19.250196752873563,nan,-99.57491811688313,nan,0.0,0.0,9934.4951,0.0,0.0,2579.0,0.0
1894.0,28.0,30.0,87.0,161.0,110.0,nan,-0.66,-7.91,0.96,3.91,-82.95,111.71,0.34,-0.19,-0.29,-0.63,0.53,-0.39,0.4,1.0,27.74,27.93,0.074897,0.0,19.250196781609198,nan,-99.57491804473305,nan,0.0,0.0,9934.4951,0.0,0.0,2579.0,0.0
1920.0,26.0,27.0,52.0,138.0,110.0,nan,-0.57,-7.85,0.86,3.9,-82.95,111.72,0.2,-0.12,-0.36,-0.63,0.53,-0.39,0.4,1.0,27.74,27.93,0.074897,0.0,19.250196810344832,nan,-99.57491797258298,nan,0.0,0.0,9934.4951,0.0,0.0,2579.0,0.0
1943.0,31.0,24.0,67.0,137.0,118.0,nan,-0.6,-7.94,0.93,3.9,-82.95,111.72,0.34,-0.26,-0.22,-0.63,0.53,-0.39,0.4,1.0,27.74,27.93,0.074897,0.0,19.25019683908046,nan,-99.5749179004329,nan,0.0,0.0,9934.4951,0.0,0.0,2579.0,0.0
1962.0,31.0,30.0,77.0,155.0,109.0,nan,-0.66,-7.96,0.92,3.91,-82.94,111.72,0.27,-0.19,-0.15,-0.63,0.53,-0.39,0.4,1.0,27.74,27.93,0.074897,0.0,19.25019686781609,nan,-99.57491782828284,nan,0.0,0.0,9934.4951,0.0,0.0,2579.0,0.0
1985.0,37.0,30.0,78.0,139.0,111.0,nan,-0.6,-7.9,0.84,3.91,-82.96,111.72,-0.08,0.02,-0.22,-0.63,0.53,-0.39,0.4,1.0,27.74,27.93,0.074897,0.0,19.25019686781609,nan,-99.57491782828284,nan,0.0,0.0,9934.4951,0.0,0.0,0.0,0.0
2005.0,19.0,30.0,107.0,140.0,104.0,nan,-0.69,-7.9,1.01,3.91,-82.93,111.73,1.25,-0.33,-0.22,-0.63,0.53,-0.39,0.4,1.0,27.74,27.93,0.074897,0.0,19.250196896551724,nan,-99.57491775613276,nan,0.0,0.0,9934.4951,0.0,0.0,2573.0,0.0
2028.0,31.0,29.0,67.0,138.0,110.0,nan,-0.58,-7.85,0.84,3.9,-82.94,111.73,0.13,-0.33,-0.43,-0.63,0.53,-0.39,0.4,1.0,27.74,27.93,0.074897,0.0,19.25019692528736,nan,-99.57491768398268,nan,0.0,0.0,9934.4951,0.0,0.0,2573.0,0.0
2047.0,30.0,29.0,76.0,140.0,126.0,nan,-0.68,-7.88,0.92,3.91,-82.92,111.74,1.11,-0.26,-0.15,-0.63,0.53,-0.39,0.4,1.0,27.74,27.93,0.074897,0.0,19.25019695402299,nan,-99.57491761183262,nan,0.0,0.0,9934.4951,0.0,0.0,2573.0,0.0
2070.0,31.0,30.0,120.0,149.0,111.0,nan,-0.72,-7.92,0.9,3.92,-82.92,111.74,-0.36,-0.05,-0.36,-0.63,0.53,-0.39,0.4,1.0,27.73,27.9,0.0748904,0.0,19.250196982758624,nan,-99.57491753968254,nan,0.0,0.0,9934.4951,0.0,0.0,2573.0,0.0
2102.0,26.0,20.0,134.0,159.0,124.0,nan,-0.57,-7.87,0.96,3.91,-82.9,111.74,0.97,-0.26,-0.29,-0.63,0.53,-0.39,0.4,1.0,27.73,27.9,0.0748904,0.0,19.250197011494258,nan,-99.57491746753246,nan,0.0,0.0,9934.4951,0.0,0.0,2573.0,0.0
2121.0,32.0,17.0,88.0,148.0,111.0,nan,-0.68,-7.92,0.98,3.91,-82.91,111.75,-0.57,-0.19,-0.36,-0.63,0.53,-0.39,0.4,1.0,27.73,27.9,0.0748904,0.0,19.25019704022989,nan,-99.5749173953824,nan,0.0,0.0,9934.4951,0.0,0.0,2573.0,0.0
2144.0,18.0,29.0,52.0,138.0,124.0,nan,-0.6,-7.9,0.86,3.91,-82.93,111.75,-0.57,-0.12,-0.29,-0.63,0.53,-0.39,0.4,1.0,27.73,27.9,0.0748904,0.0,19.250197068965516,nan,-99.57491732323233,nan,0.0,0.0,9934.4951,0.0,0.0,2573.0,0.0
2164.0,21.0,26.0,77.0,135.0,111.0,nan,-0.72,-7.96,0.97,3.92,-82.93,111.75,-0.08,-0.19,-0.29,-0.63,0.53,-0.39,0.4,1.0,27.73,27.9,0.0748904,0.0,19.250197068965516,nan,-99.57491732323233,nan,0.0,0.0,9934.4951,0.0,0.0,0.0,0.0
2187.0,22.0,30.0,67.0,156.0,111.0,nan,-0.57,-7.87,0.87,3.91,-82.93,111.75,0.62,-0.33,-0.36,-0.63,0.53,-0.39,0.4,1.0,27.73,27.9,0.0748904,0.0,19.25019709770115,nan,-99.57491725108225,nan,0.0,0.0,9934.4951,0.0,0.0,2573.0,0.0
2206.0,25.0,19.0,135.0,155.0,110.0,nan,-0.58,-7.79,0.85,3.91,-82.93,111.76,0.13,-0.12,-0.36,-0.63,0.53,-0.39,0.4,1.0,27.73,27.9,0.0748904,0.0,19.250197126436785,nan,-99.57491717893218,nan,0.0,0.0,9934.4951,0.0,0.0,2573.0,0.0
2229.0,30.0,21.0,40.0,137.0,109.0,nan,-0.62,-7.96,1.09,3.91,-82.9,111.76,1.53,-0.33,-0.22,-0.63,0.53,-0.39,0.4,1.0,27.73,27.9,0.0748904,0.0,19.250197155172415,nan,-99.57491710678211,nan,0.0,0.0,9934.4951,0.0,0.0,2573.0,0.0
2249.0,27.0,22.0,135.0,154.0,110.0,nan,-0.63,-7.9,0.88,3.9,-82.92,111.76,-0.64,-0.12,-0.57,-0.63,0.53,-0.39,0.4,1.0,27.73,27.9,0.0748904,0.0,19.25019718390805,nan,-99.57491703463204,nan,0.0,0.0,9934.4951,0.0,0.0,2573.0,0.0
2272.0,29.0,18.0,62.0,126.0,111.0,nan,-0.54,-7.97,1.03,3.89,-82.92,111.76,-0.92,0.02,-0.43,-0.63,0.53,-0.39,0.4,1.0,27.73,27.9,0.0748904,0.0,19.250197212643677,nan,-99.57491696248196,nan,0.0,0.0,9934.4951,0.0,0.0,2573.0,0.0
2298.0,28.0,31.0,39.0,137.0,110.0,nan,-0.55,-7.93,0.89,3.88,-82.98,111.76,-2.81,0.3,-0.36,-0.63,0.53,-0.39,0.4,1.0,27.73,27.9,0.0748904,0.0,19.25019724137931,nan,-99.57491689033189,nan,0.0,0.0,9934.4951,0.0,0.0,2573.0,0.0
2321.0,29.0,31.0,147.0,155.0,110.0,nan,-0.53,-8.02,0.81,3.88,-83.04,111.75,-2.11,0.09,-0.22,-0.63,0.53,-0.39,0.4,1.0,27.73,27.9,0.0748904,0.0,19.25019724137931,nan,-99.57491689033189,nan,0.0,0.0,9934.4951,0.0,0.0,0.0,0.0
2341.0,31.0,30.0,92.0,154.0,111.0,nan,-0.6,-7.98,0.8,3.88,-83.06,111.75,-0.43,0.02,-0.08,-0.63,0.53,-0.39,0.4,1.0,27.73,27.9,0.0748904,0.0,19.250197270114942,nan,-99.57491681818182,nan,0.0,0.0,9934.4951,0.0,0.0,2573.0,0.0
2364.0,32.0,30.0,52.0,138.0,111.0,nan,-0.55,-7.93,0.7,3.88,-83.07,111.75,0.2,-0.05,-0.15,-0.63,0.53,-0.39,0.4,1.0,27.73,27.9,0.0748904,0.0,19.250197298850576,nan,-99.57491674603173,nan,0.0,0.0,9934.4951,0.0,0.0,2573.0,0.0
2383.0,26.0,31.0,66.0,154.0,112.0,nan,-0.76,-7.99,0.93,3.89,-83.03,111.76,2.37,-0.54,0.06,-0.63,0.53,-0.39,0.4,1.0,27.73,27.9,0.0748904,0.0,19.25019732758621,nan,-99.57491667388167,nan,0.0,0.0,9934.4951,0.0,0.0,2573.0,0.0
2406.0,17.0,30.0,55.0,138.0,110.0,nan,-0.76,-7.89,0.78,3.9,-83.0,111.77,2.16,-0.54,-0.15,-0.63,0.53,-0.39,0.4,1.0,27.73,27.9,0.0748904,0.0,19.250197356321838,nan,-99.5749166017316,nan,0.0,0.0,9934.4951,0.0,0.0,2573.0,0.0
2425.0,37.0,25.0,110.0,139.0,111.0,nan,-0.89,-7.78,0.86,3.93,-82.96,111.78,2.3,-0.47,0.06,-0.63,0.53,-0.39,0.4,1.0,27.73,27.9,0.0748904,0.0,19.250197356321838,nan,-99.5749166017316,nan,0.0,0.0,9934.4951,0.0,0.0,0.0,0.0
2448.0,27.0,31.0,68.0,125.0,119.0,nan,-0.94,-7.77,0.88,3.97,-82.89,111.79,0.76,-0.26,-0.36,-0.63,0.53,-0.39,0.4,1.0,27.73,27.9,0.0748904,0.0,19.25019738505747,nan,-99.57491652958156,nan,0.0,0.0,9934.4951,0.0,0.0,2573.0,0.0
2475.0,26.0,30.0,77.0,137.0,111.0,nan,-0.94,-7.77,0.88,3.97,-82.89,111.79,0.0,0.0,0.0,-0.63,0.53,-0.39,0.4,1.0,27.73,27.9,0.0748904,0.0,19.250197413793103,nan,-99.57491645743146,nan,0.0,0.0,9934.4951,0.0,0.0,2573.0,0.0
2492.0,31.0,30.0,66.0,134.0,111.0,nan,-0.78,-7.84,1.06,3.99,-82.78,111.81,2.72,-0.47,-0.57,-0.63,0.53,-0.39,0.4,1.0,27.73,27.9,0.0748904,0.0,19.250197442528737,nan,-99.57491638528138,nan,0.0,0.0,9934.4951,0.0,0.0,2573.0,0.0
2517.0,18.0,30.0,77.0,137.0,111.0,nan,-0.54,-7.81,1.12,3.97,-82.72,111.82,2.16,-0.26,-0.64,-0.63,0.53,-0.39,0.4,1.0,27.73,27.9,0.0748904,0.0,19.250197471264368,nan,-99.57491631313134,nan,0.0,0.0,9934.4951,0.0,0.0,2573.0,0.0
2540.0,17.0,31.0,108.0,160.0,111.0,nan,-0.51,-7.91,1.3,3.96,-82.67,111.82,1.74,-0.4,-0.57,-0.63,0.53,-0.39,0.4,1.0,27.76,27.94,0.0748995,0.0,19.250197499999995,nan,-99.57491624098124,nan,0.0,0.0,9934.4951,0.0,0.0,2573.0,0.0
2562.0,26.0,31.0,77.0,134.0,111.0,nan,-0.33,-7.8,1.19,3.92,-82.67,111.82,-0.92,-0.05,-0.78,-0.63,0.53,-0.39,0.4,1.0,27.76,27.94,0.0748995,0.0,19.25019752873563,nan,-99.57491616883117,nan,0.0,0.0,9934.4951,0.0,0.0,2573.0,0.0
2584.0,17.0,30.0,77.0,137.0,96.0,nan,-0.31,-7.92,1.13,3.89,-82.72,111.82,-2.88,0.3,-0.71,-0.63,0.53,-0.39,0.4,1.0,27.76,27.94,0.0748995,0.0,19.250197557471264,nan,-99.5749160966811,nan,0.0,0.0,9934.4951,0.0,0.0,2573.0,0.0
2604.0,19.0,31.0,68.0,137.0,122.0,nan,-0.3,-8.05,1.2,3.87,-82.8,111.81,-4.56,0.44,-0.57,-0.63,0.53,-0.39,0.4,1.0,27.76,27.94,0.0748995,0.0,19.250197557471264,nan,-99.5749160966811,nan,0.0,0.0,9934.4951,0.0,0.0,0.0,0.0
2627.0,17.0,30.0,55.0,133.0,110.0,nan,-0.33,-8.06,0.82,3.84,-82.97,111.79,-7.71,0.93,-0.71,-0.63,0.53,-0.39,0.4,1.0,27.76,27.94,0.0748995,0.0,19.250197586206895,nan,-99.57491602453102,nan,0.0,0.0,9934.4951,0.0,0.0,2573.0,0.0
2646.0,26.0,20.0,97.0,138.0,112.0,nan,-0.39,-8.01,0.68,3.83,-83.12,111.77,-6.24,0.65,-0.08,-0.63,0.53,-0.39,0.4,1.0,27.76,27.94,0.0748995,0.0,19.25019761494253,nan,-99.57491595238095,nan,0.0,0.0,9934.4951,0.0,0.0,2573.0,0.0
2669.0,24.0,26.0,87.0,138.0,110.0,nan,-0.67,-7.99,0.43,3.83,-83.33,111.76,-2.18,0.09,-0.15,-0.63,0.54,-0.39,0.4,1.0,27.76,27.94,0.0748995,0.0,19.250197643678163,nan,-99.57491588023088,nan,0.0,0.0,9934.4951,0.0,0.0,2573.0,0.0
2696.0,26.0,19.0,67.0,138.0,111.0,nan,-0.84,-8.05,0.56,3.85,-83.32,111.77,1.88,-0.61,-0.01,-0.63,0.54,-0.39,0.4,1.0,27.76,27.94,0.0748995,0.0,19.25019767241379,nan,-99.57491580808083,nan,0.0,0.0,9934.4951,0.0,0.0,2573.0,0.0
2718.0,30.0,18.0,77.0,138.0,110.0,nan,-0.97,-7.87,0.53,3.88,-83.26,111.78,4.47,-0.82,0.13,-0.63,0.54,-0.39,0.4,1.0,27.76,27.94,0.0748995,0.0,19.25019770114942,nan,-99.57491573593073,nan,0.0,0.0,9934.4951,0.0,0.0,2573.0,0.0
2738.0,24.0,26.0,76.0,137.0,112.0,nan,-0.96,-7.79,0.74,3.91,-83.12,111.8,7.34,-0.96,0.06,-0.63,0.53,-0.39,0.4,1.0,27.76,27.94,0.0748995,0.0,19.25019770114942,nan,-99.57491573593073,nan,0.0,0.0,9934.4951,0.0,0.0,0.0,0.0
2761.0,17.0,18.0,67.0,138.0,112.0,nan,-1.04,-7.79,1.01,3.95,-82.97,111.82,7.2,-1.1,-0.08,-0.63,0.53,-0.39,0.4,1.0,27.76,27.94,0.0748995,0.0,19.250197729885056,nan,-99.57491566378066,nan,0.0,0.0,9934.4951,0.0,0.0,2573.0,0.0
2780.0,17.0,31.0,78.0,138.0,109.0,nan,-0.91,-7.73,1.03,3.96,-82.88,111.84,4.26,-0.68,-0.5,-0.63,0.53,-0.39,0.4,1.0,27.76,27.94,0.0748995,0.0,19.25019775862069,nan,-99.57491559163061,nan,0.0,0.0,9934.4951,0.0,0.0,2573.0,0.0
2803.0,26.0,20.0,52.0,140.0,111.0,nan,-0.83,-7.83,1.14,3.97,-82.8,111.85,3.14,-0.47,-0.36,-0.63,0.53,-0.39,0.4,1.0,27.76,27.94,0.0748995,0.0,19.25019778735632,nan,-99.57491551948051,nan,0.0,0.0,9934.4951,0.0,0.0,2573.0,0.0
2823.0,27.0,30.0,119.0,133.0,120.0,nan,-0.61,-7.95,1.26,3.96,-82.81,111.84,-0.99,0.16,-0.78,-0.63,0.53,-0.39,0.4,1.0,27.76,27.94,0.0748995,0.0,19.250197816091955,nan,-99.57491544733044,nan,0.0,0.0,9934.4951,0.0,0.0,2573.0,0.0
2846.0,37.0,30.0,89.0,139.0,111.0,nan,-0.33,-7.91,0.97,3.93,-82.93,111.82,-2.53,0.3,-0.43,-0.63,0.53,-0.39,0.4,1.0,27.76,27.94,0.0748995,0.0,19.25019784482759,nan,-99.5749153751804,nan,0.0,0.0,9934.4951,0.0,0.0,2573.0,0.0
2872.0,27.0,30.0,77.0,155.0,111.0,nan,-0.33,-7.91,0.97,3.93,-82.93,111.82,0.0,0.0,0.0,-0.63,0.53,-0.39,0.4,1.0,27.76,27.94,0.0748995,0.0,19.25019787356322,nan,-99.5749153030303,nan,0.0,0.0,9934.4951,0.0,0.0,2573.0,0.0
2889.0,26.0,26.0,67.0,139.0,111.0,nan,-0.24,-7.82,0.86,3.87,-82.96,111.82,0.34,-0.12,-0.43,-0.63,0.53,-0.39,0.4,1.0,27.76,27.94,0.0748995,0.0,19.25019787356322,nan,-99.5749153030303,nan,0.0,0.0,9934.4951,0.0,0.0,0.0,0.0
2914.0,26.0,31.0,56.0,138.0,110.0,nan,-0.36,-8.0,1.03,3.85,-82.91,111.83,2.23,-0.47,-0.29,-0.63,0.53,-0.39,0.4,1.0,27.76,27.94,0.0748995,0.0,19.250197902298854,nan,-99.57491523088022,nan,0.0,0.0,9934.4951,0.0,0.0,2573.0,0.0
2937.0,27.0,31.0,147.0,133.0,104.0,nan,-0.42,-7.97,0.99,3.84,-82.87,111.84,1.81,-0.47,-0.29,-0.63,0.53,-0.39,0.4,1.0,27.76,27.94,0.0748995,0.0,19.25019793103448,nan,-99.57491515873018,nan,0.0,0.0,9934.4951,0.0,0.0,2573.0,0.0
2957.0,17.0,30.0,40.0,136.0,75.0,nan,-0.58,-7.98,1.03,3.84,-82.86,111.84,0.55,-0.26,-0.08,-0.63,0.53,-0.39,0.4,1.0,27.76,27.94,0.0748995,0.0,19.250197959770116,nan,-99.5749150865801,nan,0.0,0.0,9934.4951,0.0,0.0,2573.0,0.0
2980.0,23.0,26.0,109.0,139.0,104.0,nan,-0.73,-7.96,1.09,3.85,-82.87,111.85,-0.85,-0.19,0.13,-0.63,0.53,-0.39,0.4,1.0,27.76,27.94,0.0748995,0.0,19.250197988505747,nan,-99.57491501443,nan,0.0,0.0,9934.4951,0.0,0.0,2573.0,0.0
2999.0,25.0,30.0,66.0,135.0,75.0,nan,-0.8,-7.84,0.85,3.87,-82.93,111.85,-2.53,0.09,-0.15,-0.63,0.53,-0.39,0.4,1.0,27.74,27.94,0.0748962,0.0,19.25019801724138,nan,-99.57491494227993,nan,0.0,0.0,9934.4951,0.0,0.0,2572.8,0.0
3024.0,16.0,29.0,157.0,133.0,102.0,nan,-0.84,-7.8,0.84,3.89,-82.98,111.84,-1.83,0.02,-0.01,-0.63,0.53,-0.39,0.4,1.0,27.74,27.94,0.0748962,0.0,19.250198045977015,nan,-99.57491487012989,nan,0.0,0.0,9934.4951,0.0,0.0,2572.8,0.0
3044.0,19.0,30.0,151.0,134.0,111.0,nan,-0.92,-7.94,0.85,3.91,-83.01,111.84,-1.27,-0.05,-0.22,-0.63,0.53,-0.39,0.4,1.0,27.74,27.94,0.0748962,0.0,19.250198045977015,nan,-99.57491487012989,nan,0.0,0.0,9934.4951,0.0,0.0,0.0,0.0
3067.0,30.0,27.0,77.0,136.0,110.0,nan,-0.76,-7.87,0.92,3.94,-83.0,111.85,1.74,-0.26,-0.36,-0.63,0.53,-0.39,0.4,1.0,27.74,27.94,0.0748962,0.0,19.250198074712646,nan,-99.57491479797979,nan,0.0,0.0,9934.4951,0.0,0.0,2572.8,0.0
3093.0,31.0,29.0,76.0,139.0,116.0,nan,-0.7,-7.82,0.8,3.94,-82.99,111.85,1.32,-0.33,-0.57,-0.63,0.53,-0.39,0.4,1.0,27.74,27.94,0.0748962,0.0,19.25019810344828,nan,-99.57491472582971,nan,0.0,0.0,9934.4951,0.0,0.0,2572.8,0.0
3116.0,37.0,30.0,108.0,132.0,75.0,nan,-0.54,-7.88,0.88,3.93,-82.99,111.85,0.41,-0.05,-0.57,-0.63,0.53,-0.39,0.4,1.0,27.74,27.94,0.0748962,0.0,19.250198132183908,nan,-99.57491465367967,nan,0.0,0.0,9934.4951,0.0,0.0,2572.8,0.0
3135.0,17.0,31.0,108.0,125.0,102.0,nan,-0.62,-8.08,1.0,3.92,-82.98,111.85,0.27,-0.12,-0.5,-0.63,0.53,-0.39,0.4,1.0,27.74,27.94,0.0748962,0.0,19.250198160919542,nan,-99.57491458152957,nan,0.0,0.0,9934.4951,0.0,0.0,2572.8,0.0
3158.0,27.0,31.0,77.0,166.0,110.0,nan,-0.46,-7.92,0.82,3.9,-83.03,111.85,-1.69,0.09,-0.64,-0.63,0.53,-0.39,0.4,1.0,27.74,27.94,0.0748962,0.0,19.250198189655173,nan,-99.5749145093795,nan,0.0,0.0,9934.4951,0.0,0.0,2572.8,0.0
3178.0,24.0,29.0,108.0,149.0,76.0,nan,-0.48,-7.91,0.79,3.89,-83.04,111.85,-0.22,0.02,-0.29,-0.63,0.53,-0.39,0.4,1.0,27.74,27.94,0.0748962,0.0,19.250198189655173,nan,-99.5749145093795,nan,0.0,0.0,9934.4951,0.0,0.0,0.0,0.0
3200.0,17.0,31.0,88.0,138.0,103.0,nan,-0.48,-7.96,0.89,3.88,-83.03,111.85,0.9,-0.33,-0.22,-0.63,0.53,-0.39,0.4,1.0,27.74,27.94,0.0748962,0.0,19.250198218390807,nan,-99.57491443722945,nan,0.0,0.0,9934.4951,0.0,0.0,2572.8,0.0
3220.0,27.0,30.0,67.0,133.0,111.0,nan,-0.59,-7.92,0.76,3.88,-83.04,111.85,0.27,-0.12,-0.29,-0.63,0.53,-0.39,0.4,1.0,27.74,27.94,0.0748962,0.0,19.25019824712644,nan,-99.57491436507938,nan,0.0,0.0,9934.4951,0.0,0.0,2572.8,0.0
3243.0,29.0,21.0,109.0,138.0,97.0,nan,-0.65,-7.92,0.98,3.88,-82.88,111.87,3.49,-0.54,-0.29,-0.63,0.53,-0.39,0.4,1.0,27.74,27.94,0.0748962,0.0,19.25019827586207,nan,-99.57491429292928,nan,0.0,0.0,9934.4951,0.0,0.0,2572.8,0.0
3269.0,26.0,30.0,78.0,154.0,109.0,nan,-0.65,-7.92,0.98,3.88,-82.88,111.87,0.0,0.0,0.0,-0.63,0.53,-0.39,0.4,1.0,27.74,27.94,0.0748962,0.0,19.2501983045977,nan,-99.57491422077923,nan,0.0,0.0,9934.4951,0.0,0.0,2572.8,0.0
3287.0,26.0,20.0,52.0,124.0,111.0,nan,-0.76,-8.01,1.19,3.89,-82.8,111.89,0.76,-0.4,-0.08,-0.63,0.53,-0.39,0.4,1.0,27.74,27.94,0.0748962,0.0,19.250198333333334,nan,-99.57491414862916,nan,0.0,0.0,9934.4951,0.0,0.0,2572.8,0.0
3312.0,28.0,30.0,108.0,139.0,108.0,nan,-0.68,-7.79,0.96,3.9,-82.81,111.89,-0.5,-0.12,-0.29,-0.63,0.53,-0.39,0.4,1.0,27.74,27.94,0.0748962,0.0,19.250198362068968,nan,-99.57491407647906,nan,0.0,0.0,9934.4951,0.0,0.0,2572.8,0.0
3335.0,28.0,30.0,55.0,149.0,75.0,nan,-0.69,-7.89,1.08,3.9,-82.8,111.9,-0.01,-0.12,-0.22,-0.63,0.53,-0.39,0.4,1.0,27.74,27.94,0.0748962,0.0,19.250198362068968,nan,-99.57491407647906,nan,0.0,0.0,9934.4951,0.0,0.0,0.0,0.0
3354.0,26.0,21.0,108.0,139.0,74.0,nan,-0.73,-7.91,1.08,3.91,-82.83,111.9,-1.48,-0.05,-0.29,-0.63,0.53,-0.39,0.4,1.0,27.74,27.94,0.0748962,0.0,19.2501983908046,nan,-99.57491400432902,nan,0.0,0.0,9934.4951,0.0,0.0,2572.8,0.0
3377.0,20.0,29.0,124.0,149.0,95.0,nan,-0.67,-7.87,0.83,3.91,-82.9,111.89,-3.02,0.3,-0.43,-0.63,0.53,-0.39,0.4,1.0,27.74,27.94,0.0748962,0.0,19.250198419540226,nan,-99.57491393217894,nan,0.0,0.0,9934.4951,0.0,0.0,2572.8,0.0
3396.0,37.0,26.0,121.0,138.0,97.0,nan,-0.71,-7.9,0.96,3.92,-82.91,111.89,-0.29,-0.12,-0.22,-0.63,0.53,-0.39,0.4,1.0,27.74,27.94,0.0748962,0.0,19.25019844827586,nan,-99.57491386002884,nan,0.0,0.0,9934.4951,0.0,0.0,2572.8,0.0
3419.0,28.0,31.0,108.0,138.0,111.0,nan,-0.59,-7.87,0.89,3.91,-82.94,111.88,-1.48,0.16,-0.57,-0.63,0.53,-0.39,0.4,1.0,27.74,27.94,0.0748962,0.0,19.250198477011494,nan,-99.57491378787877,nan,0.0,0.0,9934.4951,0.0,0.0,2572.8,0.0
3439.0,31.0,29.0,119.0,133.0,111.0,nan,-0.63,-7.89,0.82,3.91,-82.98,111.88,-1.41,0.02,-0.5,-0.63,0.53,-0.39,0.4,1.0,27.74,27.94,0.0748962,0.0,19.250198477011494,nan,-99.57491378787877,nan,0.0,0.0,9934.4951,0.0,0.0,0.0,0.0
3462.0,26.0,31.0,99.0,137.0,110.0,nan,-0.64,-7.91,0.69,3.9,-83.06,111.88,-1.41,0.02,-0.36,-0.63,0.53,-0.39,0.4,1.0,27.74,27.96,0.0748954,0.0,19.250198505747125,nan,-99.57491371572873,nan,0.0,0.0,9934.4951,0.0,0.0,2572.8,0.0
3493.0,25.0,30.0,68.0,139.0,118.0,nan,-0.53,-7.86,0.79,3.89,-83.06,111.88,0.62,-0.19,-0.36,-0.63,0.53,-0.39,0.4,1.0,27.74,27.96,0.0748954,0.0,19.25019853448276,nan,-99.57491364357865,nan,0.0,0.0,9934.4951,0.0,0.0,2572.8,0.0
3513.0,38.0,26.0,125.0,134.0,116.0,nan,-0.64,-7.93,0.83,3.89,-83.06,111.89,0.55,-0.26,-0.43,-0.63,0.53,-0.39,0.4,1.0,27.74,27.96,0.0748954,0.0,19.250198563218387,nan,-99.57491357142855,nan,0.0,0.0,9934.4951,0.0,0.0,2572.8,0.0
3536.0,21.0,30.0,88.0,137.0,110.0,nan,-0.51,-7.88,0.73,3.88,-83.05,111.89,0.9,-0.4,-0.43,-0.63,0.53,-0.39,0.4,1.0,27.74,27.96,0.0748954,0.0,19.25019859195402,nan,-99.57491349927851,nan,0.0,0.0,9934.4951,0.0,0.0,2572.8,0.0
3555.0,26.0,30.0,66.0,160.0,124.0,nan,-0.65,-8.02,0.91,3.89,-83.02,111.9,2.16,-0.47,-0.08,-0.63,0.53,-0.39,0.4,1.0,27.74,27.96,0.0748954,0.0,19.250198620689652,nan,-99.57491342712844,nan,0.0,0.0,9934.4951,0.0,0.0,2572.8,0.0
3578.0,28.0,31.0,109.0,162.0,124.0,nan,-0.59,-7.95,0.94,3.88,-82.98,111.91,1.74,-0.33,-0.22,-0.63,0.53,-0.39,0.4,1.0,27.74,27.96,0.0748954,0.0,19.250198649425286,nan,-99.57491335497834,nan,0.0,0.0,9934.4951,0.0,0.0,2572.8,0.0
3598.0,18.0,25.0,53.0,134.0,112.0,nan,-0.62,-7.87,0.87,3.89,-82.96,111.91,1.46,-0.26,-0.22,-0.63,0.53,-0.39,0.4,1.0,27.74,27.96,0.0748954,0.0,19.25019867816092,nan,-99.57491328282829,nan,0.0,0.0,9934.4951,0.0,0.0,2572.8,0.0
3621.0,18.0,31.0,48.0,139.0,98.0,nan,-0.66,-7.86,0.92,3.89,-82.91,111.92,0.2,-0.19,-0.29,-0.63,0.53,-0.39,0.4,1.0,27.74,27.96,0.0748954,0.0,19.25019870689655,nan,-99.57491321067822,nan,0.0,0.0,9934.4951,0.0,0.0,2572.8,0.0
3647.0,31.0,17.0,67.0,154.0,111.0,nan,-0.65,-7.89,1.01,3.89,-82.89,111.93,1.25,-0.26,-0.22,-0.63,0.53,-0.39,0.4,1.0,27.74,27.96,0.0748954,0.0,19.25019870689655,nan,-99.57491321067822,nan,0.0,0.0,9934.4951,0.0,0.0,0.0,0.0
3670.0,27.0,31.0,77.0,137.0,119.0,nan,-0.68,-7.99,1.09,3.89,-82.88,111.93,0.06,-0.12,-0.36,-0.63,0.53,-0.39,0.4,1.0,27.74,27.96,0.0748954,0.0,19.250198735632186,nan,-99.57491313852812,nan,0.0,0.0,9934.4951,0.0,0.0,2572.8,0.0
3690.0,25.0,29.0,125.0,155.0,111.0,nan,-0.64,-7.84,0.9,3.9,-82.9,111.93,-0.57,-0.05,-0.22,-0.63,0.53,-0.39,0.4,1.0,27.74,27.96,0.0748954,0.0,19.250198764367813,nan,-99.57491306637807,nan,0.0,0.0,9934.4951,0.0,0.0,2572.8,0.0
3712.0,18.0,30.0,125.0,133.0,118.0,nan,-0.64,-7.89,0.95,3.9,-82.91,111.93,-0.57,0.02,-0.22,-0.63,0.53,-0.39,0.4,1.0,27.74,27.96,0.0748954,0.0,19.250198793103447,nan,-99.574912994228,nan,0.0,0.0,9934.4951,0.0,0.0,2572.8,0.0
3732.0,18.0,30.0,136.0,155.0,109.0,nan,-0.7,-7.93,1.0,3.9,-82.92,111.93,-0.64,-0.19,-0.43,-0.63,0.53,-0.39,0.4,1.0,27.74,27.96,0.0748954,0.0,19.250198821839078,nan,-99.57491292207793,nan,0.0,0.0,9934.4951,0.0,0.0,2572.8,0.0
3755.0,31.0,30.0,109.0,139.0,110.0,nan,-0.58,-7.85,0.79,3.89,-82.95,111.93,-0.92,-0.05,-0.57,-0.63,0.53,-0.39,0.4,1.0,27.74,27.96,0.0748954,0.0,19.250198850574712,nan,-99.57491284992786,nan,0.0,0.0,9934.4951,0.0,0.0,2572.8,0.0
3774.0,21.0,27.0,82.0,134.0,109.0,nan,-0.67,-7.97,0.98,3.9,-82.94,111.93,0.55,-0.26,-0.29,-0.63,0.53,-0.39,0.4,1.0,27.74,27.96,0.0748954,0.0,19.250198850574712,nan,-99.57491284992786,nan,0.0,0.0,9934.4951,0.0,0.0,0.0,0.0
3797.0,26.0,29.0,53.0,125.0,110.0,nan,-0.6,-8.0,0.93,3.89,-82.96,111.94,-0.57,-0.12,-0.5,-0.63,0.53,-0.39,0.4,1.0,27.74,27.96,0.0748954,0.0,19.250198879310346,nan,-99.57491277777778,nan,0.0,0.0,9934.4951,0.0,0.0,2572.8,0.0
3817.0,17.0,30.0,119.0,156.0,118.0,nan,-0.7,-7.9,0.82,3.9,-82.98,111.94,-0.57,-0.12,-0.22,-0.63,0.53,-0.39,0.4,1.0,27.74,27.96,0.0748954,0.0,19.250198908045977,nan,-99.57491270562771,nan,0.0,0.0,9934.4951,0.0,0.0,2572.8,0.0
3840.0,27.0,31.0,156.0,125.0,110.0,nan,-0.66,-7.86,0.82,3.89,-82.98,111.94,-0.29,-0.19,-0.36,-0.63,0.53,-0.39,0.4,1.0,27.74,27.96,0.0748954,0.0,19.25019893678161,nan,-99.57491263347761,nan,0.0,0.0,9934.4951,0.0,0.0,2572.8,0.0
3866.0,27.0,26.0,88.0,137.0,125.0,nan,-0.55,-7.89,0.9,3.89,-82.99,111.94,-0.15,-0.12,-0.29,-0.63,0.53,-0.39,0.4,1.0,27.74,27.96,0.0748954,0.0,19.250198965517246,nan,-99.57491256132757,nan,0.0,0.0,9934.4951,0.0,0.0,2572.8,0.0
3889.0,26.0,26.0,82.0,133.0,111.0,nan,-0.7,-8.01,0.94,3.89,-82.99,111.95,0.2,-0.26,-0.43,-0.63,0.53,-0.39,0.4,1.0,27.74,27.96,0.0748954,0.0,19.250198994252877,nan,-99.57491248917749,nan,0.0,0.0,9934.4951,0.0,0.0,2572.8,0.0
3908.0,26.0,18.0,109.0,160.0,110.0,nan,-0.49,-7.82,0.78,3.88,-83.0,111.95,0.06,0.02,-0.36,-0.63,0.53,-0.39,0.4,1.0,27.74,27.96,0.0748954,0.0,19.250199022988504,nan,-99.57491241702745,nan,0.0,0.0,9934.4951,0.0,0.0,2572.8,0.0
3931.0,26.0,19.0,78.0,138.0,111.0,nan,-0.61,-7.92,0.94,3.88,-82.99,111.95,0.76,-0.26,-0.22,-0.63,0.53,-0.39,0.4,1.0,27.74,27.89,0.0748946,0.0,19.250199022988504,nan,-99.57491241702745,nan,0.0,0.0,9934.4951,0.0,0.0,0.0,0.0
3953.0,31.0,30.0,77.0,138.0,111.0,nan,-0.57,-7.91,0.93,3.88,-82.99,111.95,0.27,-0.19,-0.29,-0.63,0.53,-0.39,0.4,1.0,27.74,27.89,0.0748946,0.0,19.250199051724138,nan,-99.57491234487735,nan,0.0,0.0,9934.4951,0.0,0.0,2572.8,0.0
3976.0,27.0,29.0,83.0,139.0,110.0,nan,-0.62,-7.91,0.78,3.88,-83.01,111.95,-0.64,-0.05,-0.36,-0.63,0.53,-0.39,0.4,1.0,27.74,27.89,0.0748946,0.0,19.250199080459772,nan,-99.57491227272727,nan,0.0,0.0,9934.4951,0.0,0.0,2572.8,0.0
3996.0,26.0,31.0,88.0,139.0,125.0,nan,-0.61,-7.9,0.96,3.88,-82.97,111.96,2.23,-0.47,-0.01,-0.63,0.53,-0.39,0.4,1.0,27.74,27.89,0.0748946,0.0,19.250199109195403,nan,-99.57491220057723,nan,0.0,0.0,9934.4951,0.0,0.0,2572.8,0.0
4019.0,29.0,29.0,52.0,125.0,109.0,nan,-0.62,-7.92,0.95,3.88,-82.95,111.97,1.25,-0.4,-0.22,-0.63,0.53,-0.39,0.4,1.0,27.74,27.89,0.0748946,0.0,19.250199137931038,nan,-99.57491212842713,nan,0.0,0.0,9934.4951,0.0,0.0,2572.8,0.0
4045.0,26.0,30.0,67.0,154.0,110.0,nan,-0.63,-7.91,0.98,3.88,-82.93,111.97,0.76,-0.26,-0.36,-0.63,0.53,-0.39,0.4,1.0,27.74,27.89,0.0748946,0.0,19.250199166666672,nan,-99.57491205627706,nan,0.0,0.0,9934.4951,0.0,0.0,2572.8,0.0
4068.0,17.0,30.0,125.0,154.0,117.0,nan,-0.58,-7.83,0.84,3.88,-82.93,111.97,0.62,-0.12,-0.29,-0.63,0.53,-0.39,0.4,1.0,27.74,27.89,0.0748946,0.0,19.2501991954023,nan,-99.57491198412701,nan,0.0,0.0,9934.4951,0.0,0.0,2572.8,0.0
4088.0,26.0,29.0,99.0,138.0,111.0,nan,-0.54,-7.94,1.13,3.86,-82.89,111.98,1.32,-0.26,-0.5,-0.63,0.53,-0.39,0.4,1.0,27.74,27.89,0.0748946,0.0,19.2501991954023,nan,-99.57491198412701,nan,0.0,0.0,9934.4951,0.0,0.0,0.0,0.0
4110.0,37.0,26.0,81.0,154.0,110.0,nan,-0.57,-7.87,0.9,3.86,-82.9,111.98,-0.08,-0.19,-0.5,-0.63,0.53,-0.39,0.4,1.0,27.74,27.89,0.0748946,0.0,19.25019922413793,nan,-99.57491191197691,nan,0.0,0.0,9934.4951,0.0,0.0,2572.8,0.0
4130.0,37.0,26.0,39.0,139.0,111.0,nan,-0.42,-7.81,0.98,3.84,-82.89,111.98,0.48,-0.19,-0.57,-0.63,0.53,-0.39,0.4,1.0,27.74,27.89,0.0748946,0.0,19.250199252873564,nan,-99.57491183982684,nan,0.0,0.0,9934.4951,0.0,0.0,2572.8,0.0
4153.0,26.0,26.0,53.0,137.0,111.0,nan,-0.48,-7.9,1.01,3.82,-82.88,111.98,0.48,-0.19,-0.5,-0.63,0.53,-0.39,0.4,1.0,27.74,27.89,0.0748946,0.0,19.2501992816092,nan,-99.57491176767677,nan,0.0,0.0,9934.4951,0.0,0.0,2572.8,0.0
4172.0,18.0,31.0,107.0,138.0,109.0,nan,-0.29,-7.65,0.89,3.79,-82.91,111.98,-1.13,0.02,-0.92,-0.63,0.53,-0.39,0.4,1.0,27.74,27.89,0.0748946,0.0,19.25019931034483,nan,-99.57491169552672,nan,0.0,0.0,9934.4951,0.0,0.0,2572.8,0.0
4195.0,28.0,30.0,67.0,155.0,111.0,nan,-0.23,-7.72,0.91,3.75,-82.88,111.99,1.46,-0.47,-1.06,-0.63,0.53,-0.39,0.4,1.0,27.74,27.89,0.0748946,0.0,19.25019931034483,nan,-99.57491169552672,nan,0.0,0.0,9934.4951,0.0,0.0,0.0,0.0
4215.0,31.0,30.0,125.0,155.0,125.0,nan,-0.1,-7.77,1.06,3.68,-82.84,111.99,1.53,-0.47,-1.62,-0.63,0.53,-0.39,0.4,1.0,27.74,27.89,0.0748946,0.0,19.250199339080456,nan,-99.57491162337662,nan,0.0,0.0,9934.4951,0.0,0.0,2572.8,0.0
4237.0,27.0,30.0,157.0,147.0,105.0,nan,0.05,-8.16,1.14,3.55,-82.86,111.99,-1.48,-0.19,-1.13,-0.63,0.54,-0.39,0.4,1.0,27.74,27.89,0.0748946,0.0,19.25019936781609,nan,-99.57491155122655,nan,0.0,0.0,9934.4951,0.0,0.0,2572.8,0.0
4264.0,18.0,27.0,217.0,147.0,73.0,nan,0.04,-8.12,0.98,3.49,-82.9,111.99,-1.76,0.09,-0.99,-0.63,0.54,-0.39,0.4,1.0,27.74,27.89,0.0748946,0.0,19.250199396551725,nan,-99.5749114790765,nan,0.0,0.0,9934.4951,0.0,0.0,2572.8,0.0
4286.0,32.0,31.0,99.0,137.0,102.0,nan,0.11,-7.85,0.96,3.43,-82.91,111.99,-0.57,-0.05,-0.85,-0.63,0.54,-0.39,0.4,1.0,27.74,27.89,0.0748946,0.0,19.250199425287356,nan,-99.5749114069264,nan,0.0,0.0,9934.4951,0.0,0.0,2572.8,0.0
4306.0,27.0,30.0,77.0,154.0,110.0,nan,0.11,-7.95,1.03,3.37,-82.88,111.99,1.39,-0.33,-1.06,-0.63,0.54,-0.39,0.4,1.0,27.74,27.89,0.0748946,0.0,19.25019945402299,nan,-99.57491133477633,nan,0.0,0.0,9934.4951,0.0,0.0,2572.8,0.0
4329.0,26.0,30.0,77.0,140.0,111.0,nan,0.06,-7.97,0.97,3.31,-82.88,112.0,0.27,-0.26,-0.92,-0.63,0.54,-0.39,0.4,1.0,27.74,27.89,0.0748946,0.0,19.250199482758617,nan,-99.57491126262629,nan,0.0,0.0,9934.4951,0.0,0.0,2572.8,0.0
4349.0,19.0,31.0,109.0,137.0,125.0,nan,0.06,-8.25,1.14,3.26,-82.86,112.0,0.55,-0.19,-0.85,-0.63,0.54,-0.39,0.4,1.0,27.74,27.89,0.0748946,0.0,19.250199482758617,nan,-99.57491126262629,nan,0.0,0.0,9934.4951,0.0,0.0,0.0,0.0
4372.0,26.0,30.0,88.0,160.0,111.0,nan,-0.04,-8.13,0.95,3.22,-82.88,112.0,-0.71,-0.05,-0.43,-0.63,0.54,-0.39,0.4,1.0,27.74,27.89,0.0748946,0.0,19.25019951149425,nan,-99.57491119047619,nan,0.0,0.0,9934.4951,0.0,0.0,2572.8,0.0
4391.0,30.0,30.0,119.0,148.0,125.0,nan,-0.04,-7.98,1.0,3.19,-82.87,112.0,0.27,-0.05,-0.29,-0.63,0.54,-0.39,0.4,1.0,27.76,27.94,0.0748879,0.0,19.250199540229882,nan,-99.57491111832611,nan,0.0,0.0,9934.4951,0.0,0.0,2572.8,0.0
4417.0,28.0,31.0,89.0,144.0,98.0,nan,-0.08,-7.92,0.92,3.12,-82.92,111.99,-1.48,0.16,-0.64,-0.63,0.54,-0.39,0.4,1.0,27.76,27.94,0.0748879,0.0,19.250199568965517,nan,-99.57491104617607,nan,0.0,0.0,9934.4951,0.0,0.0,2572.8,0.0
4443.0,18.0,17.0,124.0,159.0,122.0,nan,-0.18,-8.02,0.81,3.1,-82.92,111.99,0.55,-0.19,-0.15,-0.63,0.54,-0.39,0.4,1.0,27.76,27.94,0.0748879,0.0,19.25019959770115,nan,-99.574910974026,nan,0.0,0.0,9934.4951,0.0,0.0,2572.8,0.0
4466.0,37.0,30.0,136.0,147.0,111.0,nan,-0.09,-8.2,1.13,3.07,-82.91,112.0,0.2,-0.19,-0.29,-0.63,0.54,-0.39,0.4,1.0,27.76,27.94,0.0748879,0.0,19.25019962643678,nan,-99.5749109018759,nan,0.0,0.0,9934.4951,0.0,0.0,2572.8,0.0
4485.0,28.0,31.0,109.0,153.0,125.0,nan,-0.1,-7.98,0.76,3.05,-82.91,112.0,0.76,-0.26,-0.08,-0.63,0.54,-0.39,0.4,1.0,27.76,27.94,0.0748879,0.0,19.25019965517241,nan,-99.57491082972585,nan,0.0,0.0,9934.4951,0.0,0.0,2572.8,0.0
4508.0,18.0,30.0,108.0,138.0,111.0,nan,0.0,-7.86,1.02,3.02,-82.87,112.01,1.88,-0.4,0.06,-0.63,0.54,-0.39,0.4,1.0,27.76,27.94,0.0748879,0.0,19.250199683908043,nan,-99.57491075757578,nan,0.0,0.0,9934.4951,0.0,0.0,2572.8,0.0
4527.0,27.0,30.0,68.0,138.0,124.0,nan,-0.12,-7.99,1.03,2.99,-82.82,112.02,2.02,-0.47,-0.01,-0.63,0.54,-0.39,0.4,1.0,27.76,27.94,0.0748879,0.0,19.250199683908043,nan,-99.57491075757578,nan,0.0,0.0,9934.4951,0.0,0.0,0.0,0.0
4550.0,30.0,28.0,76.0,139.0,125.0,nan,0.01,-7.75,0.93,2.96,-82.82,112.02,0.34,-0.26,-0.22,-0.63,0.54,-0.39,0.4,1.0,27.76,27.94,0.0748879,0.0,19.250199712643678,nan,-99.57491068542568,nan,0.0,0.0,9934.4951,0.0,0.0,2572.8,0.0
4570.0,22.0,18.0,68.0,155.0,104.0,nan,-0.19,-8.02,1.12,2.94,-82.75,112.04,3.14,-0.54,-0.01,-0.63,0.54,-0.39,0.41,1.0,27.76,27.94,0.0748879,0.0,19.25019974137931,nan,-99.5749106132756,nan,0.0,0.0,9934.4951,0.0,0.0,2572.8,0.0
4593.0,25.0,30.0,88.0,138.0,74.0,nan,-0.16,-8.04,1.2,2.91,-82.75,112.04,-0.5,-0.12,-0.36,-0.63,0.54,-0.39,0.41,1.0,27.76,27.94,0.0748879,0.0,19.250199770114943,nan,-99.57491054112556,nan,0.0,0.0,9934.4951,0.0,0.0,2572.8,0.0
4612.0,17.0,30.0,67.0,157.0,101.0,nan,-0.25,-8.0,0.92,2.91,-82.78,112.03,-1.55,0.23,0.06,-0.63,0.54,-0.39,0.41,1.0,27.76,27.94,0.0748879,0.0,19.250199798850577,nan,-99.57491046897546,nan,0.0,0.0,9934.4951,0.0,0.0,2572.8,0.0
4635.0,27.0,30.0,136.0,148.0,111.0,nan,-0.49,-8.12,0.93,2.92,-82.85,112.03,-1.97,0.16,0.2,-0.63,0.54,-0.39,0.41,1.0,27.76,27.94,0.0748879,0.0,19.250199827586208,nan,-99.57491039682539,nan,0.0,0.0,9934.4951,0.0,0.0,2572.8,0.0
4661.0,21.0,30.0,41.0,154.0,76.0,nan,-0.48,-7.81,0.72,2.93,-82.9,112.03,-1.55,0.16,0.27,-0.63,0.54,-0.39,0.4,1.0,27.76,27.94,0.0748879,0.0,19.250199827586208,nan,-99.57491039682539,nan,0.0,0.0,9934.4951,0.0,0.0,0.0,0.0
4684.0,17.0,29.0,123.0,153.0,102.0,nan,-0.61,-7.97,0.92,2.95,-82.87,112.03,2.02,-0.19,0.41,-0.63,0.54,-0.39,0.4,1.0,27.76,27.94,0.0748879,0.0,19.250199856321835,nan,-99.57491032467534,nan,0.0,0.0,9934.4951,0.0,0.0,2572.8,0.0
4704.0,26.0,30.0,109.0,139.0,97.0,nan,-0.59,-7.78,0.86,2.97,-82.88,112.03,-0.08,-0.12,0.2,-0.63,0.54,-0.39,0.4,1.0,27.76,27.94,0.0748879,0.0,19.25019988505747,nan,-99.57491025252527,nan,0.0,0.0,9934.4951,0.0,0.0,2572.8,0.0
4727.0,26.0,29.0,109.0,137.0,125.0,nan,-0.58,-7.89,0.9,2.98,-82.86,112.04,1.25,-0.19,-0.08,-0.63,0.54,-0.39,0.4,1.0,27.76,27.94,0.0748879,0.0,19.250199913793104,nan,-99.57491018037517,nan,0.0,0.0,9934.4951,0.0,0.0,2572.8,0.0
4746.0,37.0,30.0,60.0,160.0,125.0,nan,-0.39,-7.66,0.83,2.97,-82.82,112.04,2.58,-0.47,-0.29,-0.63,0.54,-0.39,0.4,1.0,27.76,27.94,0.0748879,0.0,19.250199942528734,nan,-99.57491010822513,nan,0.0,0.0,9934.4951,0.0,0.0,2572.8,0.0
4769.0,18.0,30.0,53.0,160.0,111.0,nan,-0.29,-7.64,0.95,2.95,-82.76,112.05,3.0,-0.26,-0.64,-0.63,0.54,-0.39,0.41,1.0,27.76,27.94,0.0748879,0.0,19.250200000000003,nan,-99.57491003607505,nan,0.0,0.0,9934.4951,0.0,0.0,2572.8,0.0
4789.0,31.0,29.0,88.0,148.0,98.0,nan,-0.17,-7.71,1.14,2.92,-82.72,112.05,1.32,-0.26,-0.78,-0.63,0.54,-0.38,0.41,1.0,27.76,27.94,0.0748879,0.0,19.250200000000003,nan,-99.57491003607505,nan,0.0,0.0,9934.4951,0.0,0.0,0.0,0.0
4811.0,27.0,27.0,88.0,159.0,124.0,nan,-0.12,-7.87,1.05,2.87,-82.72,112.05,-0.01,-0.19,-1.13,-0.63,0.54,-0.38,0.41,1.0,27.76,27.94,0.0748879,0.0,19.250200000000003,nan,-99.57490996392495,nan,0.0,0.0,9934.4951,1.0,0.0,2572.8,0.0
4831.0,26.0,30.0,107.0,134.0,125.0,nan,-0.04,-7.78,0.95,2.84,-82.72,112.05,0.06,-0.19,-0.57,-0.63,0.54,-0.38,0.41,1.0,27.76,27.94,0.0748879,0.0,19.25020004219409,nan,-99.57490989177491,nan,0.0,0.0,9934.4951,0.0,0.0,2572.8,0.0
4854.0,38.0,31.0,68.0,138.0,110.0,nan,-0.28,-8.03,0.95,2.79,-82.76,112.05,-3.09,0.23,-0.5,-0.63,0.54,-0.38,0.41,1.0,27.76,27.9,0.0748987,0.0,19.25020006329114,nan,-99.57490981962484,nan,0.0,0.0,9934.4951,0.0,0.0,2572.8,0.0
4886.0,25.0,17.0,77.0,139.0,76.0,nan,-0.35,-8.03,0.94,2.78,-82.8,112.04,-1.69,0.16,-0.01,-0.63,0.54,-0.38,0.41,1.0,27.76,27.9,0.0748987,0.0,19.250200084388183,nan,-99.57490974747473,nan,0.0,0.0,9934.4951,0.0,0.0,2572.8,0.0
4906.0,17.0,26.0,77.0,132.0,101.0,nan,-0.56,-8.09,0.95,2.8,-82.81,112.05,-0.36,-0.19,0.27,-0.63,0.54,-0.38,0.41,1.0,27.76,27.9,0.0748987,0.0,19.250200105485227,nan,-99.57490967532469,nan,0.0,0.0,9934.4951,0.0,0.0,2572.8,0.0
4929.0,26.0,30.0,67.0,160.0,124.0,nan,-0.59,-7.98,0.87,2.81,-82.85,112.04,-1.41,0.16,-0.29,-0.63,0.54,-0.38,0.41,1.0,27.76,27.9,0.0748987,0.0,19.25020012658228,nan,-99.57490960317462,nan,0.0,0.0,9934.4951,0.0,0.0,2572.8,0.0
4948.0,17.0,30.0,53.0,155.0,112.0,nan,-0.61,-7.85,0.74,2.83,-82.86,112.05,0.69,-0.19,0.13,-0.63,0.54,-0.39,0.41,1.0,27.76,27.9,0.0748987,0.0,19.25020012658228,nan,-99.57490960317462,nan,0.0,0.0,9934.4951,0.0,0.0,0.0,0.0
4971.0,27.0,31.0,68.0,139.0,119.0,nan,-0.47,-7.91,0.79,2.84,-82.84,112.06,0.55,-0.26,-0.15,-0.63,0.54,-0.38,0.41,1.0,27.76,27.9,0.0748987,0.0,19.250200147679323,nan,-99.57490953102455,nan,0.0,0.0,9934.4951,0.0,0.0,2572.8,0.0
4997.0,26.0,30.0,68.0,138.0,111.0,nan,-0.47,-7.91,0.79,2.84,-82.84,112.06,0.0,0.0,0.0,-0.63,0.54,-0.38,0.41,1.0,27.76,27.9,0.0748987,0.0,19.250200168776374,nan,-99.57490945887444,nan,0.0,0.0,9934.4951,0.0,0.0,2572.8,0.0
5015.0,31.0,30.0,48.0,153.0,124.0,nan,-0.27,-7.86,0.92,2.8,-82.78,112.07,2.58,-0.47,-0.5,-0.63,0.54,-0.38,0.41,1.0,27.76,27.9,0.0748987,0.0,19.250200189873418,nan,-99.5749093867244,nan,0.0,0.0,9934.4951,0.0,0.0,2572.8,0.0
5040.0,30.0,29.0,53.0,137.0,111.0,nan,-0.09,-7.79,1.02,2.76,-82.75,112.07,1.04,-0.12,-0.71,-0.63,0.54,-0.38,0.41,1.0,27.76,27.9,0.0748987,0.0,19.250200210970466,nan,-99.57490931457433,nan,0.0,0.0,9934.4951,0.0,0.0,2572.8,0.0
5063.0,17.0,31.0,108.0,159.0,110.0,nan,-0.18,-7.94,1.02,2.74,-82.73,112.07,0.97,-0.26,-0.43,-0.63,0.54,-0.38,0.41,1.0,27.76,27.9,0.0748987,0.0,19.25020023206751,nan,-99.57490924242423,nan,0.0,0.0,9934.4951,0.0,0.0,2572.8,0.0
5082.0,24.0,30.0,52.0,133.0,111.0,nan,-0.16,-7.93,1.02,2.71,-82.75,112.07,-0.92,-0.05,-0.57,-0.63,0.54,-0.38,0.41,1.0,27.76,27.9,0.0748987,0.0,19.250200253164554,nan,-99.57490917027418,nan,0.0,0.0,9934.4951,0.0,0.0,2572.8,0.0
5105.0,30.0,21.0,88.0,154.0,110.0,nan,-0.35,-7.95,0.9,2.7,-82.76,112.07,-0.08,0.02,-0.29,-0.63,0.54,-0.38,0.41,1.0,27.76,27.9,0.0748987,0.0,19.250200274261605,nan,-99.57490909812411,nan,0.0,0.0,9934.4951,0.0,0.0,2572.8,0.0
5125.0,25.0,30.0,77.0,138.0,111.0,nan,-0.37,-8.0,1.1,2.69,-82.78,112.07,-1.06,0.02,-0.5,-0.63,0.54,-0.38,0.41,1.0,27.76,27.9,0.0748987,0.0,19.250200274261605,nan,-99.57490909812411,nan,0.0,0.0,9934.4951,0.0,0.0,0.0,0.0
5147.0,27.0,30.0,88.0,138.0,111.0,nan,-0.5,-7.97,0.74,2.7,-82.83,112.07,-1.9,0.09,-0.15,-0.63,0.54,-0.38,0.41,1.0,27.76,27.9,0.0748987,0.0,19.25020029535865,nan,-99.57490902597401,nan,0.0,0.0,9934.4951,0.0,0.0,2572.8,0.0
5167.0,25.0,29.0,88.0,154.0,110.0,nan,-0.48,-7.88,0.84,2.71,-82.85,112.07,-0.29,-0.05,0.2,-0.63,0.54,-0.38,0.41,1.0,27.76,27.9,0.0748987,0.0,19.250200316455693,nan,-99.57490895382396,nan,0.0,0.0,9934.4951,0.0,0.0,2572.8,0.0
5190.0,27.0,31.0,77.0,138.0,105.0,nan,-0.4,-7.71,0.79,2.72,-82.81,112.07,1.88,-0.33,-0.43,-0.63,0.54,-0.38,0.41,1.0,27.76,27.9,0.0748987,0.0,19.250200337552744,nan,-99.57490888167389,nan,0.0,0.0,9934.4951,0.0,0.0,2572.8,0.0
5216.0,16.0,30.0,82.0,137.0,74.0,nan,-0.4,-7.71,0.79,2.72,-82.81,112.07,0.0,0.0,0.0,-0.63,0.54,-0.38,0.41,1.0,27.76,27.9,0.0748987,0.0,19.25020035864979,nan,-99.57490880952382,nan,0.0,0.0,9934.4951,0.0,0.0,2572.8,0.0
5233.0,17.0,30.0,39.0,140.0,102.0,nan,-0.24,-7.96,1.16,2.7,-82.67,112.1,2.44,-0.54,-0.36,-0.63,0.54,-0.38,0.41,1.0,27.76,27.9,0.0748987,0.0,19.25020035864979,nan,-99.57490880952382,nan,0.0,0.0,9934.4951,0.0,0.0,0.0,0.0
5258.0,37.0,30.0,136.0,155.0,110.0,nan,-0.26,-7.96,1.01,2.68,-82.63,112.1,2.16,-0.4,-0.57,-0.63,0.54,-0.38,0.41,1.0,27.76,27.9,0.0748987,0.0,19.250200379746836,nan,-99.57490873737375,nan,0.0,0.0,9934.4951,0.0,0.0,2572.8,0.0
5281.0,27.0,30.0,87.0,154.0,111.0,nan,-0.14,-7.77,1.09,2.65,-82.6,112.11,1.25,-0.19,-0.22,-0.63,0.54,-0.38,0.41,1.0,27.76,27.9,0.0748987,0.0,19.25020040084388,nan,-99.57490866522367,nan,0.0,0.0,9934.4951,0.0,0.0,2572.8,0.0
5301.0,38.0,27.0,52.0,136.0,111.0,nan,-0.16,-7.87,1.14,2.63,-82.58,112.11,0.62,-0.12,-0.43,-0.63,0.54,-0.38,0.41,1.0,27.76,27.9,0.0748987,0.0,19.25020042194093,nan,-99.5749085930736,nan,0.0,0.0,9934.4951,0.0,0.0,2572.8,0.0
5324.0,26.0,17.0,78.0,154.0,111.0,nan,-0.13,-7.7,0.96,2.6,-82.62,112.1,-1.97,0.09,-0.5,-0.63,0.54,-0.38,0.41,1.0,27.76,27.89,0.0748995,0.0,19.250200443037976,nan,-99.57490852092353,nan,0.0,0.0,9934.4951,0.0,0.0,2572.8,0.0
5346.0,31.0,18.0,67.0,161.0,109.0,nan,-0.18,-8.0,1.08,2.57,-82.62,112.1,-0.29,-0.05,-0.85,-0.63,0.54,-0.38,0.41,1.0,27.76,27.89,0.0748995,0.0,19.25020046413502,nan,-99.57490844877346,nan,0.0,0.0,9934.4951,0.0,0.0,2572.8,0.0
5369.0,17.0,31.0,78.0,138.0,97.0,nan,-0.22,-8.06,1.06,2.53,-82.65,112.1,-0.71,0.16,-0.5,-0.63,0.54,-0.38,0.41,1.0,27.76,27.89,0.0748995,0.0,19.25020048523207,nan,-99.57490837662338,nan,0.0,0.0,9934.4951,0.0,0.0,2572.8,0.0
5395.0,20.0,30.0,82.0,138.0,110.0,nan,-0.33,-7.97,0.88,2.52,-82.65,112.1,0.9,-0.33,-0.22,-0.63,0.54,-0.38,0.41,1.0,27.76,27.89,0.0748995,0.0,19.250200506329115,nan,-99.57490830447328,nan,0.0,0.0,9934.4951,0.0,0.0,2572.8,0.0
5418.0,30.0,29.0,108.0,137.0,104.0,nan,-0.21,-7.76,0.93,2.5,-82.62,112.11,1.6,-0.19,-0.64,-0.63,0.54,-0.38,0.41,1.0,27.76,27.89,0.0748995,0.0,19.25020052742616,nan,-99.57490823232324,nan,0.0,0.0,9934.4951,0.0,0.0,2572.8,0.0
5437.0,17.0,25.0,87.0,138.0,112.0,nan,-0.26,-7.94,1.02,2.48,-82.55,112.12,3.49,-0.61,-0.5,-0.63,0.54,-0.38,0.41,1.0,27.76,27.89,0.0748995,0.0,19.25020052742616,nan,-99.57490823232324,nan,0.0,0.0,9934.4951,0.0,0.0,0.0,0.0
5460.0,26.0,31.0,77.0,139.0,117.0,nan,-0.15,-7.81,1.19,2.46,-82.5,112.12,1.95,-0.33,-0.64,-0.63,0.54,-0.38,0.41,1.0,27.76,27.89,0.0748995,0.0,19.250200548523207,nan,-99.57490816017317,nan,0.0,0.0,9934.4951,0.0,0.0,2572.8,0.0
5480.0,26.0,31.0,52.0,125.0,112.0,nan,-0.12,-7.93,1.11,2.43,-82.48,112.12,0.9,-0.19,-0.71,-0.63,0.54,-0.38,0.41,1.0,27.76,27.89,0.0748995,0.0,19.25020056962025,nan,-99.57490808802311,nan,0.0,0.0,9934.4951,0.0,0.0,2572.8,0.0
5503.0,26.0,31.0,77.0,139.0,110.0,nan,-0.07,-7.9,1.22,2.4,-82.48,112.13,-0.71,-0.19,-0.5,-0.63,0.54,-0.38,0.41,1.0,27.76,27.89,0.0748995,0.0,19.250200590717295,nan,-99.57490801587302,nan,0.0,0.0,9934.4951,0.0,0.0,2572.8,0.0
5522.0,28.0,31.0,108.0,150.0,97.0,nan,0.01,-7.83,1.01,2.36,-82.51,112.12,-1.69,0.3,-0.78,-0.63,0.54,-0.38,0.41,1.0,27.76,27.89,0.0748995,0.0,19.250200611814346,nan,-99.57490794372295,nan,0.0,0.0,9934.4951,0.0,0.0,2572.8,0.0
5545.0,27.0,30.0,52.0,138.0,125.0,nan,-0.01,-7.97,1.09,2.32,-82.54,112.12,-1.55,-0.05,-0.57,-0.63,0.54,-0.38,0.41,1.0,27.76,27.89,0.0748995,0.0,19.250200611814346,nan,-99.57490794372295,nan,0.0,0.0,9934.4951,0.0,0.0,0.0,0.0
5565.0,31.0,26.0,67.0,154.0,111.0,nan,0.07,-7.97,1.06,2.27,-82.6,112.11,-2.81,0.16,-0.99,-0.63,0.54,-0.38,0.41,1.0,27.76,27.89,0.0748995,0.0,19.25020063291139,nan,-99.57490787157289,nan,0.0,0.0,9934.4951,0.0,0.0,2572.8,0.0
5587.0,27.0,30.0,67.0,139.0,110.0,nan,0.06,-8.04,1.02,2.19,-82.6,112.12,2.37,-0.47,-0.5,-0.63,0.54,-0.38,0.41,1.0,27.76,27.89,0.0748995,0.0,19.25020065400844,nan,-99.5749077994228,nan,0.0,0.0,9934.4951,0.0,0.0,2572.8,0.0
5614.0,17.0,20.0,136.0,152.0,110.0,nan,-0.02,-8.04,1.1,2.16,-82.57,112.12,1.18,-0.26,-0.85,-0.63,0.54,-0.38,0.41,1.0,27.76,27.89,0.0748995,0.0,19.250200675105486,nan,-99.57490772727273,nan,0.0,0.0,9934.4951,0.0,0.0,2572.8,0.0
5637.0,26.0,31.0,108.0,138.0,104.0,nan,-0.04,-7.93,1.02,2.13,-82.53,112.13,2.09,-0.61,-0.5,-0.63,0.54,-0.38,0.41,1.0,27.76,27.89,0.0748995,0.0,19.250200696202533,nan,-99.57490765512266,nan,0.0,0.0,9934.4951,0.0,0.0,2572.8,0.0
5656.0,28.0,26.0,87.0,153.0,75.0,nan,-0.09,-7.66,1.09,2.1,-82.48,112.14,1.95,-0.33,-0.5,-0.63,0.54,-0.38,0.41,1.0,27.76,27.89,0.0748995,0.0,19.250200717299577,nan,-99.57490758297259,nan,0.0,0.0,9934.4951,0.0,0.0,2572.8,0.0
5679.0,17.0,30.0,77.0,161.0,101.0,nan,-0.18,-8.03,1.32,2.07,-82.45,112.14,0.97,-0.33,-0.99,-0.63,0.54,-0.38,0.41,1.0,27.76,27.89,0.0748995,0.0,19.25020073839662,nan,-99.57490751082251,nan,0.0,0.0,9934.4951,0.0,0.0,2572.8,0.0
5699.0,26.0,32.0,67.0,137.0,98.0,nan,-0.19,-7.97,1.12,2.04,-82.54,112.13,-4.7,0.37,-1.34,-0.63,0.54,-0.38,0.41,1.0,27.76,27.89,0.0748995,0.0,19.25020073839662,nan,-99.57490751082251,nan,0.0,0.0,9934.4951,0.0,0.0,0.0,0.0
5722.0,30.0,17.0,66.0,139.0,98.0,nan,-0.05,-8.01,0.9,2.01,-82.63,112.12,-4.07,0.3,-0.64,-0.63,0.54,-0.38,0.41,1.0,27.76,27.89,0.0748995,0.0,19.250200759493666,nan,-99.57490743867244,nan,0.0,0.0,9934.4951,0.0,0.0,2572.8,0.0
5741.0,17.0,30.0,68.0,118.0,105.0,nan,-0.09,-8.23,1.0,1.98,-82.7,112.12,-3.44,0.23,-0.71,-0.63,0.54,-0.38,0.41,1.0,27.76,27.89,0.0748995,0.0,19.250200780590717,nan,-99.57490736652238,nan,0.0,0.0,9934.4951,0.0,0.0,2572.8,0.0
5764.0,28.0,31.0,56.0,137.0,110.0,nan,-0.03,-8.25,0.9,1.94,-82.76,112.11,-2.53,0.09,-1.13,-0.63,0.54,-0.38,0.41,1.0,27.76,27.89,0.0748995,0.0,19.25020080168776,nan,-99.5749072943723,nan,0.0,0.0,9934.4951,0.0,0.0,2572.8,0.0
5784.0,27.0,26.0,157.0,146.0,125.0,nan,0.13,-7.74,0.96,1.87,-82.65,112.13,5.38,-0.75,-0.08,-0.63,0.54,-0.38,0.41,1.0,27.74,27.9,0.0748904,0.0,19.250200822784812,nan,-99.57490722222222,nan,0.0,0.0,9934.4951,0.0,0.0,2572.8,0.0
5815.0,26.0,31.0,151.0,132.0,76.0,nan,0.06,-7.91,1.22,1.84,-82.53,112.15,5.17,-0.68,-0.64,-0.63,0.54,-0.38,0.41,1.0,27.74,27.9,0.0748904,0.0,19.250200843881856,nan,-99.57490715007216,nan,0.0,0.0,9934.4951,0.0,0.0,2572.8,0.0
5835.0,36.0,30.0,76.0,137.0,103.0,nan,0.1,-7.83,1.28,1.79,-82.5,112.15,0.69,-0.05,-1.2,-0.63,0.54,-0.38,0.41,1.0,27.74,27.9,0.0748904,0.0,19.250200864978904,nan,-99.57490707792208,nan,0.0,0.0,9934.4951,0.0,0.0,2572.8,0.0
5858.0,37.0,26.0,87.0,138.0,111.0,nan,0.2,-8.01,1.19,1.74,-82.51,112.14,-1.06,0.02,-0.64,-0.63,0.54,-0.38,0.41,1.0,27.74,27.9,0.0748904,0.0,19.250200864978904,nan,-99.57490707792208,nan,0.0,0.0,9934.4951,0.0,0.0,0.0,0.0
5877.0,17.0,17.0,66.0,157.0,110.0,nan,0.17,-8.01,1.12,1.71,-82.59,112.14,-4.0,0.3,-0.22,-0.63,0.54,-0.38,0.41,1.0,27.74,27.9,0.0748904,0.0,19.250200886075948,nan,-99.574907005772,nan,0.0,0.0,9934.4951,0.0,0.0,2572.8,0.0
5900.0,22.0,30.0,72.0,145.0,120.0,nan,0.21,-8.01,1.11,1.67,-82.72,112.12,-6.66,1.0,-0.57,-0.63,0.54,-0.38,0.41,1.0,27.74,27.9,0.0748904,0.0,19.250200907173,nan,-99.57490693362195,nan,0.0,0.0,9934.4951,0.0,0.0,2572.8,0.0
