time,p1,p2,p3,p4,p5,termite,ax,ay,az,rx,ry,rz,roll,pitch,yaw,q1,q2,q3,q4,calibration,temperature,humidity,pressure,flag_rm,lat,lacoord,lon,locoord,capacitive,o_lat,o_lon,used_lat,used_lon,altitude,flag_lm
0.0,17.0,30.0,157.0,148.0,66.0,nan,0.19,-7.68,2.04,1.33,-81.14,110.41,-5.47,-8.24,-0.64,-0.63,0.53,-0.38,0.43,1.0,28.83,26.36,0.0746356,0.0,19.25670943089431,nan,-99.60919308943087,nan,0.0,0.0,9936.5518,1.0,1.0,2628.2,0.0
19.0,14.0,18.0,161.0,137.0,101.0,nan,-0.21,-8.15,1.05,1.29,-81.49,110.54,-16.95,-6.77,-0.78,-0.63,0.53,-0.38,0.43,1.0,28.83,26.36,0.0746356,0.0,19.25670943089431,nan,-99.60919308943087,nan,0.0,0.0,9936.5518,0.0,0.0,0.0,0.0
43.0,26.0,22.0,77.0,156.0,110.0,nan,0.16,-7.58,0.09,1.23,-81.79,110.68,-11.28,-7.33,-0.99,-0.63,0.53,-0.38,0.42,1.0,28.83,26.36,0.0746356,0.0,19.25670943089431,nan,-99.60919308943087,nan,0.0,0.0,9936.5518,0.0,0.0,0.0,0.0
62.0,32.0,18.0,78.0,138.0,124.0,nan,0.16,-7.89,0.15,1.18,-81.85,110.83,0.27,-7.89,0.2,-0.63,0.53,-0.38,0.42,1.0,28.83,26.36,0.0746356,0.0,19.25670943089431,nan,-99.60919308943087,nan,0.0,0.0,9936.5518,0.0,0.0,0.0,0.0
85.0,26.0,31.0,77.0,137.0,96.0,nan,-0.22,-7.76,0.75,1.21,-81.67,111.0,10.0,-8.31,2.09,-0.63,0.53,-0.38,0.42,1.0,28.83,26.36,0.0746356,0.0,19.25670943089431,nan,-99.60919308943087,nan,0.0,0.0,9936.5518,0.0,0.0,0.0,0.0
104.0,26.0,30.0,108.0,139.0,110.0,nan,-0.4,-8.67,1.33,1.26,-81.35,111.19,15.95,-9.08,3.21,-0.63,0.53,-0.38,0.42,1.0,28.83,26.36,0.0746356,0.0,19.25670943089431,nan,-99.60919308943087,nan,0.0,0.0,9936.5518,0.0,0.0,0.0,0.0
127.0,20.0,31.0,60.0,135.0,124.0,nan,-0.41,-8.28,1.96,1.3,-81.02,111.38,13.99,-8.87,2.93,-0.63,0.53,-0.37,0.42,1.0,28.83,26.36,0.0746356,0.0,19.25670943089431,nan,-99.60919308943087,nan,0.0,0.0,9936.5518,0.0,0.0,0.0,0.0
147.0,16.0,19.0,98.0,154.0,111.0,nan,-0.09,-8.23,2.88,1.3,-80.67,111.56,11.96,-8.8,1.74,-0.63,0.53,-0.37,0.42,1.0,28.83,26.36,0.0746356,0.0,19.25670943089431,nan,-99.60919308943087,nan,0.0,0.0,9936.5518,0.0,0.0,0.0,0.0
170.0,17.0,30.0,119.0,154.0,111.0,nan,-0.59,-7.71,2.49,1.32,-80.58,111.87,-9.6,-6.91,0.48,-0.64,0.53,-0.37,0.42,1.0,28.83,26.36,0.0746356,0.0,19.25670943089431,nan,-99.60919308943087,nan,0.0,0.0,9936.5518,0.0,0.0,0.0,0.0
196.0,16.0,20.0,156.0,133.0,110.0,nan,-0.28,-7.84,1.92,1.29,-80.85,112.01,-15.83,-6.91,-0.78,-0.64,0.53,-0.37,0.42,1.0,28.83,26.36,0.0746356,0.0,19.25670943089431,nan,-99.60919308943087,nan,0.0,0.0,9936.5518,0.0,0.0,0.0,0.0
219.0,18.0,28.0,63.0,137.0,110.0,nan,-0.37,-8.03,1.14,1.27,-81.15,112.15,-14.5,-7.26,-0.78,-0.63,0.53,-0.37,0.42,1.0,28.83,26.36,0.0746356,0.0,19.256705528455285,nan,-99.6091895121951,nan,0.0,0.0,9936.5518,0.0,0.0,2628.2,0.0
239.0,37.0,28.0,77.0,160.0,126.0,nan,-0.14,-7.02,0.64,1.22,-81.38,112.3,-9.95,-7.68,-0.92,-0.63,0.54,-0.37,0.42,1.0,28.83,26.36,0.0746356,0.0,19.256705528455285,nan,-99.6091895121951,nan,0.0,0.0,9936.5518,0.0,0.0,0.0,0.0
261.0,27.0,27.0,79.0,148.0,110.0,nan,-0.13,-6.34,0.73,1.16,-81.42,112.47,-1.13,-8.87,-1.83,-0.63,0.54,-0.37,0.42,1.0,28.83,26.36,0.0746356,0.0,19.256705528455285,nan,-99.6091895121951,nan,0.0,0.0,9936.5518,0.0,0.0,0.0,0.0
281.0,27.0,31.0,88.0,138.0,110.0,nan,0.38,-6.71,0.83,1.04,-81.5,112.63,-3.23,-8.66,-2.39,-0.63,0.54,-0.37,0.42,1.0,28.83,26.36,0.0746356,0.0,19.256705528455285,nan,-99.6091895121951,nan,0.0,0.0,9936.5518,0.0,0.0,0.0,0.0
304.0,28.0,30.0,67.0,116.0,110.0,nan,0.36,-7.91,0.55,0.96,-81.72,112.76,-9.25,-6.91,-1.2,-0.63,0.54,-0.37,0.41,1.0,28.83,26.36,0.0746356,0.0,19.256705528455285,nan,-99.6091895121951,nan,0.0,0.0,9936.5518,0.0,0.0,0.0,0.0
323.0,22.0,17.0,68.0,138.0,110.0,nan,-0.17,-8.6,0.1,0.94,-81.8,112.91,-0.01,-7.61,-0.08,-0.63,0.54,-0.37,0.41,1.0,28.83,26.36,0.0746356,0.0,19.256705528455285,nan,-99.6091895121951,nan,0.0,0.0,9936.5518,0.0,0.0,0.0,0.0
346.0,18.0,17.0,113.0,149.0,119.0,nan,-0.24,-7.76,2.23,0.92,-81.0,113.31,21.9,-10.55,0.76,-0.64,0.54,-0.36,0.41,1.0,28.85,26.44,0.0746431,0.0,19.256705528455285,nan,-99.6091895121951,nan,0.0,0.0,9936.5518,0.0,0.0,0.0,0.0
378.0,26.0,27.0,88.0,160.0,75.0,nan,0.22,-8.02,3.3,0.88,-80.56,113.52,15.53,-10.55,0.97,-0.64,0.54,-0.36,0.41,1.0,28.85,26.44,0.0746431,0.0,19.256705528455285,nan,-99.6091895121951,nan,0.0,0.0,9936.5518,0.0,0.0,0.0,0.0
397.0,28.0,28.0,79.0,138.0,96.0,nan,-0.0,-7.24,2.67,0.85,-80.6,113.68,-7.5,-7.89,0.2,-0.64,0.54,-0.36,0.41,1.0,28.85,26.44,0.0746431,0.0,19.256705528455285,nan,-99.6091895121951,nan,0.0,0.0,9936.5518,0.0,0.0,0.0,0.0
420.0,18.0,30.0,51.0,139.0,117.0,nan,0.11,-7.23,1.85,0.78,-80.89,113.81,-17.37,-6.7,-1.55,-0.64,0.54,-0.36,0.41,1.0,28.85,26.44,0.0746431,0.0,19.256705528455285,nan,-99.6091895121951,nan,0.0,0.0,9936.5518,0.0,0.0,0.0,0.0
440.0,27.0,32.0,77.0,138.0,97.0,nan,-0.03,-8.05,1.48,0.72,-81.23,113.94,-17.51,-6.77,-1.97,-0.64,0.54,-0.36,0.41,1.0,28.85,26.44,0.0746431,0.0,19.256701626016262,nan,-99.60918593495937,nan,0.0,0.0,9936.5518,0.0,0.0,2628.2,0.0
463.0,27.0,31.0,88.0,138.0,124.0,nan,-0.15,-9.64,0.45,0.69,-81.61,114.07,-16.18,-6.7,-0.43,-0.64,0.55,-0.36,0.41,1.0,28.85,26.44,0.0746431,0.0,19.256701626016262,nan,-99.60918593495937,nan,0.0,0.0,9936.5518,0.0,0.0,0.0,0.0
482.0,26.0,29.0,52.0,149.0,119.0,nan,-0.15,-8.91,0.15,0.7,-81.76,114.23,-3.58,-7.96,1.46,-0.64,0.55,-0.36,0.41,1.0,28.85,26.44,0.0746431,0.0,19.256701626016262,nan,-99.60918593495937,nan,0.0,0.0,9936.5518,0.0,0.0,0.0,0.0
505.0,38.0,30.0,108.0,133.0,110.0,nan,0.12,-7.71,0.54,0.69,-81.6,114.42,9.72,-9.57,1.88,-0.64,0.55,-0.36,0.41,1.0,28.85,26.44,0.0746431,0.0,19.256701626016262,nan,-99.60918593495937,nan,0.0,0.0,9936.5518,0.0,0.0,0.0,0.0
524.0,27.0,26.0,135.0,133.0,110.0,nan,0.06,-6.9,1.38,0.7,-81.33,114.62,11.89,-9.5,2.16,-0.64,0.55,-0.36,0.41,1.0,28.85,26.44,0.0746431,0.0,19.256701626016262,nan,-99.60918593495937,nan,0.0,0.0,9936.5518,0.0,0.0,0.0,0.0
547.0,19.0,30.0,108.0,125.0,110.0,nan,-0.23,-7.48,1.33,0.68,-81.28,114.94,-4.28,-7.54,-0.29,-0.64,0.55,-0.35,0.4,1.0,28.85,26.44,0.0746431,0.0,19.256701626016262,nan,-99.60918593495937,nan,0.0,0.0,9936.5518,0.0,0.0,0.0,0.0
574.0,27.0,27.0,51.0,123.0,76.0,nan,-0.01,-8.15,1.1,0.65,-81.39,115.08,-4.91,-7.19,-0.08,-0.64,0.55,-0.35,0.4,1.0,28.85,26.44,0.0746431,0.0,19.256701626016262,nan,-99.60918593495937,nan,0.0,0.0,9936.5518,0.0,0.0,0.0,0.0
597.0,27.0,31.0,72.0,138.0,103.0,nan,-0.09,-9.01,0.98,0.64,-81.38,115.24,1.46,-8.03,0.9,-0.64,0.55,-0.35,0.4,1.0,28.85,26.44,0.0746431,0.0,19.256701626016262,nan,-99.60918593495937,nan,0.0,0.0,9936.5518,0.0,0.0,0.0,0.0
616.0,25.0,23.0,40.0,146.0,112.0,nan,-0.28,-8.46,1.26,0.66,-81.2,115.43,8.95,-9.36,1.74,-0.64,0.55,-0.35,0.4,1.0,28.85,26.44,0.0746431,0.0,19.256701626016262,nan,-99.60918593495937,nan,0.0,0.0,9936.5518,0.0,0.0,0.0,0.0
639.0,27.0,30.0,136.0,149.0,126.0,nan,-0.34,-6.88,1.8,0.67,-80.83,115.64,15.53,-10.34,0.9,-0.65,0.55,-0.35,0.4,1.0,28.85,26.44,0.0746431,0.0,19.256701626016262,nan,-99.60918593495937,nan,0.0,0.0,9936.5518,0.0,0.0,0.0,0.0
659.0,32.0,30.0,76.0,137.0,111.0,nan,-0.05,-6.6,2.45,0.62,-80.47,115.84,12.31,-9.99,-0.5,-0.65,0.55,-0.35,0.4,1.0,28.85,26.44,0.0746431,0.0,19.25669772357724,nan,-99.60918235772358,nan,0.0,0.0,9936.5518,0.0,0.0,2628.2,0.0
681.0,28.0,31.0,68.0,112.0,117.0,nan,-0.03,-7.35,3.01,0.59,-80.44,115.99,-4.84,-7.54,-0.22,-0.65,0.55,-0.35,0.4,1.0,28.85,26.44,0.0746431,0.0,19.25669772357724,nan,-99.60918235772358,nan,0.0,0.0,9936.5518,0.0,0.0,0.0,0.0
701.0,28.0,25.0,67.0,124.0,110.0,nan,-0.52,-9.37,2.16,0.61,-80.8,116.1,-19.89,-5.51,0.9,-0.65,0.55,-0.35,0.4,1.0,28.85,26.44,0.0746431,0.0,19.256693821138214,nan,-99.6091787804878,nan,0.0,0.0,9936.5518,0.0,0.0,2628.2,0.0
724.0,17.0,28.0,125.0,182.0,139.0,nan,-0.24,-10.14,0.9,0.6,-81.11,116.24,-13.38,-7.05,-0.08,-0.65,0.55,-0.35,0.4,1.0,28.85,26.44,0.0746431,0.0,19.25668991869919,nan,-99.60917520325202,nan,0.0,0.0,9936.5518,0.0,0.0,2628.2,0.0
744.0,26.0,30.0,88.0,182.0,110.0,nan,-0.05,-9.03,1.56,0.58,-80.94,116.44,7.9,-10.06,0.76,-0.65,0.55,-0.35,0.4,1.0,28.85,26.44,0.0746431,0.0,19.25668601626017,nan,-99.60917162601623,nan,0.0,0.0,9936.5518,0.0,0.0,2628.2,0.0
766.0,32.0,30.0,88.0,160.0,125.0,nan,-0.08,-7.21,1.78,0.58,-80.72,116.83,-1.2,-9.08,1.88,-0.65,0.55,-0.34,0.4,1.0,28.85,26.44,0.0746431,0.0,19.256682113821142,nan,-99.6091680487805,nan,0.0,0.0,9936.5518,0.0,0.0,2628.2,0.0
793.0,37.0,26.0,88.0,139.0,74.0,nan,-0.12,-7.45,1.36,0.58,-80.9,116.99,-9.46,-8.31,1.11,-0.65,0.55,-0.34,0.39,1.0,28.85,26.44,0.0746431,0.0,19.256678211382113,nan,-99.60916447154472,nan,0.0,0.0,9936.5518,0.0,0.0,2628.2,0.0
816.0,17.0,29.0,52.0,124.0,102.0,nan,0.41,-7.77,0.65,0.54,-81.19,117.13,-12.47,-6.84,1.04,-0.65,0.55,-0.34,0.39,1.0,28.82,26.4,0.0746439,0.0,19.25667430894309,nan,-99.60916089430894,nan,0.0,0.0,9936.5518,0.0,0.0,2628.2,0.0
837.0,32.0,30.0,119.0,149.0,76.0,nan,0.08,-7.31,0.71,0.53,-81.16,117.3,3.14,-8.24,1.25,-0.65,0.55,-0.34,0.39,1.0,28.82,26.4,0.0746439,0.0,19.25667430894309,nan,-99.60916089430894,nan,0.0,0.0,9936.5518,0.0,0.0,0.0,0.0
860.0,17.0,30.0,98.0,137.0,116.0,nan,-0.69,-7.66,1.42,0.57,-80.82,117.51,15.6,-10.34,1.53,-0.65,0.55,-0.34,0.39,1.0,28.82,26.4,0.0746439,0.0,19.256670406504067,nan,-99.60915731707316,nan,0.0,0.0,9936.5518,0.0,0.0,2628.2,0.0
880.0,24.0,29.0,107.0,153.0,110.0,nan,0.05,-7.8,2.28,0.55,-80.59,117.71,7.9,-10.27,1.11,-0.65,0.55,-0.34,0.39,1.0,28.82,26.4,0.0746439,0.0,19.25666650406504,nan,-99.60915373983737,nan,0.0,0.0,9936.5518,0.0,0.0,2628.2,0.0
902.0,26.0,29.0,78.0,137.0,111.0,nan,0.39,-7.54,2.07,0.52,-80.62,117.87,-4.21,-7.82,1.46,-0.65,0.55,-0.34,0.39,1.0,28.82,26.4,0.0746439,0.0,19.25666260162602,nan,-99.60915016260164,nan,0.0,0.0,9936.5518,0.0,0.0,2628.2,0.0
922.0,26.0,26.0,124.0,155.0,111.0,nan,0.22,-8.11,1.76,0.5,-80.68,118.01,-4.7,-6.56,1.32,-0.65,0.55,-0.34,0.39,1.0,28.82,26.4,0.0746439,0.0,19.256658699186996,nan,-99.60914658536585,nan,0.0,0.0,9936.5518,0.0,0.0,2628.2,0.0
945.0,32.0,31.0,157.0,146.0,119.0,nan,-0.31,-9.14,2.36,0.44,-80.44,118.36,1.46,-9.29,-0.92,-0.66,0.55,-0.33,0.39,1.0,28.82,26.4,0.0746439,0.0,19.256654796747966,nan,-99.60914300813008,nan,0.0,0.0,9936.5518,0.0,0.0,2628.2,0.0
971.0,26.0,29.0,150.0,133.0,110.0,nan,-0.03,-7.48,1.92,0.41,-80.57,118.5,-8.69,-7.05,-0.5,-0.66,0.55,-0.33,0.39,1.0,28.82,26.4,0.0746439,0.0,19.25665089430894,nan,-99.60913943089429,nan,0.0,0.0,9936.5518,0.0,0.0,2628.2,0.0
994.0,31.0,28.0,99.0,139.0,110.0,nan,0.41,-7.05,1.91,0.35,-80.61,118.66,-5.05,-7.96,0.13,-0.66,0.56,-0.33,0.39,1.0,28.82,26.4,0.0746439,0.0,19.25665089430894,nan,-99.60913943089429,nan,0.0,0.0,9936.5518,0.0,0.0,0.0,0.0
1013.0,27.0,32.0,67.0,138.0,124.0,nan,0.76,-6.86,1.74,0.24,-80.69,118.82,-6.38,-8.38,-0.99,-0.66,0.56,-0.33,0.39,1.0,28.82,26.4,0.0746439,0.0,19.256646991869918,nan,-99.60913585365853,nan,0.0,0.0,9936.5518,0.0,0.0,2628.2,0.0
1036.0,32.0,31.0,52.0,109.0,97.0,nan,0.8,-8.16,0.99,0.13,-81.04,118.94,-16.18,-6.21,-1.27,-0.66,0.56,-0.33,0.39,1.0,28.82,26.4,0.0746439,0.0,19.256643089430895,nan,-99.60913227642277,nan,0.0,0.0,9936.5518,0.0,0.0,2628.2,0.0
1056.0,31.0,31.0,68.0,116.0,98.0,nan,0.04,-8.8,0.34,0.1,-81.38,119.05,-13.66,-5.58,-0.43,-0.65,0.56,-0.33,0.38,1.0,28.82,26.4,0.0746439,0.0,19.25663918699187,nan,-99.609128699187,nan,0.0,0.0,9936.5518,0.0,0.0,2628.2,0.0
1079.0,38.0,26.0,82.0,138.0,126.0,nan,-0.06,-10.0,0.56,0.09,-81.54,119.18,-5.61,-6.77,0.2,-0.65,0.56,-0.33,0.38,1.0,28.82,26.4,0.0746439,0.0,19.256635284552846,nan,-99.60912512195121,nan,0.0,0.0,9936.5518,0.0,0.0,2628.2,0.0
1098.0,27.0,28.0,38.0,131.0,111.0,nan,0.6,-8.97,0.73,0.07,-81.5,119.37,3.77,-9.01,2.09,-0.65,0.56,-0.33,0.38,1.0,28.82,26.4,0.0746439,0.0,19.256635284552846,nan,-99.60912512195121,nan,0.0,0.0,9936.5518,0.0,0.0,0.0,0.0
1121.0,32.0,27.0,82.0,134.0,124.0,nan,0.61,-7.14,0.83,0.06,-81.3,119.58,11.33,-10.13,3.77,-0.66,0.56,-0.33,0.38,1.0,28.82,26.4,0.0746439,0.0,19.256631382113824,nan,-99.60912154471545,nan,0.0,0.0,9936.5518,0.0,0.0,2628.2,0.0
1141.0,18.0,30.0,88.0,157.0,125.0,nan,0.73,-6.16,1.43,-0.02,-81.03,119.8,10.98,-10.9,1.25,-0.66,0.56,-0.33,0.38,1.0,28.82,26.4,0.0746439,0.0,19.256627479674798,nan,-99.60911796747966,nan,0.0,0.0,9936.5518,0.0,0.0,2628.2,0.0
1164.0,21.0,18.0,78.0,129.0,104.0,nan,0.66,-6.8,0.97,-0.2,-81.11,120.2,-12.05,-9.29,-0.99,-0.66,0.56,-0.32,0.38,1.0,28.82,26.4,0.0746439,0.0,19.256623577235775,nan,-99.60911439024387,nan,0.0,0.0,9936.5518,0.0,0.0,2628.2,0.0
1190.0,20.0,30.0,67.0,110.0,101.0,nan,0.08,-7.34,0.44,-0.21,-81.4,120.36,-11.77,-8.1,0.83,-0.66,0.57,-0.32,0.38,1.0,28.82,26.4,0.0746439,0.0,19.256619674796752,nan,-99.60911081300813,nan,0.0,0.0,9936.5518,0.0,0.0,2628.2,0.0
1213.0,26.0,30.0,53.0,125.0,76.0,nan,-0.05,-7.72,0.4,-0.22,-81.28,120.57,8.88,-10.48,0.97,-0.66,0.57,-0.32,0.38,1.0,28.82,26.4,0.0746439,0.0,19.256615772357726,nan,-99.60910723577234,nan,0.0,0.0,9936.5518,0.0,0.0,2628.2,0.0
1233.0,24.0,31.0,108.0,137.0,117.0,nan,0.35,-8.33,1.56,-0.25,-80.8,120.83,23.09,-12.79,1.6,-0.66,0.56,-0.32,0.38,1.0,28.82,26.4,0.0746439,0.0,19.256611869918704,nan,-99.60910365853658,nan,0.0,0.0,9936.5518,0.0,0.0,2628.2,0.0
1255.0,36.0,25.0,77.0,153.0,110.0,nan,0.2,-9.31,3.04,-0.26,-80.33,121.1,18.89,-13.35,2.3,-0.66,0.56,-0.32,0.38,1.0,28.82,26.4,0.0746439,0.0,19.256611869918704,nan,-99.60910365853658,nan,0.0,0.0,9936.5518,0.0,0.0,0.0,0.0
1275.0,27.0,25.0,88.0,132.0,123.0,nan,-0.12,-8.97,3.18,-0.23,-80.01,121.38,11.4,-13.77,3.49,-0.67,0.56,-0.31,0.38,1.0,28.85,26.46,0.0746423,0.0,19.256607967479674,nan,-99.6091000813008,nan,0.0,0.0,9936.5518,0.0,0.0,2628.2,0.0
1300.0,33.0,31.0,77.0,134.0,110.0,nan,0.16,-7.96,2.83,-0.26,-79.88,121.64,1.53,-13.14,0.83,-0.67,0.56,-0.31,0.38,1.0,28.85,26.46,0.0746423,0.0,19.25660406504065,nan,-99.60909650406504,nan,0.0,0.0,9936.5518,0.0,0.0,2628.2,0.0
1320.0,26.0,26.0,78.0,118.0,110.0,nan,-0.44,-7.66,2.56,-0.26,-79.88,121.88,-4.14,-12.09,0.76,-0.67,0.56,-0.31,0.37,1.0,28.85,26.46,0.0746423,0.0,19.256600162601625,nan,-99.60909292682926,nan,0.0,0.0,9936.5518,0.0,0.0,2628.2,0.0
1343.0,19.0,30.0,77.0,124.0,112.0,nan,-0.49,-9.43,1.44,-0.2,-80.22,122.41,-9.6,-13.49,2.16,-0.67,0.57,-0.31,0.37,1.0,28.85,26.46,0.0746423,0.0,19.256596260162603,nan,-99.6090893495935,nan,0.0,0.0,9936.5518,0.0,0.0,2628.2,0.0
1369.0,25.0,29.0,66.0,139.0,109.0,nan,0.26,-7.92,1.62,-0.21,-80.01,122.75,9.3,-16.5,2.93,-0.67,0.56,-0.31,0.37,1.0,28.85,26.46,0.0746423,0.0,19.25659235772358,nan,-99.60908577235772,nan,0.0,0.0,9936.5518,0.0,0.0,2628.2,0.0
1392.0,38.0,21.0,68.0,134.0,124.0,nan,0.35,-6.5,2.28,-0.23,-79.71,123.08,10.77,-16.15,3.42,-0.67,0.56,-0.3,0.37,1.0,28.85,26.46,0.0746423,0.0,19.256588455284554,nan,-99.60908219512196,nan,0.0,0.0,9936.5518,0.0,0.0,2628.2,0.0
1411.0,26.0,20.0,53.0,125.0,111.0,nan,-0.49,-6.24,2.83,-0.18,-79.36,123.39,10.56,-15.45,3.28,-0.68,0.56,-0.3,0.37,1.0,28.85,26.46,0.0746423,0.0,19.256588455284554,nan,-99.60908219512196,nan,0.0,0.0,9936.5518,0.0,0.0,0.0,0.0
1434.0,27.0,27.0,88.0,130.0,110.0,nan,-0.63,-7.75,3.44,-0.14,-79.22,123.7,0.41,-15.1,2.65,-0.68,0.56,-0.3,0.36,1.0,28.85,26.46,0.0746423,0.0,19.256584552845524,nan,-99.60907861788617,nan,0.0,0.0,9936.5518,0.0,0.0,2628.2,0.0
1454.0,26.0,29.0,107.0,137.0,111.0,nan,-0.83,-8.58,2.65,-0.09,-79.47,123.99,-15.76,-14.19,2.3,-0.68,0.56,-0.3,0.36,1.0,28.85,26.46,0.0746423,0.0,19.2565806504065,nan,-99.60907504065042,nan,0.0,0.0,9936.5518,0.0,0.0,2628.2,0.0
1477.0,30.0,17.0,66.0,155.0,104.0,nan,-0.74,-8.26,2.11,-0.03,-79.65,124.29,-10.65,-15.03,3.21,-0.68,0.57,-0.3,0.36,1.0,28.85,26.46,0.0746423,0.0,19.25657674796748,nan,-99.60907146341464,nan,0.0,0.0,9936.5518,0.0,0.0,2628.2,0.0
1497.0,17.0,31.0,55.0,137.0,76.0,nan,-0.98,-7.8,1.86,0.03,-79.64,124.63,-1.34,-16.64,2.65,-0.68,0.57,-0.3,0.36,1.0,28.85,26.46,0.0746423,0.0,19.256572845528453,nan,-99.60906788617885,nan,0.0,0.0,9936.5518,0.0,0.0,2628.2,0.0
1519.0,18.0,30.0,68.0,139.0,102.0,nan,-0.27,-7.29,2.51,0.11,-79.47,125.31,-1.13,-16.29,2.79,-0.68,0.57,-0.29,0.35,1.0,28.85,26.46,0.0746423,0.0,19.25656894308943,nan,-99.60906430894309,nan,0.0,0.0,9936.5518,0.0,0.0,2628.2,0.0
1546.0,17.0,30.0,88.0,144.0,74.0,nan,-0.25,-8.54,1.92,0.15,-79.67,125.63,-11.14,-15.38,3.7,-0.68,0.57,-0.29,0.35,1.0,28.85,26.46,0.0746423,0.0,19.256565040650408,nan,-99.6090607317073,nan,0.0,0.0,9936.5518,0.0,0.0,2628.2,0.0
1569.0,16.0,30.0,108.0,137.0,102.0,nan,-0.94,-8.31,1.49,0.23,-79.8,125.96,-6.59,-16.15,4.05,-0.68,0.57,-0.29,0.35,1.0,28.85,26.46,0.0746423,0.0,19.256565040650408,nan,-99.6090607317073,nan,0.0,0.0,9936.5518,0.0,0.0,0.0,0.0
1588.0,27.0,18.0,76.0,134.0,110.0,nan,-1.05,-7.9,2.31,0.31,-79.49,126.34,12.52,-18.74,3.7,-0.69,0.57,-0.29,0.35,1.0,28.85,26.46,0.0746423,0.0,19.25656113821138,nan,-99.60905715447156,nan,0.0,0.0,9936.5518,0.0,0.0,2628.2,0.0
1611.0,27.0,27.0,53.0,138.0,111.0,nan,-1.15,-7.62,2.92,0.38,-79.25,126.72,6.43,-18.67,3.42,-0.69,0.57,-0.29,0.34,1.0,28.85,26.46,0.0746423,0.0,19.25655723577236,nan,-99.60905357723577,nan,0.0,0.0,9936.5518,0.0,0.0,2628.2,0.0
1630.0,32.0,25.0,98.0,137.0,111.0,nan,-0.7,-7.1,2.49,0.42,-79.36,127.07,-9.67,-17.34,2.58,-0.69,0.57,-0.29,0.34,1.0,28.85,26.46,0.0746423,0.0,19.256552916666664,nan,-99.60904916666665,nan,0.0,0.0,9936.543,1.0,1.0,2628.2,0.0
1653.0,30.0,30.0,89.0,137.0,111.0,nan,-0.83,-7.11,1.77,0.46,-79.68,127.39,-17.86,-15.94,2.02,-0.69,0.57,-0.29,0.34,1.0,28.85,26.46,0.0746423,0.0,19.256552499999998,nan,-99.60904833333335,nan,0.0,0.0,9936.543,0.0,0.0,2628.2,0.0
1673.0,26.0,31.0,68.0,137.0,110.0,nan,-0.75,-7.39,1.2,0.47,-79.96,127.71,-13.31,-16.08,0.9,-0.69,0.58,-0.29,0.34,1.0,28.85,26.46,0.0746423,0.0,19.256552083333332,nan,-99.60904750000002,nan,0.0,0.0,9936.543,0.0,0.0,2628.2,0.0
1696.0,32.0,30.0,77.0,137.0,105.0,nan,-0.54,-7.32,1.37,0.47,-80.02,128.06,-3.86,-17.62,1.32,-0.69,0.58,-0.28,0.33,1.0,28.85,26.46,0.0746423,0.0,19.256552083333332,nan,-99.60904750000002,nan,0.0,0.0,9936.543,0.0,0.0,0.0,0.0
1715.0,17.0,26.0,87.0,138.0,122.0,nan,-0.34,-7.49,1.23,0.47,-80.04,128.44,-0.71,-18.74,1.95,-0.69,0.58,-0.28,0.33,1.0,28.85,26.46,0.0746423,0.0,19.256551666666667,nan,-99.60904666666666,nan,0.0,0.0,9936.543,0.0,0.0,2628.2,0.0
1738.0,30.0,21.0,51.0,139.0,120.0,nan,-0.95,-7.44,2.12,0.54,-79.53,129.19,19.59,-19.02,2.86,-0.7,0.58,-0.28,0.33,1.0,28.83,26.43,0.0746349,0.0,19.25655125,nan,-99.60904583333335,nan,0.0,0.0,9936.543,0.0,0.0,2628.2,0.0
1770.0,18.0,31.0,67.0,139.0,117.0,nan,-1.19,-8.92,3.59,0.6,-79.17,129.57,12.03,-18.53,2.93,-0.7,0.57,-0.28,0.33,1.0,28.83,26.43,0.0746349,0.0,19.25655083333333,nan,-99.609045,nan,0.0,0.0,9936.543,0.0,0.0,2628.2,0.0
1790.0,37.0,27.0,78.0,140.0,125.0,nan,-1.18,-8.42,2.92,0.65,-79.21,129.93,-6.45,-17.76,2.37,-0.7,0.58,-0.27,0.32,1.0,28.83,26.43,0.0746349,0.0,19.25655041666667,nan,-99.60904416666666,nan,0.0,0.0,9936.543,0.0,0.0,2628.2,0.0
1812.0,31.0,29.0,134.0,160.0,124.0,nan,-0.57,-7.47,2.24,0.65,-79.17,130.3,-0.78,-18.46,1.6,-0.7,0.58,-0.27,0.32,1.0,28.83,26.43,0.0746349,0.0,19.256549999999997,nan,-99.6090433333333,nan,0.0,0.0,9936.543,0.0,0.0,2627.9,0.0
1832.0,30.0,21.0,98.0,147.0,109.0,nan,-0.78,-6.79,2.46,0.64,-78.93,130.66,7.2,-18.39,0.48,-0.7,0.58,-0.27,0.32,1.0,28.83,26.43,0.0746349,0.0,19.25654958333333,nan,-99.6090425,nan,0.0,0.0,9936.543,0.0,0.0,2627.9,0.0
1855.0,25.0,30.0,156.0,159.0,109.0,nan,-1.12,-7.31,3.06,0.66,-78.81,131.0,0.27,-16.85,0.62,-0.7,0.58,-0.27,0.32,1.0,28.83,26.43,0.0746349,0.0,19.25654958333333,nan,-99.6090425,nan,0.0,0.0,9936.543,0.0,0.0,0.0,0.0
1874.0,26.0,30.0,139.0,132.0,110.0,nan,-1.02,-8.42,2.66,0.66,-79.28,131.28,-26.96,-14.26,-0.15,-0.7,0.58,-0.27,0.31,1.0,28.83,26.43,0.0746349,0.0,19.256549166666666,nan,-99.60904166666667,nan,0.0,0.0,9936.543,0.0,0.0,2627.9,0.0
1898.0,20.0,31.0,108.0,133.0,109.0,nan,-0.49,-8.03,0.48,0.6,-79.91,131.91,3.35,-17.48,0.97,-0.7,0.58,-0.27,0.31,1.0,28.83,26.43,0.0746349,0.0,19.25654875,nan,-99.60904083333331,nan,0.0,0.0,9936.543,0.0,0.0,2627.9,0.0
1924.0,26.0,31.0,78.0,139.0,110.0,nan,-0.8,-8.48,1.62,0.64,-79.56,132.28,17.0,-18.53,2.93,-0.7,0.58,-0.26,0.31,1.0,28.83,26.43,0.0746349,0.0,19.256548333333335,nan,-99.60904000000001,nan,0.0,0.0,9936.543,0.0,0.0,2627.9,0.0
1946.0,25.0,27.0,82.0,139.0,108.0,nan,-1.08,-8.88,2.26,0.7,-79.34,132.65,8.74,-18.11,3.28,-0.71,0.58,-0.26,0.31,1.0,28.83,26.43,0.0746349,0.0,19.25654791666667,nan,-99.60903916666668,nan,0.0,0.0,9936.543,0.0,0.0,2627.9,0.0
1966.0,31.0,31.0,146.0,146.0,124.0,nan,-0.81,-7.58,2.38,0.72,-79.13,133.03,7.06,-18.95,2.09,-0.71,0.58,-0.26,0.3,1.0,28.83,26.43,0.0746349,0.0,19.2565475,nan,-99.60903833333332,nan,0.0,0.0,9936.543,0.0,0.0,2627.9,0.0
1989.0,27.0,30.0,109.0,153.0,111.0,nan,-0.17,-7.86,2.96,0.69,-78.9,133.4,6.36,-18.46,2.02,-0.71,0.58,-0.26,0.3,1.0,28.83,26.43,0.0746349,0.0,19.256547083333334,nan,-99.60903749999999,nan,0.0,0.0,9936.543,0.0,0.0,2627.9,0.0
2008.0,17.0,29.0,60.0,139.0,105.0,nan,-0.57,-7.25,2.06,0.73,-78.97,133.73,-6.03,-16.29,3.0,-0.71,0.58,-0.25,0.3,1.0,28.83,26.43,0.0746349,0.0,19.256547083333334,nan,-99.60903749999999,nan,0.0,0.0,9936.543,0.0,0.0,0.0,0.0
2031.0,25.0,30.0,124.0,137.0,74.0,nan,-0.97,-7.52,2.45,0.77,-78.89,134.08,0.06,-16.99,2.58,-0.71,0.58,-0.25,0.3,1.0,28.83,26.43,0.0746349,0.0,19.25654666666667,nan,-99.60903666666665,nan,0.0,0.0,9936.543,0.0,0.0,2627.9,0.0
2051.0,21.0,31.0,98.0,139.0,117.0,nan,-0.85,-7.25,2.55,0.79,-78.87,134.43,-3.23,-17.48,1.53,-0.71,0.58,-0.25,0.3,1.0,28.83,26.43,0.0746349,0.0,19.256546250000003,nan,-99.60903583333332,nan,0.0,0.0,9936.543,0.0,0.0,2627.9,0.0
2074.0,37.0,31.0,68.0,136.0,110.0,nan,-0.55,-6.75,1.82,0.78,-79.03,134.76,-9.88,-16.71,0.69,-0.71,0.59,-0.25,0.29,1.0,28.83,26.43,0.0746349,0.0,19.256545833333337,nan,-99.60903499999998,nan,0.0,0.0,9936.543,0.0,0.0,2627.9,0.0
2093.0,27.0,30.0,88.0,136.0,111.0,nan,-0.45,-6.64,1.52,0.79,-79.06,135.09,-2.81,-16.36,2.16,-0.71,0.59,-0.25,0.29,1.0,28.83,26.43,0.0746349,0.0,19.256545416666665,nan,-99.60903416666666,nan,0.0,0.0,9936.543,0.0,0.0,2627.9,0.0
2116.0,17.0,30.0,108.0,137.0,97.0,nan,-1.03,-9.25,2.96,0.91,-78.8,135.76,3.14,-16.22,3.07,-0.72,0.59,-0.24,0.29,1.0,28.83,26.43,0.0746349,0.0,19.256545,nan,-99.60903333333333,nan,0.0,0.0,9936.543,0.0,0.0,2627.9,0.0
2142.0,22.0,30.0,52.0,154.0,109.0,nan,-1.44,-9.46,3.03,0.95,-78.91,136.09,-9.39,-16.36,1.67,-0.72,0.59,-0.24,0.28,1.0,28.83,26.43,0.0746349,0.0,19.256544583333334,nan,-99.60903249999998,nan,0.0,0.0,9936.543,0.0,0.0,2627.9,0.0
2165.0,20.0,30.0,68.0,167.0,138.0,nan,-1.14,-7.68,1.5,0.98,-79.13,136.41,-10.86,-16.36,0.76,-0.72,0.59,-0.24,0.28,1.0,28.83,26.43,0.0746349,0.0,19.256544583333334,nan,-99.60903249999998,nan,0.0,0.0,9936.543,0.0,0.0,0.0,0.0
2185.0,21.0,29.0,78.0,185.0,138.0,nan,-0.4,-6.67,1.69,0.97,-78.92,136.76,8.32,-17.55,2.16,-0.72,0.59,-0.24,0.28,1.0,28.83,26.43,0.0746349,0.0,19.256544166666668,nan,-99.60903166666667,nan,0.0,0.0,9936.543,0.0,0.0,2627.9,0.0
2208.0,27.0,28.0,52.0,149.0,105.0,nan,-0.49,-6.64,2.47,0.97,-78.66,137.12,8.18,-17.48,1.81,-0.72,0.59,-0.24,0.28,1.0,28.82,26.43,0.0746398,0.0,19.256543750000002,nan,-99.60903083333334,nan,0.0,0.0,9936.543,0.0,0.0,2627.9,0.0
2229.0,29.0,28.0,52.0,125.0,75.0,nan,-0.79,-7.1,2.6,0.98,-78.74,137.42,-8.62,-15.31,0.83,-0.72,0.59,-0.24,0.28,1.0,28.82,26.43,0.0746398,0.0,19.25654333333333,nan,-99.60902999999999,nan,0.0,0.0,9936.543,0.0,0.0,2627.9,0.0
2252.0,28.0,31.0,67.0,110.0,89.0,nan,-1.32,-8.31,1.66,0.98,-79.2,137.69,-23.18,-14.05,-1.27,-0.72,0.59,-0.24,0.27,1.0,28.82,26.43,0.0746398,0.0,19.25654291666667,nan,-99.60902916666667,nan,0.0,0.0,9936.543,0.0,0.0,2627.9,0.0
2272.0,32.0,31.0,54.0,134.0,112.0,nan,-0.04,-8.37,0.71,0.89,-79.58,137.97,-16.46,-14.61,-1.62,-0.72,0.6,-0.24,0.27,1.0,28.82,26.43,0.0746398,0.0,19.2565425,nan,-99.60902833333333,nan,0.0,0.0,9936.543,0.0,0.0,2627.9,0.0
2295.0,26.0,25.0,82.0,138.0,111.0,nan,-0.03,-6.46,1.48,0.76,-79.15,138.69,16.86,-18.6,2.58,-0.72,0.59,-0.23,0.27,1.0,28.82,26.43,0.0746398,0.0,19.256542083333333,nan,-99.6090275,nan,0.0,0.0,9936.543,0.0,0.0,2627.9,0.0
2321.0,31.0,29.0,72.0,139.0,76.0,nan,-1.04,-7.54,2.53,0.8,-78.75,139.05,15.95,-18.11,1.74,-0.73,0.59,-0.23,0.27,1.0,28.82,26.43,0.0746398,0.0,19.256542083333333,nan,-99.6090275,nan,0.0,0.0,9936.543,0.0,0.0,0.0,0.0
2344.0,18.0,29.0,99.0,154.0,102.0,nan,-1.29,-8.09,2.49,0.81,-78.69,139.37,-0.08,-16.5,-0.15,-0.73,0.59,-0.23,0.26,1.0,28.82,26.43,0.0746398,0.0,19.256541666666667,nan,-99.60902666666664,nan,0.0,0.0,9936.543,0.0,0.0,2627.9,0.0
2364.0,24.0,30.0,82.0,155.0,110.0,nan,-0.74,-8.05,2.6,0.79,-78.65,139.68,-1.62,-15.59,0.2,-0.73,0.59,-0.22,0.26,1.0,28.82,26.43,0.0746398,0.0,19.25654125,nan,-99.60902583333333,nan,0.0,0.0,9936.543,0.0,0.0,2627.9,0.0
2386.0,31.0,29.0,136.0,137.0,110.0,nan,-0.53,-8.5,2.95,0.8,-78.65,139.97,-4.07,-14.47,1.95,-0.73,0.59,-0.22,0.26,1.0,28.82,26.43,0.0746398,0.0,19.256540833333336,nan,-99.609025,nan,0.0,0.0,9936.543,0.0,0.0,2627.9,0.0
2406.0,17.0,25.0,108.0,136.0,111.0,nan,-0.49,-8.7,2.7,0.79,-78.81,140.26,-11.07,-14.54,1.32,-0.73,0.6,-0.22,0.26,1.0,28.82,26.43,0.0746398,0.0,19.256540416666667,nan,-99.60902416666664,nan,0.0,0.0,9936.543,0.0,0.0,2627.9,0.0
2429.0,19.0,17.0,78.0,156.0,109.0,nan,-0.59,-8.36,1.62,0.76,-79.09,140.56,-13.8,-15.1,-0.36,-0.73,0.6,-0.22,0.26,1.0,28.82,26.43,0.0746398,0.0,19.25654,nan,-99.60902333333334,nan,0.0,0.0,9936.543,0.0,0.0,2627.9,0.0
2449.0,38.0,32.0,67.0,136.0,110.0,nan,-0.23,-7.07,1.16,0.69,-79.29,140.85,-9.53,-15.24,-1.2,-0.73,0.6,-0.22,0.25,1.0,28.82,26.43,0.0746398,0.0,19.25654,nan,-99.60902333333334,nan,0.0,0.0,9936.543,0.0,0.0,0.0,0.0
2471.0,28.0,25.0,87.0,110.0,81.0,nan,-0.38,-7.32,1.18,0.69,-79.37,141.15,-3.44,-14.68,1.53,-0.73,0.6,-0.22,0.25,1.0,28.82,26.43,0.0746398,0.0,19.256539583333335,nan,-99.60902250000001,nan,0.0,0.0,9936.543,0.0,0.0,2627.9,0.0
2491.0,30.0,26.0,78.0,124.0,110.0,nan,-1.01,-8.3,0.76,0.75,-79.75,141.41,-16.39,-13.0,2.37,-0.73,0.6,-0.22,0.25,1.0,28.82,26.43,0.0746398,0.0,19.25653916666667,nan,-99.60902166666665,nan,0.0,0.0,9936.543,0.0,0.0,2627.9,0.0
2516.0,38.0,27.0,52.0,154.0,111.0,nan,-0.75,-7.75,-0.61,0.8,-79.91,142.02,18.33,-16.92,1.11,-0.73,0.61,-0.21,0.25,1.0,28.82,26.43,0.0746398,0.0,19.256538750000004,nan,-99.60902083333332,nan,0.0,0.0,9936.543,0.0,0.0,2627.9,0.0
2540.0,22.0,31.0,72.0,146.0,104.0,nan,-0.94,-7.84,1.63,0.86,-79.08,142.39,40.45,-18.46,3.77,-0.73,0.6,-0.21,0.24,1.0,28.82,26.43,0.0746398,0.0,19.25653833333333,nan,-99.60901999999999,nan,0.0,0.0,9936.543,0.0,0.0,2627.9,0.0
2563.0,26.0,27.0,98.0,154.0,110.0,nan,-1.2,-8.66,3.0,0.94,-78.53,142.75,23.16,-17.13,3.98,-0.74,0.6,-0.21,0.24,1.0,28.82,26.43,0.0746398,0.0,19.256537916666666,nan,-99.60901916666666,nan,0.0,0.0,9936.543,0.0,0.0,2627.9,0.0
2582.0,39.0,30.0,136.0,150.0,110.0,nan,-0.65,-6.89,2.31,0.93,-78.27,143.07,9.23,-16.5,0.76,-0.74,0.6,-0.21,0.24,1.0,28.82,26.43,0.0746398,0.0,19.2565375,nan,-99.60901833333332,nan,0.0,0.0,9936.543,0.0,0.0,2627.9,0.0
2606.0,26.0,31.0,157.0,149.0,110.0,nan,-0.13,-7.76,3.06,0.87,-77.97,143.37,10.28,-14.96,0.13,-0.74,0.6,-0.2,0.24,1.0,28.82,26.43,0.0746398,0.0,19.2565375,nan,-99.60901833333332,nan,0.0,0.0,9936.543,0.0,0.0,0.0,0.0
2625.0,26.0,28.0,171.0,138.0,75.0,nan,-0.82,-7.95,2.57,0.87,-78.1,143.62,-9.74,-12.58,-0.08,-0.74,0.6,-0.2,0.24,1.0,28.82,26.43,0.0746398,0.0,19.256537083333335,nan,-99.6090175,nan,0.0,0.0,9936.543,0.0,0.0,2627.9,0.0
2648.0,17.0,17.0,172.0,146.0,111.0,nan,-1.2,-8.04,1.41,0.88,-78.38,143.85,-13.31,-12.16,-0.36,-0.74,0.6,-0.2,0.24,1.0,28.82,26.43,0.0746398,0.0,19.25653641025641,nan,-99.60901585470084,nan,0.0,0.0,9936.541,1.0,1.0,2627.9,0.0
2667.0,38.0,30.0,172.0,149.0,117.0,nan,-0.63,-7.75,1.62,0.84,-78.35,144.13,1.11,-14.61,-1.06,-0.74,0.6,-0.2,0.23,1.0,28.85,26.46,0.0746439,0.0,19.256536153846156,nan,-99.60901504273505,nan,0.0,0.0,9936.541,0.0,0.0,2627.9,0.0
2692.0,26.0,31.0,76.0,138.0,111.0,nan,-0.91,-6.61,1.96,0.88,-77.75,144.72,20.92,-14.89,1.39,-0.74,0.6,-0.2,0.23,1.0,28.85,26.46,0.0746439,0.0,19.2565358974359,nan,-99.6090142307692,nan,0.0,0.0,9936.541,0.0,0.0,2627.9,0.0
2719.0,25.0,18.0,87.0,119.0,117.0,nan,-0.49,-8.26,3.11,0.87,-77.36,145.0,14.83,-13.63,1.39,-0.75,0.59,-0.19,0.23,1.0,28.85,26.46,0.0746439,0.0,19.25653564102564,nan,-99.60901341880341,nan,0.0,0.0,9936.541,0.0,0.0,2627.9,0.0
2741.0,27.0,30.0,72.0,140.0,110.0,nan,-0.63,-8.54,3.15,0.87,-77.27,145.23,0.76,-11.46,1.32,-0.75,0.59,-0.19,0.23,1.0,28.85,26.46,0.0746439,0.0,19.256535384615386,nan,-99.6090126068376,nan,0.0,0.0,9936.541,0.0,0.0,2627.9,0.0
2761.0,26.0,28.0,78.0,139.0,111.0,nan,-1.06,-7.83,3.06,0.88,-77.12,145.47,3.14,-12.58,0.13,-0.75,0.59,-0.19,0.23,1.0,28.85,26.46,0.0746439,0.0,19.256535384615386,nan,-99.6090126068376,nan,0.0,0.0,9936.541,0.0,0.0,0.0,0.0
2784.0,28.0,31.0,52.0,139.0,108.0,nan,-1.15,-7.23,2.94,0.89,-76.74,145.75,13.85,-14.12,-0.01,-0.75,0.59,-0.19,0.23,1.0,28.85,26.46,0.0746439,0.0,19.256535128205126,nan,-99.60901179487179,nan,0.0,0.0,9936.541,0.0,0.0,2627.9,0.0
2803.0,18.0,17.0,67.0,125.0,110.0,nan,-1.02,-7.2,3.74,0.89,-76.35,146.0,12.31,-13.0,-0.08,-0.75,0.59,-0.19,0.23,1.0,28.85,26.46,0.0746439,0.0,19.256534871794873,nan,-99.60901098290597,nan,0.0,0.0,9936.541,0.0,0.0,2627.9,0.0
2826.0,17.0,26.0,78.0,124.0,75.0,nan,-1.53,-8.09,3.97,0.93,-76.45,146.19,-11.14,-9.43,-0.5,-0.75,0.59,-0.19,0.22,1.0,28.85,26.46,0.0746439,0.0,19.256534615384616,nan,-99.60901017094018,nan,0.0,0.0,9936.541,0.0,0.0,2628.6,0.0
2846.0,17.0,30.0,108.0,126.0,89.0,nan,-1.44,-8.5,3.21,0.93,-77.07,146.31,-34.45,-6.7,-2.39,-0.75,0.59,-0.19,0.22,1.0,28.85,26.46,0.0746439,0.0,19.256534358974363,nan,-99.60900935897433,nan,0.0,0.0,9936.541,0.0,0.0,2628.6,0.0
2869.0,31.0,31.0,67.0,139.0,108.0,nan,-1.17,-8.35,1.5,0.89,-77.76,146.45,-33.19,-7.96,-3.79,-0.75,0.6,-0.19,0.22,1.0,28.85,26.46,0.0746439,0.0,19.256534358974363,nan,-99.60900935897433,nan,0.0,0.0,9936.541,0.0,0.0,0.0,0.0
2888.0,27.0,26.0,78.0,125.0,111.0,nan,-0.12,-8.49,0.78,0.82,-78.11,146.62,-14.43,-9.43,-1.76,-0.75,0.6,-0.19,0.22,1.0,28.85,26.46,0.0746439,0.0,19.256534102564103,nan,-99.60900854700854,nan,0.0,0.0,9936.541,0.0,0.0,2628.6,0.0
2911.0,26.0,29.0,77.0,155.0,109.0,nan,-0.97,-8.03,1.52,0.88,-78.1,147.04,2.79,-10.62,0.27,-0.75,0.6,-0.18,0.22,1.0,28.85,26.46,0.0746439,0.0,19.25653384615385,nan,-99.60900773504272,nan,0.0,0.0,9936.541,0.0,0.0,2628.6,0.0
2937.0,31.0,30.0,81.0,146.0,120.0,nan,-0.85,-6.76,1.9,0.87,-77.99,147.25,3.21,-11.18,-1.2,-0.75,0.6,-0.18,0.21,1.0,28.85,26.46,0.0746439,0.0,19.25653358974359,nan,-99.60900692307693,nan,0.0,0.0,9936.541,0.0,0.0,2628.6,0.0
2960.0,17.0,29.0,39.0,138.0,109.0,nan,-0.87,-6.39,1.82,0.86,-77.94,147.46,0.48,-10.55,-1.41,-0.75,0.6,-0.18,0.21,1.0,28.85,26.46,0.0746439,0.0,19.256533333333334,nan,-99.60900611111111,nan,0.0,0.0,9936.541,0.0,0.0,2628.6,0.0
2980.0,27.0,31.0,66.0,139.0,111.0,nan,-0.9,-6.71,1.98,0.86,-78.02,147.61,-6.52,-8.17,-1.83,-0.75,0.6,-0.18,0.21,1.0,28.85,26.46,0.0746439,0.0,19.25653307692308,nan,-99.6090052991453,nan,0.0,0.0,9936.541,0.0,0.0,2628.6,0.0
3002.0,27.0,30.0,77.0,110.0,101.0,nan,-1.46,-8.45,1.82,0.89,-78.48,147.7,-22.97,-5.23,-1.83,-0.75,0.61,-0.18,0.21,1.0,28.85,26.46,0.0746439,0.0,19.25653282051282,nan,-99.60900448717949,nan,0.0,0.0,9936.541,0.0,0.0,2628.6,0.0
3022.0,17.0,19.0,76.0,136.0,110.0,nan,-0.78,-8.77,0.41,0.86,-79.23,147.78,-33.12,-4.25,-2.46,-0.74,0.61,-0.18,0.21,1.0,28.85,26.46,0.0746439,0.0,19.25653282051282,nan,-99.60900448717949,nan,0.0,0.0,9936.541,0.0,0.0,0.0,0.0
3045.0,33.0,31.0,119.0,163.0,125.0,nan,-0.23,-7.41,-0.41,0.81,-79.69,147.88,-16.25,-5.65,-2.18,-0.74,0.61,-0.18,0.21,1.0,28.85,26.46,0.0746439,0.0,19.256532564102567,nan,-99.60900367521366,nan,0.0,0.0,9936.541,0.0,0.0,2628.6,0.0
3065.0,36.0,24.0,146.0,155.0,111.0,nan,-0.5,-7.55,0.06,0.8,-79.64,148.03,7.48,-8.03,-0.36,-0.74,0.61,-0.18,0.21,1.0,28.85,26.46,0.0746439,0.0,19.256532307692307,nan,-99.60900286324785,nan,0.0,0.0,9936.541,0.0,0.0,2628.6,0.0
3087.0,17.0,30.0,76.0,138.0,119.0,nan,-0.94,-7.07,0.42,0.85,-79.38,148.2,16.3,-8.59,0.76,-0.74,0.61,-0.18,0.21,1.0,28.85,26.46,0.0746439,0.0,19.256532051282054,nan,-99.60900205128203,nan,0.0,0.0,9936.541,0.0,0.0,2628.6,0.0
3107.0,22.0,18.0,52.0,125.0,111.0,nan,-1.15,-7.73,2.07,0.9,-79.02,148.35,15.74,-7.68,-0.01,-0.74,0.61,-0.18,0.21,1.0,28.85,26.46,0.0746439,0.0,19.256531794871798,nan,-99.60900123931624,nan,0.0,0.0,9936.541,0.0,0.0,2628.6,0.0
3130.0,30.0,26.0,68.0,125.0,75.0,nan,-1.14,-8.3,-0.41,0.91,-80.16,148.47,-35.71,-2.36,-2.81,-0.74,0.62,-0.18,0.2,1.0,28.83,26.44,0.0746431,0.0,19.256531538461537,nan,-99.60900042735042,nan,0.0,0.0,9936.541,0.0,0.0,2628.6,0.0
3162.0,26.0,33.0,52.0,160.0,89.0,nan,-1.05,-8.29,-1.7,0.92,-80.44,148.54,-3.58,-4.32,-2.18,-0.74,0.62,-0.18,0.2,1.0,28.83,26.44,0.0746431,0.0,19.256531282051277,nan,-99.60899961538463,nan,0.0,0.0,9936.541,0.0,0.0,2628.6,0.0
3181.0,17.0,29.0,53.0,138.0,105.0,nan,-0.6,-9.03,0.08,0.95,-80.19,148.65,16.93,-5.44,1.18,-0.74,0.62,-0.18,0.2,1.0,28.83,26.44,0.0746431,0.0,19.256531025641024,nan,-99.60899880341879,nan,0.0,0.0,9936.541,0.0,0.0,2628.6,0.0
3204.0,30.0,28.0,52.0,137.0,118.0,nan,-1.09,-9.15,0.32,1.07,-80.03,148.76,11.89,-5.02,3.84,-0.74,0.62,-0.18,0.2,1.0,28.83,26.44,0.0746431,0.0,19.256531025641024,nan,-99.60899880341879,nan,0.0,0.0,9936.541,0.0,0.0,0.0,0.0
3223.0,27.0,30.0,108.0,146.0,125.0,nan,-0.95,-8.66,0.61,1.18,-79.74,148.9,17.07,-6.21,4.26,-0.74,0.62,-0.18,0.2,1.0,28.83,26.44,0.0746431,0.0,19.256530769230768,nan,-99.608997991453,nan,0.0,0.0,9936.541,0.0,0.0,2628.6,0.0
3246.0,26.0,30.0,67.0,149.0,111.0,nan,-0.65,-7.74,0.79,1.26,-79.33,149.05,22.95,-6.84,3.28,-0.74,0.61,-0.18,0.2,1.0,28.83,26.44,0.0746431,0.0,19.256530512820515,nan,-99.60899717948718,nan,0.0,0.0,9936.541,0.0,0.0,2628.6,0.0
3266.0,37.0,25.0,157.0,133.0,118.0,nan,-0.23,-6.39,1.94,1.3,-78.65,149.18,30.79,-6.35,3.14,-0.75,0.61,-0.18,0.2,1.0,28.83,26.44,0.0746431,0.0,19.256530256410255,nan,-99.60899636752137,nan,0.0,0.0,9936.541,0.0,0.0,2628.6,0.0
3288.0,26.0,17.0,173.0,136.0,75.0,nan,-1.66,-7.91,1.61,1.51,-78.56,149.28,-18.35,0.02,0.27,-0.75,0.61,-0.18,0.2,1.0,28.83,26.44,0.0746431,0.0,19.25653,nan,-99.60899555555555,nan,0.0,0.0,9936.541,0.0,0.0,2628.6,0.0
3315.0,19.0,30.0,88.0,161.0,88.0,nan,-1.04,-9.67,1.22,1.57,-78.94,149.25,-17.02,1.35,0.2,-0.75,0.61,-0.18,0.2,1.0,28.83,26.44,0.0746431,0.0,19.25652974358974,nan,-99.60899474358973,nan,0.0,0.0,9936.541,0.0,0.0,2628.6,0.0
3338.0,17.0,23.0,78.0,137.0,111.0,nan,-1.52,-9.59,0.53,1.7,-78.98,149.3,1.88,-1.73,3.49,-0.75,0.61,-0.18,0.2,1.0,28.83,26.44,0.0746431,0.0,19.256529487179485,nan,-99.60899393162394,nan,0.0,0.0,9936.541,0.0,0.0,2628.6,0.0
3357.0,27.0,24.0,136.0,162.0,126.0,nan,-1.32,-6.37,0.85,1.86,-78.47,149.41,27.01,-4.74,3.7,-0.75,0.61,-0.18,0.19,1.0,28.83,26.44,0.0746431,0.0,19.256529487179485,nan,-99.60899393162394,nan,0.0,0.0,9936.541,0.0,0.0,0.0,0.0
3380.0,23.0,19.0,77.0,155.0,110.0,nan,-1.37,-6.05,2.67,1.97,-77.55,149.53,39.82,-5.72,2.09,-0.75,0.6,-0.18,0.19,1.0,28.83,26.44,0.0746431,0.0,19.25652923076923,nan,-99.6089931196581,nan,0.0,0.0,9936.541,0.0,0.0,2628.6,0.0
3400.0,26.0,28.0,76.0,110.0,96.0,nan,-1.18,-7.41,4.02,2.05,-77.17,149.6,11.26,-2.85,1.39,-0.76,0.6,-0.18,0.19,1.0,28.83,26.44,0.0746431,0.0,19.25652897435897,nan,-99.6089923076923,nan,0.0,0.0,9936.541,0.0,0.0,2628.6,0.0
3423.0,26.0,29.0,76.0,117.0,110.0,nan,-1.38,-6.76,2.08,2.14,-77.74,149.56,-30.46,1.98,-0.29,-0.75,0.6,-0.18,0.19,1.0,28.83,26.44,0.0746431,0.0,19.25652871794872,nan,-99.60899149572649,nan,0.0,0.0,9936.541,0.0,0.0,2628.6,0.0
3442.0,32.0,32.0,67.0,137.0,112.0,nan,-1.31,-6.64,0.78,2.18,-78.19,149.51,-20.1,1.84,-2.67,-0.75,0.6,-0.18,0.19,1.0,28.83,26.44,0.0746431,0.0,19.25652846153846,nan,-99.6089906837607,nan,0.0,0.0,9936.541,0.0,0.0,2628.6,0.0
3465.0,24.0,21.0,135.0,139.0,111.0,nan,-0.78,-7.91,1.73,2.17,-78.23,149.48,-1.76,0.93,-2.81,-0.75,0.6,-0.18,0.19,1.0,28.83,26.44,0.0746431,0.0,19.25652846153846,nan,-99.6089906837607,nan,0.0,0.0,9936.541,0.0,0.0,0.0,0.0
3484.0,23.0,26.0,40.0,125.0,110.0,nan,-1.0,-9.66,2.18,2.21,-78.48,149.44,-12.96,2.12,-0.01,-0.75,0.61,-0.18,0.19,1.0,28.83,26.44,0.0746431,0.0,19.256528205128205,nan,-99.60898987179488,nan,0.0,0.0,9936.541,0.0,0.0,2628.6,0.0
3507.0,27.0,31.0,136.0,150.0,111.0,nan,-1.21,-8.85,0.47,2.31,-78.78,149.5,6.08,-3.13,0.62,-0.75,0.61,-0.18,0.19,1.0,28.83,26.44,0.0746431,0.0,19.25652794871795,nan,-99.60898905982907,nan,0.0,0.0,9936.541,0.0,0.0,2628.6,0.0
3533.0,27.0,17.0,77.0,133.0,119.0,nan,-0.82,-7.45,1.21,2.34,-78.44,149.58,17.98,-3.83,0.55,-0.75,0.61,-0.18,0.19,1.0,28.83,26.44,0.0746431,0.0,19.25652769230769,nan,-99.60898824786325,nan,0.0,0.0,9936.541,0.0,0.0,2628.6,0.0
3557.0,18.0,22.0,67.0,136.0,76.0,nan,-0.82,-6.43,2.47,2.39,-78.05,149.64,14.76,-2.71,1.04,-0.75,0.6,-0.18,0.19,1.0,28.83,26.44,0.0746431,0.0,19.256527435897436,nan,-99.60898743589746,nan,0.0,0.0,9936.541,0.0,0.0,2628.6,0.0
3576.0,27.0,32.0,78.0,125.0,89.0,nan,-1.76,-8.17,2.26,2.48,-78.3,149.61,-14.22,1.21,-0.43,-0.75,0.6,-0.18,0.19,1.0,28.83,26.44,0.0746431,0.0,19.256527179487176,nan,-99.60898662393161,nan,0.0,0.0,9936.541,0.0,0.0,2628.6,0.0
3599.0,22.0,27.0,53.0,126.0,111.0,nan,-1.16,-9.48,1.71,2.53,-78.95,149.56,-31.51,2.68,-0.43,-0.75,0.61,-0.18,0.19,1.0,28.8,26.39,0.0746333,0.0,19.256526923076922,nan,-99.60898581196582,nan,0.0,0.0,9936.541,0.0,0.0,2628.6,0.0
3621.0,32.0,29.0,88.0,149.0,124.0,nan,-1.31,-7.99,-0.4,2.57,-79.48,149.55,-19.75,0.02,-1.2,-0.75,0.61,-0.18,0.19,1.0,28.8,26.39,0.0746333,0.0,19.256526923076922,nan,-99.60898581196582,nan,0.0,0.0,9936.541,0.0,0.0,0.0,0.0
3644.0,22.0,19.0,88.0,154.0,110.0,nan,-1.0,-6.44,0.36,2.61,-79.18,149.61,18.47,-3.34,-0.71,-0.75,0.61,-0.18,0.19,1.0,28.8,26.39,0.0746333,0.0,19.25652658333333,nan,-99.60898375000001,nan,0.0,0.0,9936.5391,1.0,1.0,2628.6,0.0
3663.0,30.0,25.0,77.0,111.0,75.0,nan,-0.75,-7.27,2.91,2.65,-78.73,149.66,16.86,-2.29,0.97,-0.75,0.61,-0.18,0.19,1.0,28.8,26.39,0.0746333,0.0,19.256526500000003,nan,-99.60898250000001,nan,0.0,0.0,9936.5391,0.0,0.0,2628.6,0.0
3686.0,17.0,31.0,76.0,75.0,82.0,nan,-1.07,-9.51,0.15,2.75,-80.05,149.53,-35.15,3.31,-1.41,-0.74,0.62,-0.19,0.19,1.0,28.8,26.39,0.0746333,0.0,19.256526416666667,nan,-99.60898125000001,nan,0.0,0.0,9936.5391,0.0,0.0,2628.6,0.0
3712.0,18.0,30.0,72.0,138.0,96.0,nan,-0.71,-8.24,-0.84,2.76,-80.64,149.51,-21.57,0.86,-0.92,-0.74,0.62,-0.19,0.19,1.0,28.8,26.39,0.0746333,0.0,19.256526333333333,nan,-99.60898000000002,nan,0.0,0.0,9936.5391,0.0,0.0,2628.6,0.0
3735.0,31.0,28.0,87.0,148.0,133.0,nan,-0.85,-5.87,-0.57,2.82,-80.64,149.54,6.99,-2.08,0.62,-0.74,0.62,-0.19,0.18,1.0,28.8,26.39,0.0746333,0.0,19.25652625,nan,-99.60897875000002,nan,0.0,0.0,9936.5391,0.0,0.0,2628.6,0.0
3755.0,28.0,30.0,67.0,140.0,119.0,nan,-0.72,-5.2,1.04,2.86,-80.42,149.59,9.93,-2.22,-0.22,-0.74,0.62,-0.19,0.18,1.0,28.8,26.39,0.0746333,0.0,19.256526166666664,nan,-99.6089775,nan,0.0,0.0,9936.5391,0.0,0.0,2628.6,0.0
3778.0,26.0,26.0,157.0,123.0,102.0,nan,-0.67,-6.11,0.48,2.85,-80.82,149.57,-17.3,0.23,-2.25,-0.74,0.62,-0.19,0.18,1.0,28.8,26.39,0.0746333,0.0,19.256526166666664,nan,-99.6089775,nan,0.0,0.0,9936.5391,0.0,0.0,0.0,0.0
3797.0,21.0,17.0,172.0,137.0,96.0,nan,-1.02,-7.26,-1.81,2.84,-81.42,149.53,-18.63,1.21,-3.23,-0.74,0.62,-0.19,0.18,1.0,28.8,26.39,0.0746333,0.0,19.25652608333333,nan,-99.60897625,nan,0.0,0.0,9936.5391,0.0,0.0,2628.6,0.0
3820.0,27.0,18.0,216.0,133.0,124.0,nan,-1.44,-10.28,-1.4,2.89,-81.09,149.56,24.14,-1.87,0.27,-0.74,0.62,-0.19,0.18,1.0,28.8,26.39,0.0746333,0.0,19.256526,nan,-99.608975,nan,0.0,0.0,9936.5391,0.0,0.0,2628.2,0.0
3840.0,36.0,27.0,99.0,155.0,110.0,nan,-1.49,-10.67,0.06,3.01,-80.4,149.65,38.7,-4.11,4.33,-0.74,0.62,-0.19,0.18,1.0,28.8,26.39,0.0746333,0.0,19.256525916666668,nan,-99.60897375,nan,0.0,0.0,9936.5391,0.0,0.0,2628.2,0.0
3862.0,28.0,27.0,52.0,156.0,125.0,nan,-1.09,-6.73,2.16,3.16,-79.39,149.77,45.91,-5.02,5.52,-0.75,0.61,-0.19,0.18,1.0,28.8,26.39,0.0746333,0.0,19.256525833333335,nan,-99.6089725,nan,0.0,0.0,9936.5391,0.0,0.0,2628.2,0.0
3882.0,21.0,30.0,67.0,129.0,111.0,nan,-1.13,-7.34,3.64,3.25,-78.62,149.86,30.79,-3.41,2.79,-0.75,0.61,-0.19,0.18,1.0,28.8,26.39,0.0746333,0.0,19.256525833333335,nan,-99.6089725,nan,0.0,0.0,9936.5391,0.0,0.0,0.0,0.0
3905.0,22.0,28.0,88.0,116.0,111.0,nan,-0.81,-7.24,1.75,3.29,-79.3,149.78,-31.44,3.1,-2.32,-0.75,0.61,-0.19,0.18,1.0,28.8,26.39,0.0746333,0.0,19.256525749999998,nan,-99.60897125,nan,0.0,0.0,9936.5391,0.0,0.0,2628.2,0.0
3931.0,32.0,32.0,68.0,125.0,110.0,nan,-0.66,-8.39,0.58,3.24,-79.93,149.7,-28.22,3.24,-3.65,-0.74,0.61,-0.19,0.18,1.0,28.8,26.39,0.0746333,0.0,19.256525666666665,nan,-99.60897,nan,0.0,0.0,9936.5391,0.0,0.0,2628.2,0.0
3954.0,25.0,19.0,53.0,120.0,75.0,nan,-0.55,-9.25,0.33,3.25,-80.32,149.65,-15.34,2.26,0.13,-0.74,0.62,-0.19,0.18,1.0,28.8,26.39,0.0746333,0.0,19.256525583333335,nan,-99.60896875,nan,0.0,0.0,9936.5391,0.0,0.0,2628.2,0.0
3974.0,16.0,25.0,77.0,125.0,117.0,nan,-1.17,-8.62,-0.33,3.35,-80.39,149.67,2.65,-0.75,2.72,-0.74,0.62,-0.19,0.18,1.0,28.8,26.39,0.0746333,0.0,19.256525499999995,nan,-99.6089675,nan,0.0,0.0,9936.5391,0.0,0.0,2628.2,0.0
3996.0,27.0,30.0,66.0,163.0,110.0,nan,-1.41,-6.69,0.56,3.46,-79.91,149.76,25.89,-4.11,1.95,-0.74,0.61,-0.19,0.18,1.0,28.8,26.39,0.0746333,0.0,19.25652541666667,nan,-99.60896624999998,nan,0.0,0.0,9936.5391,0.0,0.0,2628.2,0.0
4016.0,27.0,18.0,146.0,155.0,110.0,nan,-1.02,-5.99,1.89,3.51,-79.23,149.85,30.16,-4.53,0.48,-0.75,0.61,-0.19,0.18,1.0,28.8,26.39,0.0746333,0.0,19.256525333333332,nan,-99.60896499999998,nan,0.0,0.0,9936.5391,0.0,0.0,2628.2,0.0
4039.0,26.0,29.0,98.0,137.0,97.0,nan,-1.35,-6.47,2.66,3.57,-78.96,149.89,7.62,-1.87,-0.29,-0.75,0.61,-0.19,0.18,1.0,28.8,26.39,0.0746333,0.0,19.256525333333332,nan,-99.60896499999998,nan,0.0,0.0,9936.5391,0.0,0.0,0.0,0.0
4058.0,31.0,29.0,40.0,139.0,110.0,nan,-1.81,-7.57,1.55,3.64,-79.27,149.86,-15.69,1.28,-1.34,-0.75,0.61,-0.19,0.18,1.0,28.83,26.47,0.0746374,0.0,19.25652525,nan,-99.60896374999999,nan,0.0,0.0,9936.5391,0.0,0.0,2628.2,0.0
4083.0,31.0,30.0,125.0,134.0,110.0,nan,-1.32,-8.91,0.56,3.69,-79.77,149.81,-4.7,0.09,-2.39,-0.75,0.61,-0.19,0.18,1.0,28.83,26.47,0.0746374,0.0,19.256525166666666,nan,-99.60896249999999,nan,0.0,0.0,9936.5391,0.0,0.0,2628.2,0.0
4110.0,32.0,31.0,98.0,148.0,125.0,nan,-0.84,-7.99,1.32,3.69,-79.63,149.83,7.27,-1.17,-0.85,-0.75,0.61,-0.19,0.18,1.0,28.83,26.47,0.0746374,0.0,19.256525083333337,nan,-99.60896125,nan,0.0,0.0,9936.5391,0.0,0.0,2628.2,0.0
4133.0,17.0,30.0,157.0,134.0,111.0,nan,-0.8,-8.29,2.03,3.72,-79.49,149.86,5.52,-1.52,1.04,-0.75,0.61,-0.19,0.18,1.0,28.83,26.47,0.0746374,0.0,19.256525000000003,nan,-99.60896,nan,0.0,0.0,9936.5391,0.0,0.0,2628.2,0.0
4152.0,22.0,16.0,161.0,155.0,104.0,nan,-0.96,-7.54,1.5,3.75,-79.5,149.89,-1.13,-1.31,0.2,-0.75,0.61,-0.19,0.18,1.0,28.83,26.47,0.0746374,0.0,19.256524916666663,nan,-99.60895875,nan,0.0,0.0,9936.5391,0.0,0.0,2628.2,0.0
4175.0,26.0,32.0,120.0,154.0,117.0,nan,-0.68,-7.25,1.32,3.74,-79.46,149.91,2.09,-1.38,-1.34,-0.75,0.61,-0.19,0.18,1.0,28.83,26.47,0.0746374,0.0,19.256524833333334,nan,-99.6089575,nan,0.0,0.0,9936.5391,0.0,0.0,2628.2,0.0
4194.0,29.0,31.0,67.0,125.0,110.0,nan,-0.97,-7.95,1.89,3.74,-79.37,149.91,3.21,-0.19,-1.62,-0.75,0.61,-0.19,0.18,1.0,28.83,26.47,0.0746374,0.0,19.25652475,nan,-99.60895625,nan,0.0,0.0,9936.5391,0.0,0.0,2628.2,0.0
4217.0,25.0,29.0,67.0,117.0,110.0,nan,-1.66,-8.96,2.03,3.81,-79.54,149.87,-9.46,2.05,-0.08,-0.75,0.61,-0.19,0.18,1.0,28.83,26.47,0.0746374,0.0,19.25652475,nan,-99.60895625,nan,0.0,0.0,9936.5391,0.0,0.0,0.0,0.0
4237.0,27.0,29.0,124.0,154.0,124.0,nan,-2.07,-9.13,1.14,3.89,-79.87,149.84,-15.13,1.35,-0.78,-0.75,0.61,-0.19,0.18,1.0,28.83,26.47,0.0746374,0.0,19.256524666666664,nan,-99.60895500000001,nan,0.0,0.0,9936.5391,0.0,0.0,2628.2,0.0
4260.0,17.0,30.0,157.0,163.0,112.0,nan,-1.39,-7.26,0.65,3.9,-80.12,149.83,-10.02,-0.26,-2.6,-0.74,0.61,-0.19,0.18,1.0,28.83,26.47,0.0746374,0.0,19.25652458333333,nan,-99.60895375000001,nan,0.0,0.0,9936.5391,0.0,0.0,2628.2,0.0
4279.0,26.0,30.0,150.0,153.0,110.0,nan,-1.15,-6.18,0.7,3.91,-80.1,149.85,2.58,-1.66,-2.6,-0.74,0.61,-0.19,0.18,1.0,28.83,26.47,0.0746374,0.0,19.2565245,nan,-99.60895250000002,nan,0.0,0.0,9936.5391,0.0,0.0,2628.2,0.0
4302.0,31.0,31.0,76.0,125.0,111.0,nan,-1.1,-8.49,1.69,3.96,-80.35,149.81,-15.97,1.91,-1.55,-0.74,0.62,-0.19,0.18,1.0,28.83,26.47,0.0746374,0.0,19.256524416666668,nan,-99.60895125000002,nan,0.0,0.0,9936.5391,0.0,0.0,2628.2,0.0
4328.0,17.0,25.0,88.0,109.0,75.0,nan,-0.96,-9.45,-0.28,3.94,-81.06,149.74,-30.11,2.89,-2.32,-0.74,0.62,-0.19,0.18,1.0,28.83,26.47,0.0746374,0.0,19.256524333333335,nan,-99.60895,nan,0.0,0.0,9936.5391,0.0,0.0,2628.2,0.0
4351.0,18.0,32.0,68.0,154.0,117.0,nan,-0.54,-8.55,-0.56,3.92,-81.21,149.73,-0.92,0.02,-1.13,-0.74,0.62,-0.19,0.18,1.0,28.83,26.47,0.0746374,0.0,19.25652425,nan,-99.60894875,nan,0.0,0.0,9936.5391,0.0,0.0,2628.2,0.0
4371.0,25.0,30.0,119.0,146.0,110.0,nan,-0.71,-8.27,0.74,3.94,-80.97,149.77,13.71,-2.01,1.18,-0.74,0.62,-0.19,0.18,1.0,28.83,26.47,0.0746374,0.0,19.25652425,nan,-99.60894875,nan,0.0,0.0,9936.5391,0.0,0.0,0.0,0.0
4394.0,25.0,24.0,98.0,140.0,117.0,nan,-0.89,-6.83,0.77,4.01,-80.79,149.82,10.07,-2.08,2.16,-0.74,0.62,-0.19,0.18,1.0,28.83,26.47,0.0746374,0.0,19.256524166666672,nan,-99.6089475,nan,0.0,0.0,9936.5391,0.0,0.0,2628.2,0.0
4414.0,31.0,29.0,53.0,125.0,111.0,nan,-0.94,-6.61,1.42,4.05,-80.69,149.85,3.42,-1.38,0.2,-0.74,0.62,-0.19,0.18,1.0,28.83,26.47,0.0746374,0.0,19.256524083333332,nan,-99.60894624999999,nan,0.0,0.0,9936.5391,0.0,0.0,2628.2,0.0
4436.0,26.0,31.0,67.0,140.0,75.0,nan,-1.21,-7.67,0.27,4.05,-81.09,149.81,-16.32,1.0,-2.46,-0.74,0.62,-0.2,0.18,1.0,28.83,26.47,0.0746374,0.0,19.256523999999995,nan,-99.60894499999999,nan,0.0,0.0,9936.5391,0.0,0.0,2628.2,0.0
4456.0,28.0,33.0,135.0,139.0,103.0,nan,-1.22,-7.91,-0.3,4.07,-81.3,149.78,-4.84,0.86,-1.55,-0.74,0.62,-0.2,0.18,1.0,28.83,26.47,0.0746374,0.0,19.25652391666667,nan,-99.60894375,nan,0.0,0.0,9936.5391,0.0,0.0,2628.2,0.0
4479.0,17.0,17.0,77.0,137.0,96.0,nan,-1.68,-8.54,0.73,4.27,-80.78,149.85,24.28,-2.43,3.63,-0.74,0.62,-0.2,0.17,1.0,28.83,26.47,0.0746374,0.0,19.256523833333333,nan,-99.6089425,nan,0.0,0.0,9936.5391,0.0,0.0,2628.2,0.0
4505.0,32.0,28.0,52.0,150.0,126.0,nan,-1.68,-8.54,0.73,4.27,-80.78,149.85,0.0,0.0,0.0,-0.74,0.62,-0.2,0.17,1.0,28.83,26.47,0.0746374,0.0,19.256523833333333,nan,-99.6089425,nan,0.0,0.0,9936.5391,0.0,0.0,0.0,0.0
4523.0,30.0,17.0,73.0,160.0,125.0,nan,-0.87,-6.41,2.52,4.37,-79.84,150.0,9.58,-2.78,-0.5,-0.75,0.61,-0.19,0.17,1.0,28.82,26.44,0.0746341,0.0,19.25652375,nan,-99.60894125,nan,0.0,0.0,9936.5391,0.0,0.0,2628.2,0.0
4553.0,18.0,31.0,120.0,137.0,75.0,nan,-0.79,-5.92,2.03,4.35,-80.04,149.98,-14.22,0.72,-2.39,-0.75,0.61,-0.19,0.17,1.0,28.82,26.44,0.0746341,0.0,19.256523666666666,nan,-99.60894,nan,0.0,0.0,9936.5391,0.0,0.0,2628.2,0.0
4573.0,14.0,31.0,111.0,112.0,66.0,nan,-1.09,-7.52,1.13,4.35,-80.73,149.89,-33.61,4.08,-2.46,-0.74,0.62,-0.2,0.17,1.0,28.82,26.44,0.0746341,0.0,19.256523583333337,nan,-99.60893874999998,nan,0.0,0.0,9936.5391,0.0,0.0,2628.2,0.0
4595.0,18.0,18.0,124.0,137.0,103.0,nan,-1.82,-9.79,-1.43,4.38,-81.57,149.78,-32.7,4.36,-2.74,-0.74,0.62,-0.2,0.17,1.0,28.82,26.44,0.0746341,0.0,19.256523500000004,nan,-99.60893749999998,nan,0.0,0.0,9936.5391,0.0,0.0,2628.2,0.0
4615.0,38.0,22.0,62.0,182.0,126.0,nan,-0.71,-8.65,-1.32,4.34,-81.89,149.75,-7.64,0.72,-1.97,-0.74,0.62,-0.2,0.17,1.0,28.82,26.44,0.0746341,0.0,19.256523416666667,nan,-99.60893624999999,nan,0.0,0.0,9936.5391,0.0,0.0,2628.2,0.0
4638.0,27.0,31.0,40.0,147.0,110.0,nan,-1.53,-7.94,0.13,4.49,-80.97,149.91,34.92,-4.88,3.7,-0.74,0.62,-0.2,0.17,1.0,28.82,26.44,0.0746341,0.0,19.256523245614037,nan,-99.60893416666666,nan,0.0,0.0,9936.5361,1.0,1.0,2628.2,0.0
4664.0,26.0,25.0,121.0,132.0,111.0,nan,-1.53,-7.94,0.13,4.49,-80.97,149.91,0.0,0.0,0.0,-0.74,0.62,-0.2,0.17,1.0,28.82,26.44,0.0746341,0.0,19.256523245614037,nan,-99.60893416666666,nan,0.0,0.0,9936.5361,0.0,0.0,0.0,0.0
4682.0,38.0,21.0,135.0,134.0,111.0,nan,-1.2,-7.36,2.26,4.63,-79.56,150.11,27.99,-3.97,0.76,-0.75,0.61,-0.19,0.17,1.0,28.82,26.44,0.0746341,0.0,19.256523157894737,nan,-99.60893333333335,nan,0.0,0.0,9936.5361,0.0,0.0,2628.2,0.0
4706.0,27.0,28.0,39.0,138.0,112.0,nan,-0.96,-7.79,3.68,4.64,-79.13,150.15,14.06,-1.24,-0.22,-0.75,0.61,-0.19,0.17,1.0,28.82,26.44,0.0746341,0.0,19.256523070175437,nan,-99.6089325,nan,0.0,0.0,9936.5361,0.0,0.0,2628.2,0.0
4729.0,28.0,16.0,88.0,137.0,111.0,nan,-1.53,-8.68,3.31,4.69,-79.27,150.12,-11.56,1.42,-0.36,-0.75,0.61,-0.19,0.17,1.0,28.82,26.44,0.0746341,0.0,19.25652298245614,nan,-99.60893166666666,nan,0.0,0.0,9936.5361,0.0,0.0,2628.2,0.0
4749.0,31.0,29.0,71.0,150.0,125.0,nan,-1.33,-8.1,2.08,4.71,-79.7,150.08,-23.6,1.98,-1.69,-0.75,0.61,-0.2,0.17,1.0,28.82,26.44,0.0746341,0.0,19.256522894736843,nan,-99.60893083333333,nan,0.0,0.0,9936.5361,0.0,0.0,2628.2,0.0
4771.0,25.0,30.0,39.0,160.0,119.0,nan,-1.0,-7.64,1.43,4.68,-80.05,150.07,-17.58,0.37,-2.53,-0.75,0.61,-0.2,0.17,1.0,28.82,26.44,0.0746341,0.0,19.256522807017543,nan,-99.60893,nan,0.0,0.0,9936.5361,0.0,0.0,2628.2,0.0
4791.0,24.0,29.0,76.0,152.0,111.0,nan,-0.81,-7.12,0.27,4.63,-80.5,150.04,-18.49,0.16,-3.44,-0.74,0.62,-0.2,0.17,1.0,28.82,26.44,0.0746341,0.0,19.256522807017543,nan,-99.60893,nan,0.0,0.0,9936.5361,0.0,0.0,0.0,0.0
4814.0,26.0,32.0,109.0,133.0,103.0,nan,-0.85,-7.2,0.14,4.62,-80.7,150.03,-5.47,-0.05,-1.76,-0.74,0.62,-0.2,0.17,1.0,28.82,26.44,0.0746341,0.0,19.256522719298246,nan,-99.60892916666664,nan,0.0,0.0,9936.5361,0.0,0.0,2628.2,0.0
4833.0,16.0,27.0,147.0,125.0,110.0,nan,-1.0,-8.34,0.22,4.65,-80.75,150.04,0.9,-0.75,0.34,-0.74,0.62,-0.2,0.17,1.0,28.82,26.44,0.0746341,0.0,19.256522631578946,nan,-99.60892833333334,nan,0.0,0.0,9936.5361,0.0,0.0,2628.0,0.0
4856.0,31.0,31.0,82.0,148.0,110.0,nan,-0.84,-8.71,2.01,4.72,-79.93,150.15,26.24,-3.13,1.39,-0.75,0.61,-0.2,0.17,1.0,28.82,26.44,0.0746341,0.0,19.25652254385965,nan,-99.60892750000001,nan,0.0,0.0,9936.5361,0.0,0.0,2628.0,0.0
4883.0,26.0,31.0,40.0,155.0,110.0,nan,-0.84,-8.71,2.01,4.72,-79.93,150.15,0.0,0.0,0.0,-0.75,0.61,-0.2,0.17,1.0,28.82,26.44,0.0746341,0.0,19.25652245614035,nan,-99.60892666666665,nan,0.0,0.0,9936.5361,0.0,0.0,2628.0,0.0
4900.0,24.0,27.0,136.0,160.0,124.0,nan,-1.29,-8.14,3.31,4.85,-79.23,150.27,6.08,-1.87,1.67,-0.75,0.61,-0.19,0.17,1.0,28.82,26.44,0.0746341,0.0,19.256522368421052,nan,-99.60892583333332,nan,0.0,0.0,9936.5361,0.0,0.0,2628.0,0.0
4925.0,32.0,29.0,40.0,163.0,111.0,nan,-1.07,-7.04,3.05,4.86,-79.4,150.27,-14.85,0.3,-1.48,-0.75,0.61,-0.2,0.17,1.0,28.82,26.44,0.0746341,0.0,19.256522280701752,nan,-99.60892500000001,nan,0.0,0.0,9936.5361,0.0,0.0,2628.0,0.0
4948.0,17.0,31.0,135.0,137.0,110.0,nan,-0.87,-7.48,1.99,4.81,-80.26,150.19,-44.81,3.38,-4.0,-0.75,0.61,-0.2,0.17,1.0,28.82,26.44,0.0746341,0.0,19.256522280701752,nan,-99.60892500000001,nan,0.0,0.0,9936.5361,0.0,0.0,0.0,0.0
4967.0,24.0,18.0,87.0,124.0,75.0,nan,-0.61,-7.8,-0.91,4.75,-81.57,150.07,-56.92,5.13,-3.58,-0.74,0.62,-0.2,0.17,1.0,28.82,26.44,0.0746341,0.0,19.256522192982455,nan,-99.60892416666665,nan,0.0,0.0,9936.5361,0.0,0.0,2628.0,0.0
4990.0,25.0,31.0,77.0,137.0,111.0,nan,-1.16,-8.89,-2.73,4.76,-82.36,149.99,-27.03,2.61,-1.06,-0.73,0.63,-0.2,0.17,1.0,28.83,26.46,0.0746423,0.0,19.256522105263162,nan,-99.60892333333332,nan,0.0,0.0,9936.5361,0.0,0.0,2628.0,0.0
5012.0,28.0,24.0,78.0,133.0,103.0,nan,-1.03,-8.66,-2.17,4.82,-82.4,150.0,8.25,-1.31,1.81,-0.73,0.63,-0.2,0.17,1.0,28.83,26.46,0.0746423,0.0,19.25652201754386,nan,-99.60892249999999,nan,0.0,0.0,9936.5361,0.0,0.0,2628.0,0.0
5035.0,27.0,29.0,76.0,154.0,111.0,nan,-0.89,-6.33,-0.49,4.91,-81.92,150.09,29.81,-4.11,3.7,-0.74,0.62,-0.2,0.17,1.0,28.83,26.46,0.0746423,0.0,19.256521929824565,nan,-99.60892166666666,nan,0.0,0.0,9936.5361,0.0,0.0,2628.0,0.0
5054.0,26.0,26.0,98.0,136.0,110.0,nan,-0.81,-5.7,0.88,4.98,-81.24,150.19,32.96,-4.88,2.79,-0.74,0.62,-0.2,0.17,1.0,28.83,26.46,0.0746423,0.0,19.25652184210526,nan,-99.60892083333331,nan,0.0,0.0,9936.5361,0.0,0.0,2628.0,0.0
5077.0,27.0,29.0,82.0,160.0,110.0,nan,-1.49,-6.64,1.02,5.06,-80.58,150.31,10.84,-2.36,-2.11,-0.74,0.62,-0.2,0.17,1.0,28.83,26.46,0.0746423,0.0,19.256521754385968,nan,-99.60892,nan,0.0,0.0,9936.5361,0.0,0.0,2628.0,0.0
5104.0,32.0,30.0,109.0,125.0,76.0,nan,-1.63,-8.2,1.84,5.07,-80.17,150.33,18.47,-1.59,-2.39,-0.75,0.61,-0.2,0.17,1.0,28.83,26.46,0.0746423,0.0,19.256521754385968,nan,-99.60892,nan,0.0,0.0,9936.5361,0.0,0.0,0.0,0.0
5126.0,14.0,28.0,77.0,110.0,101.0,nan,-2.0,-10.69,2.1,5.12,-80.05,150.32,5.87,0.72,-0.36,-0.75,0.61,-0.2,0.17,1.0,28.83,26.46,0.0746423,0.0,19.256521666666664,nan,-99.60891916666667,nan,0.0,0.0,9936.5361,0.0,0.0,2628.0,0.0
5146.0,26.0,24.0,98.0,133.0,112.0,nan,-2.11,-10.13,2.04,5.19,-79.93,150.32,4.96,0.16,0.41,-0.75,0.61,-0.2,0.17,1.0,28.83,26.46,0.0746423,0.0,19.25652157894737,nan,-99.60891833333332,nan,0.0,0.0,9936.5361,0.0,0.0,2628.0,0.0
5169.0,28.0,30.0,53.0,134.0,125.0,nan,-2.1,-8.67,2.06,5.23,-79.77,150.34,6.36,-1.52,-2.04,-0.75,0.61,-0.2,0.17,1.0,28.83,26.46,0.0746423,0.0,19.256521491228074,nan,-99.6089175,nan,0.0,0.0,9936.5361,0.0,0.0,2628.0,0.0
5189.0,18.0,17.0,108.0,137.0,111.0,nan,-1.71,-7.35,1.98,5.21,-79.79,150.36,-3.23,-1.52,-4.28,-0.75,0.61,-0.2,0.17,1.0,28.83,26.46,0.0746423,0.0,19.256521403508774,nan,-99.60891666666667,nan,0.0,0.0,9936.5361,0.0,0.0,2628.0,0.0
5212.0,37.0,27.0,136.0,154.0,76.0,nan,-1.57,-6.73,1.0,5.19,-80.11,150.34,-15.27,0.23,-4.91,-0.75,0.61,-0.2,0.17,1.0,28.83,26.46,0.0746423,0.0,19.25652131578947,nan,-99.60891583333333,nan,0.0,0.0,9936.5361,0.0,0.0,2628.0,0.0
5231.0,24.0,31.0,76.0,123.0,103.0,nan,-1.5,-7.76,0.36,5.15,-80.52,150.28,-16.53,1.77,-5.26,-0.74,0.62,-0.2,0.17,1.0,28.83,26.46,0.0746423,0.0,19.25652131578947,nan,-99.60891583333333,nan,0.0,0.0,9936.5361,0.0,0.0,0.0,0.0
5254.0,17.0,17.0,67.0,138.0,76.0,nan,-2.23,-8.79,0.43,5.16,-80.49,150.26,13.43,-1.59,-3.65,-0.74,0.61,-0.2,0.17,1.0,28.83,26.46,0.0746423,0.0,19.256521228070177,nan,-99.60891500000001,nan,0.0,0.0,9936.5361,0.0,0.0,2628.0,0.0
5280.0,21.0,30.0,60.0,149.0,102.0,nan,-2.05,-8.18,1.83,5.14,-79.99,150.32,23.3,-3.76,-4.63,-0.75,0.61,-0.2,0.17,1.0,28.83,26.46,0.0746423,0.0,19.25652114035088,nan,-99.60891416666666,nan,0.0,0.0,9936.5361,0.0,0.0,2628.0,0.0
5303.0,24.0,29.0,135.0,133.0,111.0,nan,-2.33,-7.19,2.21,5.15,-79.53,150.39,19.03,-4.11,-4.91,-0.75,0.61,-0.2,0.17,1.0,28.83,26.46,0.0746423,0.0,19.25652105263158,nan,-99.60891333333333,nan,0.0,0.0,9936.5361,0.0,0.0,2628.0,0.0
5323.0,27.0,25.0,88.0,137.0,125.0,nan,-2.18,-7.1,2.58,5.13,-79.22,150.43,10.7,-2.92,-6.31,-0.75,0.61,-0.2,0.17,1.0,28.83,26.46,0.0746423,0.0,19.256520964912276,nan,-99.60891250000002,nan,0.0,0.0,9936.5361,0.0,0.0,2628.0,0.0
5346.0,26.0,25.0,82.0,160.0,120.0,nan,-2.11,-6.83,2.53,5.08,-79.25,150.43,-5.96,-1.17,-7.85,-0.75,0.61,-0.2,0.17,1.0,28.83,26.46,0.0746423,0.0,19.256520877192983,nan,-99.60891166666667,nan,0.0,0.0,9936.5361,0.0,0.0,2628.0,0.0
5365.0,26.0,31.0,52.0,135.0,110.0,nan,-1.96,-6.47,2.05,4.97,-79.77,150.38,-29.06,0.93,-11.28,-0.75,0.61,-0.2,0.17,1.0,28.83,26.46,0.0746423,0.0,19.256520789473687,nan,-99.60891083333334,nan,0.0,0.0,9936.5361,0.0,0.0,2628.0,0.0
5388.0,18.0,33.0,77.0,118.0,110.0,nan,-1.33,-7.23,0.83,4.76,-80.7,150.27,-44.32,2.75,-13.59,-0.74,0.62,-0.2,0.17,1.0,28.83,26.46,0.0746423,0.0,19.256520789473687,nan,-99.60891083333334,nan,0.0,0.0,9936.5361,0.0,0.0,0.0,0.0
5408.0,25.0,32.0,119.0,137.0,111.0,nan,-0.67,-8.72,-0.96,4.54,-81.76,150.17,-44.81,2.82,-11.56,-0.74,0.62,-0.2,0.17,1.0,28.83,26.46,0.0746423,0.0,19.25652070175439,nan,-99.60890999999998,nan,0.0,0.0,9936.5361,0.0,0.0,2628.0,0.0
5431.0,30.0,29.0,115.0,133.0,110.0,nan,-0.37,-8.89,-2.32,4.39,-82.18,150.15,-9.88,-0.82,-6.52,-0.73,0.63,-0.2,0.17,1.0,28.83,26.46,0.0746423,0.0,19.25652061403509,nan,-99.60890916666668,nan,0.0,0.0,9936.5361,0.0,0.0,2628.0,0.0
5450.0,24.0,20.0,125.0,149.0,125.0,nan,0.91,-7.02,1.38,4.09,-80.87,150.34,41.64,-5.65,-1.27,-0.74,0.62,-0.19,0.17,1.0,28.8,26.44,0.0746382,0.0,19.25652052631579,nan,-99.60890833333335,nan,0.0,0.0,9936.5361,0.0,0.0,2628.0,0.0
5482.0,37.0,30.0,93.0,134.0,76.0,nan,0.58,-6.62,2.62,3.95,-80.17,150.41,28.55,-3.76,-1.97,-0.74,0.62,-0.19,0.17,1.0,28.8,26.44,0.0746382,0.0,19.256520438596493,nan,-99.60890749999999,nan,0.0,0.0,9936.5361,0.0,0.0,2628.0,0.0
5501.0,17.0,30.0,51.0,116.0,89.0,nan,0.44,-7.08,3.21,3.83,-79.81,150.44,10.91,-1.1,-2.25,-0.75,0.61,-0.19,0.17,1.0,28.8,26.44,0.0746382,0.0,19.256520350877196,nan,-99.60890666666668,nan,0.0,0.0,9936.5361,0.0,0.0,2628.0,0.0
5524.0,17.0,31.0,108.0,124.0,75.0,nan,-0.98,-7.82,2.88,3.8,-79.83,150.43,-6.03,0.23,-3.16,-0.75,0.61,-0.19,0.18,1.0,28.8,26.44,0.0746382,0.0,19.256520263157896,nan,-99.60890583333332,nan,0.0,0.0,9936.5361,0.0,0.0,2628.0,0.0
5544.0,25.0,31.0,52.0,125.0,89.0,nan,-0.95,-8.98,2.59,3.77,-80.08,150.4,-14.99,1.21,-2.67,-0.75,0.62,-0.19,0.18,1.0,28.8,26.44,0.0746382,0.0,19.256520263157896,nan,-99.60890583333332,nan,0.0,0.0,9936.5361,0.0,0.0,0.0,0.0
5567.0,26.0,26.0,78.0,138.0,111.0,nan,-1.54,-9.14,1.18,3.78,-80.52,150.36,-20.66,1.56,-2.6,-0.74,0.62,-0.19,0.17,1.0,28.8,26.44,0.0746382,0.0,19.256520175438595,nan,-99.608905,nan,0.0,0.0,9936.5361,0.0,0.0,2628.0,0.0
5586.0,27.0,31.0,108.0,134.0,111.0,nan,-0.59,-8.12,0.53,3.73,-81.0,150.32,-20.94,1.14,-3.16,-0.74,0.62,-0.19,0.17,1.0,28.8,26.44,0.0746382,0.0,19.2565200877193,nan,-99.60890416666669,nan,0.0,0.0,9936.5361,0.0,0.0,2628.0,0.0
5609.0,25.0,26.0,88.0,137.0,110.0,nan,0.27,-7.04,0.35,3.62,-81.41,150.3,-17.79,0.37,-2.67,-0.74,0.62,-0.19,0.17,1.0,28.8,26.44,0.0746382,0.0,19.256520000000002,nan,-99.60890292682927,nan,0.0,0.0,9936.5342,1.0,1.0,2628.0,0.0
5628.0,17.0,31.0,67.0,160.0,110.0,nan,0.59,-6.54,-0.37,3.49,-81.78,150.29,-12.54,-0.26,-1.76,-0.74,0.63,-0.19,0.17,1.0,28.8,26.44,0.0746382,0.0,19.25652016260163,nan,-99.60890252032519,nan,0.0,0.0,9936.5342,0.0,0.0,2628.0,0.0
5651.0,26.0,30.0,146.0,134.0,75.0,nan,0.29,-8.47,-0.89,3.35,-82.03,150.33,4.4,-1.17,0.83,-0.73,0.63,-0.19,0.17,1.0,28.8,26.44,0.0746382,0.0,19.256520243902443,nan,-99.60890211382116,nan,0.0,0.0,9936.5342,0.0,0.0,2628.0,0.0
5678.0,17.0,26.0,89.0,138.0,102.0,nan,-0.13,-8.68,-0.31,3.38,-81.81,150.35,15.74,-1.38,2.72,-0.74,0.63,-0.19,0.17,1.0,28.8,26.44,0.0746382,0.0,19.256520325203258,nan,-99.60890170731706,nan,0.0,0.0,9936.5342,0.0,0.0,2628.0,0.0
5701.0,27.0,29.0,77.0,133.0,76.0,nan,-0.63,-8.01,0.77,3.46,-81.34,150.42,24.63,-2.78,4.12,-0.74,0.62,-0.19,0.17,1.0,28.8,26.44,0.0746382,0.0,19.256520325203258,nan,-99.60890170731706,nan,0.0,0.0,9936.5342,0.0,0.0,0.0,0.0
5720.0,18.0,22.0,67.0,137.0,117.0,nan,-0.27,-7.6,1.77,3.52,-80.72,150.51,28.34,-3.97,4.19,-0.74,0.62,-0.19,0.17,1.0,28.8,26.44,0.0746382,0.0,19.256520406504066,nan,-99.60890130081302,nan,0.0,0.0,9936.5342,0.0,0.0,2628.0,0.0
5743.0,19.0,30.0,67.0,162.0,110.0,nan,0.06,-7.77,2.83,3.55,-80.22,150.6,19.73,-3.27,3.98,-0.74,0.62,-0.19,0.17,1.0,28.8,26.44,0.0746382,0.0,19.256520487804874,nan,-99.60890089430896,nan,0.0,0.0,9936.5342,0.0,0.0,2628.0,0.0
5763.0,27.0,31.0,77.0,138.0,112.0,nan,0.56,-7.97,2.79,3.53,-80.1,150.63,1.25,-0.82,3.07,-0.75,0.62,-0.19,0.17,1.0,28.8,26.44,0.0746382,0.0,19.25652056910569,nan,-99.60890048780489,nan,0.0,0.0,9936.5342,0.0,0.0,2628.0,0.0
5785.0,26.0,30.0,68.0,137.0,111.0,nan,0.88,-8.65,2.71,3.53,-80.22,150.63,-10.09,1.14,4.12,-0.74,0.62,-0.19,0.17,1.0,28.8,26.44,0.0746382,0.0,19.256520650406504,nan,-99.60890008130083,nan,0.0,0.0,9936.5342,0.0,0.0,2628.4,0.0
5805.0,38.0,30.0,55.0,148.0,126.0,nan,0.77,-7.8,1.9,3.52,-80.42,150.63,-11.63,0.86,3.84,-0.74,0.62,-0.19,0.17,1.0,28.8,26.44,0.0746382,0.0,19.256520650406504,nan,-99.60890008130083,nan,0.0,0.0,9936.5342,0.0,0.0,0.0,0.0
5828.0,23.0,21.0,124.0,154.0,111.0,nan,0.32,-7.75,1.58,3.58,-80.5,150.64,-5.26,0.58,6.01,-0.74,0.62,-0.19,0.17,1.0,28.8,26.44,0.0746382,0.0,19.25652073170732,nan,-99.60889967479675,nan,0.0,0.0,9936.5342,0.0,0.0,2628.4,0.0
5847.0,27.0,30.0,157.0,149.0,124.0,nan,-0.34,-7.49,1.72,3.71,-80.45,150.66,0.97,-0.05,7.13,-0.74,0.62,-0.19,0.17,1.0,28.8,26.44,0.0746382,0.0,19.25652081300813,nan,-99.60889926829269,nan,0.0,0.0,9936.5342,0.0,0.0,2628.4,0.0
5870.0,27.0,23.0,172.0,152.0,111.0,nan,0.47,-7.35,2.15,3.91,-80.38,150.71,-3.16,0.37,7.62,-0.74,0.62,-0.19,0.17,1.0,28.8,26.44,0.0746382,0.0,19.256520894308945,nan,-99.60889886178863,nan,0.0,0.0,9936.5342,0.0,0.0,2628.4,0.0
5896.0,26.0,30.0,109.0,137.0,110.0,nan,0.69,-7.89,1.83,3.97,-80.55,150.72,-10.51,1.0,7.55,-0.74,0.62,-0.19,0.17,1.0,28.8,26.44,0.0746382,0.0,19.25652097560976,nan,-99.60889845528455,nan,0.0,0.0,9936.5342,0.0,0.0,2628.4,0.0
5919.0,37.0,30.0,78.0,154.0,111.0,nan,0.48,-7.92,1.21,4.06,-80.84,150.72,-13.73,1.35,7.69,-0.74,0.62,-0.19,0.17,1.0,28.82,26.39,0.0746382,0.0,19.256521056910568,nan,-99.60889804878049,nan,0.0,0.0,9936.5342,0.0,0.0,2628.4,0.0
