time,p1,p2,p3,p4,p5,termite,ax,ay,az,rx,ry,rz,roll,pitch,yaw,q1,q2,q3,q4,calibration,temperature,humidity,pressure,flag_rm,lat,lacoord,lon,locoord,capacitive,o_lat,o_lon,used_lat,used_lon,altitude,flag_lm
0.0,30.0,31.0,39.0,124.0,88.0,nan,-0.79,-7.95,-1.0,6.19,-95.27,126.24,-2.11,0.09,-0.64,-0.62,0.64,-0.37,0.27,1.0,25.71,34.01,0.0746303,0.0,19.263383333333334,nan,-99.61438833333337,nan,0.0,0.0,9936.8633,1.0,1.0,2625.2,0.0
21.0,12.0,31.0,52.0,139.0,125.0,nan,-0.8,-8.05,-0.83,6.18,-95.25,126.25,-1.2,-0.05,-0.43,-0.62,0.64,-0.37,0.27,1.0,25.71,34.01,0.0746303,0.0,19.263383333333334,nan,-99.61438833333337,nan,0.0,0.0,9936.8633,0.0,0.0,0.0,0.0
47.0,31.0,32.0,66.0,138.0,109.0,nan,-0.97,-7.6,-0.98,6.19,-95.26,126.25,0.48,-0.19,-0.29,-0.62,0.64,-0.37,0.27,1.0,25.71,34.01,0.0746303,0.0,19.263383333333334,nan,-99.61438833333337,nan,0.0,0.0,9936.8633,0.0,0.0,0.0,0.0
70.0,31.0,34.0,78.0,154.0,111.0,nan,-0.92,-8.03,-0.75,6.18,-95.23,126.26,1.25,-0.33,-0.22,-0.62,0.64,-0.37,0.27,1.0,25.71,34.01,0.0746303,0.0,19.263383333333334,nan,-99.61438833333337,nan,0.0,0.0,9936.8633,0.0,0.0,0.0,0.0
90.0,12.0,32.0,60.0,155.0,119.0,nan,-0.88,-7.7,-0.75,6.18,-95.27,126.26,-1.62,0.02,-0.43,-0.62,0.64,-0.37,0.27,1.0,25.71,34.01,0.0746303,0.0,19.263383333333334,nan,-99.61438833333337,nan,0.0,0.0,9936.8633,0.0,0.0,0.0,0.0
112.0,14.0,32.0,157.0,133.0,76.0,nan,-1.18,-7.78,-1.0,6.21,-95.24,126.26,2.09,-0.47,0.13,-0.62,0.64,-0.37,0.27,1.0,25.71,34.01,0.0746303,0.0,19.263383333333334,nan,-99.61438833333337,nan,0.0,0.0,9936.8633,0.0,0.0,0.0,0.0
132.0,19.0,31.0,161.0,145.0,81.0,nan,-0.83,-7.96,-0.57,6.19,-95.26,126.26,-1.55,0.02,-0.64,-0.62,0.64,-0.37,0.27,1.0,25.71,34.01,0.0746303,0.0,19.263383333333334,nan,-99.61438833333337,nan,0.0,0.0,9936.8633,0.0,0.0,0.0,0.0
155.0,31.0,32.0,92.0,139.0,102.0,nan,-1.13,-7.59,-1.16,6.21,-95.28,126.27,1.04,-0.4,-0.15,-0.62,0.64,-0.37,0.27,1.0,25.71,34.01,0.0746303,0.0,19.263383333333334,nan,-99.61438833333337,nan,0.0,0.0,9936.8633,0.0,0.0,0.0,0.0
174.0,30.0,31.0,136.0,139.0,111.0,nan,-0.85,-8.12,-0.49,6.2,-95.25,126.28,0.34,-0.19,-0.5,-0.62,0.64,-0.37,0.27,1.0,25.71,34.01,0.0746303,0.0,19.263383333333334,nan,-99.61438833333337,nan,0.0,0.0,9936.8633,0.0,0.0,0.0,0.0
197.0,15.0,17.0,146.0,145.0,111.0,nan,-1.02,-7.58,-0.88,6.2,-95.28,126.28,-0.71,-0.12,-0.71,-0.62,0.64,-0.37,0.27,1.0,25.71,34.01,0.0746303,0.0,19.263383333333334,nan,-99.61438833333337,nan,0.0,0.0,9936.8633,0.0,0.0,0.0,0.0
217.0,12.0,31.0,88.0,140.0,103.0,nan,-0.83,-8.02,-0.95,6.19,-95.27,126.28,0.9,-0.33,-0.22,-0.62,0.64,-0.37,0.27,1.0,25.71,34.01,0.0746303,0.0,19.26338380952381,nan,-99.61438934343435,nan,0.0,0.0,9936.8633,0.0,0.0,2625.2,0.0
240.0,22.0,31.0,87.0,154.0,109.0,nan,-0.78,-7.87,-1.33,6.17,-95.3,126.29,-0.36,-0.12,-0.22,-0.62,0.64,-0.37,0.27,1.0,25.71,34.01,0.0746303,0.0,19.26338380952381,nan,-99.61438934343435,nan,0.0,0.0,9936.8633,0.0,0.0,0.0,0.0
266.0,20.0,32.0,68.0,159.0,76.0,nan,-1.14,-7.9,-0.23,6.19,-95.23,126.3,1.74,-0.47,-0.15,-0.62,0.64,-0.37,0.27,1.0,25.71,34.01,0.0746303,0.0,19.26338380952381,nan,-99.61438934343435,nan,0.0,0.0,9936.8633,0.0,0.0,0.0,0.0
289.0,30.0,41.0,52.0,138.0,104.0,nan,-0.78,-7.83,-1.17,6.18,-95.29,126.3,-1.41,0.09,-0.57,-0.62,0.64,-0.37,0.27,1.0,25.71,34.01,0.0746303,0.0,19.26338380952381,nan,-99.61438934343435,nan,0.0,0.0,9936.8633,0.0,0.0,0.0,0.0
308.0,31.0,30.0,67.0,177.0,118.0,nan,-1.06,-7.82,-0.64,6.19,-95.24,126.31,1.95,-0.4,-0.01,-0.62,0.64,-0.37,0.27,1.0,25.71,34.01,0.0746303,0.0,19.26338380952381,nan,-99.61438934343435,nan,0.0,0.0,9936.8633,0.0,0.0,0.0,0.0
331.0,21.0,32.0,53.0,152.0,81.0,nan,-1.0,-7.86,-0.71,6.2,-95.24,126.31,-0.15,-0.12,-0.36,-0.62,0.64,-0.37,0.27,1.0,25.71,34.01,0.0746303,0.0,19.26338380952381,nan,-99.61438934343435,nan,0.0,0.0,9936.8633,0.0,0.0,0.0,0.0
351.0,32.0,33.0,77.0,139.0,111.0,nan,-0.9,-7.71,-0.98,6.2,-95.27,126.31,-0.36,-0.05,-0.08,-0.62,0.64,-0.37,0.27,1.0,25.71,34.01,0.0746303,0.0,19.26338380952381,nan,-99.61438934343435,nan,0.0,0.0,9936.8633,0.0,0.0,0.0,0.0
374.0,17.0,13.0,67.0,144.0,112.0,nan,-1.16,-7.85,-0.59,6.21,-95.22,126.32,2.02,-0.47,-0.43,-0.62,0.64,-0.37,0.27,1.0,25.71,34.01,0.0746303,0.0,19.26338380952381,nan,-99.61438934343435,nan,0.0,0.0,9936.8633,0.0,0.0,0.0,0.0
393.0,19.0,31.0,77.0,139.0,111.0,nan,-0.78,-7.8,-0.94,6.2,-95.28,126.32,-1.97,0.09,-0.5,-0.62,0.64,-0.37,0.27,1.0,25.71,34.01,0.0746303,0.0,19.26338380952381,nan,-99.61438934343435,nan,0.0,0.0,9936.8633,0.0,0.0,0.0,0.0
416.0,20.0,32.0,77.0,145.0,125.0,nan,-0.87,-7.99,-0.69,6.2,-95.25,126.33,-1.62,0.02,-0.57,-0.62,0.64,-0.37,0.27,1.0,25.71,34.0,0.0746254,0.0,19.26338380952381,nan,-99.61438934343435,nan,0.0,0.0,9936.8633,0.0,0.0,0.0,0.0
448.0,23.0,32.0,52.0,139.0,109.0,nan,-0.88,-7.69,-0.91,6.19,-95.24,126.34,1.39,-0.4,-0.5,-0.62,0.64,-0.37,0.27,1.0,25.71,34.0,0.0746254,0.0,19.263384047619056,nan,-99.61438984848486,nan,0.0,0.0,9936.8633,0.0,0.0,2625.2,0.0
468.0,31.0,31.0,68.0,144.0,111.0,nan,-0.91,-8.07,-0.77,6.19,-95.23,126.34,0.13,-0.19,-0.22,-0.62,0.64,-0.37,0.27,1.0,25.71,34.0,0.0746254,0.0,19.263384047619056,nan,-99.61438984848486,nan,0.0,0.0,9936.8633,0.0,0.0,0.0,0.0
491.0,31.0,31.0,61.0,137.0,109.0,nan,-0.88,-7.72,-0.76,6.18,-95.24,126.34,-0.22,-0.12,-0.64,-0.62,0.64,-0.37,0.27,1.0,25.71,34.0,0.0746254,0.0,19.263384047619056,nan,-99.61438984848486,nan,0.0,0.0,9936.8633,0.0,0.0,0.0,0.0
510.0,18.0,17.0,39.0,153.0,110.0,nan,-0.99,-7.88,-0.97,6.19,-95.23,126.35,1.25,-0.4,0.06,-0.62,0.64,-0.37,0.27,1.0,25.71,34.0,0.0746254,0.0,19.263384047619056,nan,-99.61438984848486,nan,0.0,0.0,9936.8633,0.0,0.0,0.0,0.0
533.0,12.0,34.0,88.0,144.0,109.0,nan,-0.95,-7.8,-0.55,6.19,-95.24,126.35,-0.85,-0.05,-0.57,-0.62,0.64,-0.37,0.27,1.0,25.71,34.0,0.0746254,0.0,19.263384047619056,nan,-99.61438984848486,nan,0.0,0.0,9936.8633,0.0,0.0,0.0,0.0
553.0,24.0,19.0,87.0,138.0,76.0,nan,-0.99,-7.74,-1.07,6.2,-95.24,126.36,1.32,-0.4,-0.01,-0.62,0.64,-0.37,0.27,1.0,25.71,34.0,0.0746254,0.0,19.263384047619056,nan,-99.61438984848486,nan,0.0,0.0,9936.8633,0.0,0.0,0.0,0.0
575.0,32.0,31.0,79.0,165.0,74.0,nan,-1.1,-7.64,-1.07,6.21,-95.24,126.37,0.83,-0.26,-0.29,-0.62,0.64,-0.37,0.27,1.0,25.71,34.0,0.0746254,0.0,19.263384047619056,nan,-99.61438984848486,nan,0.0,0.0,9936.8633,0.0,0.0,0.0,0.0
602.0,19.0,32.0,147.0,183.0,118.0,nan,-1.1,-7.64,-1.07,6.21,-95.24,126.37,0.0,0.0,0.0,-0.62,0.64,-0.37,0.27,1.0,25.71,34.0,0.0746254,0.0,19.263384047619056,nan,-99.61438984848486,nan,0.0,0.0,9936.8633,0.0,0.0,0.0,0.0
620.0,32.0,32.0,77.0,184.0,125.0,nan,-1.05,-7.67,-0.85,6.21,-95.24,126.38,0.2,-0.26,-0.71,-0.62,0.64,-0.37,0.27,1.0,25.71,34.0,0.0746254,0.0,19.263384047619056,nan,-99.61438984848486,nan,0.0,0.0,9936.8633,0.0,0.0,0.0,0.0
644.0,31.0,27.0,108.0,149.0,76.0,nan,-0.76,-7.98,-0.89,6.2,-95.24,126.38,0.41,-0.33,-0.36,-0.62,0.64,-0.37,0.27,1.0,25.71,34.0,0.0746254,0.0,19.263384047619056,nan,-99.61438984848486,nan,0.0,0.0,9936.8633,0.0,0.0,0.0,0.0
667.0,29.0,38.0,76.0,152.0,90.0,nan,-1.03,-7.76,-0.59,6.2,-95.22,126.39,0.48,-0.19,-0.64,-0.62,0.64,-0.37,0.27,1.0,25.71,34.0,0.0746254,0.0,19.263384285714288,nan,-99.61439035353537,nan,0.0,0.0,9936.8633,0.0,0.0,2625.2,0.0
686.0,17.0,19.0,135.0,138.0,112.0,nan,-0.8,-7.87,-1.11,6.19,-95.25,126.39,-0.22,-0.19,-0.29,-0.62,0.64,-0.37,0.27,1.0,25.71,34.0,0.0746254,0.0,19.263384523809524,nan,-99.61439085858585,nan,0.0,0.0,9936.8633,0.0,0.0,2625.2,0.0
710.0,20.0,32.0,108.0,160.0,111.0,nan,-0.95,-7.9,-0.37,6.19,-95.2,126.4,1.39,-0.4,-0.29,-0.62,0.64,-0.36,0.27,1.0,25.71,34.0,0.0746254,0.0,19.263385000000003,nan,-99.61439136363636,nan,0.0,0.0,9936.8633,0.0,0.0,2625.2,0.0
729.0,32.0,32.0,78.0,160.0,125.0,nan,-0.85,-7.79,-1.28,6.18,-95.27,126.4,-1.48,0.09,-0.43,-0.62,0.64,-0.37,0.27,1.0,25.71,34.0,0.0746254,0.0,19.263385000000003,nan,-99.61439136363636,nan,0.0,0.0,9936.8633,0.0,0.0,0.0,0.0
752.0,31.0,32.0,147.0,146.0,111.0,nan,-1.02,-7.82,-0.56,6.19,-95.22,126.41,1.95,-0.4,-0.08,-0.62,0.64,-0.36,0.27,1.0,25.71,34.0,0.0746254,0.0,19.263385000000003,nan,-99.61439186868687,nan,0.0,0.0,9936.8633,1.0,0.0,2625.2,0.0
771.0,33.0,31.0,40.0,154.0,110.0,nan,-0.94,-7.87,-0.81,6.19,-95.24,126.4,-0.64,0.02,-0.5,-0.62,0.64,-0.37,0.27,1.0,25.71,34.0,0.0746254,0.0,19.26338512345679,nan,-99.61439237373737,nan,0.0,0.0,9936.8633,0.0,0.0,2625.2,0.0
794.0,18.0,17.0,108.0,174.0,139.0,nan,-1.09,-7.83,-0.57,6.2,-95.21,126.41,1.39,-0.33,-0.22,-0.62,0.64,-0.36,0.27,1.0,25.71,34.0,0.0746254,0.0,19.263385185185186,nan,-99.61439287878791,nan,0.0,0.0,9936.8633,0.0,0.0,2625.2,0.0
820.0,24.0,24.0,98.0,183.0,138.0,nan,-0.85,-7.78,-1.07,6.19,-95.28,126.41,-2.11,0.09,-0.5,-0.62,0.64,-0.37,0.27,1.0,25.71,34.0,0.0746254,0.0,19.263385246913586,nan,-99.61439338383839,nan,0.0,0.0,9936.8633,0.0,0.0,2625.2,0.0
843.0,29.0,32.0,146.0,174.0,124.0,nan,-1.13,-7.8,-0.64,6.21,-95.21,126.42,2.93,-0.61,-0.15,-0.62,0.64,-0.36,0.27,1.0,25.71,34.0,0.0746254,0.0,19.26338530864198,nan,-99.6143938888889,nan,0.0,0.0,9936.8633,0.0,0.0,2625.2,0.0
865.0,32.0,30.0,88.0,149.0,124.0,nan,-0.76,-7.99,-0.74,6.19,-95.27,126.42,-2.67,0.23,-0.71,-0.62,0.64,-0.37,0.27,1.0,25.71,34.0,0.0746254,0.0,19.263385370370372,nan,-99.6143943939394,nan,0.0,0.0,9936.8633,0.0,0.0,2624.8,0.0
886.0,20.0,30.0,81.0,155.0,98.0,nan,-1.02,-7.63,-0.93,6.2,-95.24,126.43,2.02,-0.54,-0.43,-0.62,0.64,-0.36,0.27,1.0,25.69,34.04,0.0746156,0.0,19.26338543209877,nan,-99.61439489898991,nan,0.0,0.0,9936.8633,0.0,0.0,2624.8,0.0
907.0,31.0,20.0,72.0,138.0,125.0,nan,-0.77,-8.15,-0.58,6.18,-95.24,126.44,-0.43,-0.19,-0.5,-0.62,0.64,-0.36,0.27,1.0,25.69,34.04,0.0746156,0.0,19.26338543209877,nan,-99.61439489898991,nan,0.0,0.0,9936.8633,0.0,0.0,0.0,0.0
931.0,14.0,31.0,62.0,124.0,110.0,nan,-0.96,-7.56,-0.99,6.18,-95.27,126.44,-0.36,-0.12,-0.43,-0.62,0.64,-0.36,0.27,1.0,25.69,34.04,0.0746156,0.0,19.263385493827162,nan,-99.61439540404042,nan,0.0,0.0,9936.8633,0.0,0.0,2624.8,0.0
952.0,13.0,17.0,78.0,125.0,112.0,nan,-0.94,-8.01,-0.89,6.18,-95.25,126.44,1.46,-0.4,-0.08,-0.62,0.64,-0.36,0.27,1.0,25.69,34.04,0.0746156,0.0,19.263385555555555,nan,-99.61439590909092,nan,0.0,0.0,9936.8633,0.0,0.0,2624.8,0.0
973.0,12.0,30.0,78.0,156.0,104.0,nan,-0.97,-7.8,-1.23,6.18,-95.25,126.45,1.46,-0.4,-0.01,-0.62,0.64,-0.36,0.27,1.0,25.69,34.04,0.0746156,0.0,19.26338561728395,nan,-99.61439641414142,nan,0.0,0.0,9936.8633,0.0,0.0,2624.8,0.0
999.0,23.0,31.0,124.0,154.0,111.0,nan,-1.07,-7.89,-0.37,6.19,-95.22,126.46,0.13,-0.19,-0.36,-0.62,0.64,-0.36,0.27,1.0,25.69,34.04,0.0746156,0.0,19.26338567901235,nan,-99.61439691919193,nan,0.0,0.0,9936.8633,0.0,0.0,2624.8,0.0
1022.0,14.0,19.0,121.0,153.0,111.0,nan,-0.94,-7.65,-1.17,6.19,-95.27,126.46,-0.29,-0.05,-0.29,-0.62,0.64,-0.36,0.27,1.0,25.69,34.04,0.0746156,0.0,19.263385740740745,nan,-99.61439742424244,nan,0.0,0.0,9936.8633,0.0,0.0,2624.8,0.0
1042.0,32.0,17.0,108.0,137.0,111.0,nan,-1.01,-7.99,-0.56,6.2,-95.23,126.46,1.25,-0.4,-0.15,-0.62,0.64,-0.36,0.27,1.0,25.69,34.04,0.0746156,0.0,19.263385740740745,nan,-99.61439742424244,nan,0.0,0.0,9936.8633,0.0,0.0,0.0,0.0
1065.0,16.0,32.0,108.0,139.0,112.0,nan,-1.11,-7.64,-0.8,6.21,-95.24,126.47,-0.36,-0.12,-0.43,-0.62,0.64,-0.36,0.27,1.0,25.69,34.04,0.0746156,0.0,19.263385802469138,nan,-99.61439792929292,nan,0.0,0.0,9936.8633,0.0,0.0,2624.8,0.0
1084.0,31.0,19.0,67.0,159.0,125.0,nan,-0.84,-7.88,-1.08,6.21,-95.26,126.47,0.06,-0.26,-0.22,-0.62,0.64,-0.36,0.27,1.0,25.69,34.04,0.0746156,0.0,19.263385864197534,nan,-99.61439843434343,nan,0.0,0.0,9936.8633,0.0,0.0,2624.8,0.0
1107.0,12.0,34.0,98.0,156.0,104.0,nan,-1.09,-7.81,-0.32,6.21,-95.2,126.48,1.67,-0.47,-0.57,-0.62,0.64,-0.36,0.27,1.0,25.69,34.04,0.0746156,0.0,19.263385925925927,nan,-99.61439893939394,nan,0.0,0.0,9936.8633,0.0,0.0,2624.8,0.0
1126.0,41.0,13.0,61.0,154.0,111.0,nan,-0.66,-7.88,-1.14,6.19,-95.26,126.48,-1.69,0.02,-0.64,-0.62,0.64,-0.36,0.27,1.0,25.69,34.04,0.0746156,0.0,19.26338598765432,nan,-99.61439944444444,nan,0.0,0.0,9936.8633,0.0,0.0,2624.8,0.0
1149.0,32.0,32.0,157.0,148.0,111.0,nan,-1.06,-7.81,-0.54,6.2,-95.2,126.49,2.65,-0.54,-0.29,-0.62,0.64,-0.36,0.27,1.0,25.69,34.04,0.0746156,0.0,19.26338604938272,nan,-99.61439994949492,nan,0.0,0.0,9936.8633,0.0,0.0,2624.8,0.0
1169.0,30.0,32.0,171.0,173.0,117.0,nan,-0.76,-7.97,-0.98,6.17,-95.25,126.49,-1.9,0.02,-0.71,-0.62,0.64,-0.36,0.27,1.0,25.69,34.04,0.0746156,0.0,19.26338604938272,nan,-99.61439994949492,nan,0.0,0.0,9936.8633,0.0,0.0,0.0,0.0
1192.0,32.0,25.0,150.0,163.0,76.0,nan,-0.94,-8.0,-0.82,6.18,-95.22,126.51,-0.15,-0.19,-0.5,-0.62,0.64,-0.36,0.27,1.0,25.69,34.04,0.0746156,0.0,19.263386111111117,nan,-99.61440045454543,nan,0.0,0.0,9936.8633,0.0,0.0,2624.8,0.0
1218.0,30.0,34.0,76.0,153.0,103.0,nan,-0.88,-7.66,-0.84,6.18,-95.24,126.51,-0.36,-0.19,-0.22,-0.62,0.64,-0.36,0.27,1.0,25.69,34.04,0.0746156,0.0,19.26338617283951,nan,-99.61440095959597,nan,0.0,0.0,9936.8633,0.0,0.0,2624.8,0.0
1241.0,20.0,31.0,52.0,139.0,111.0,nan,-1.11,-7.9,-0.76,6.2,-95.21,126.52,1.74,-0.4,-0.15,-0.62,0.64,-0.36,0.27,1.0,25.69,34.04,0.0746156,0.0,19.263386234567903,nan,-99.61440146464648,nan,0.0,0.0,9936.8633,0.0,0.0,2624.8,0.0
1261.0,13.0,32.0,68.0,124.0,80.0,nan,-0.88,-7.77,-0.79,6.19,-95.24,126.52,-1.41,0.02,-0.64,-0.62,0.64,-0.36,0.27,1.0,25.69,34.04,0.0746156,0.0,19.2633862962963,nan,-99.61440196969698,nan,0.0,0.0,9936.8633,0.0,0.0,2624.8,0.0
1284.0,15.0,19.0,136.0,159.0,125.0,nan,-1.14,-7.7,-0.92,6.21,-95.21,126.53,2.02,-0.4,0.13,-0.62,0.64,-0.36,0.27,1.0,25.69,34.04,0.0746156,0.0,19.263386358024693,nan,-99.61440247474746,nan,0.0,0.0,9936.8633,0.0,0.0,2624.8,0.0
1303.0,31.0,31.0,76.0,139.0,110.0,nan,-0.86,-8.03,-0.68,6.2,-95.24,126.53,-1.41,0.02,-0.71,-0.62,0.64,-0.36,0.27,1.0,25.69,34.04,0.0746156,0.0,19.263386419753086,nan,-99.61440297979797,nan,0.0,0.0,9936.8633,0.0,0.0,2624.8,0.0
1326.0,15.0,35.0,88.0,124.0,111.0,nan,-1.08,-7.58,-0.94,6.21,-95.23,126.53,1.46,-0.4,-0.36,-0.62,0.64,-0.36,0.27,1.0,25.69,34.04,0.0746156,0.0,19.263386419753086,nan,-99.61440297979797,nan,0.0,0.0,9936.8633,0.0,0.0,0.0,0.0
1346.0,23.0,32.0,60.0,137.0,109.0,nan,-0.86,-8.08,-0.67,6.2,-95.23,126.54,-0.15,-0.19,-0.29,-0.62,0.64,-0.36,0.27,1.0,25.71,34.04,0.0746231,0.0,19.263386481481486,nan,-99.61440348484848,nan,0.0,0.0,9936.8633,0.0,0.0,2624.8,0.0
1371.0,14.0,31.0,109.0,161.0,111.0,nan,-0.81,-8.02,-0.87,6.19,-95.23,126.55,0.41,-0.19,-0.15,-0.62,0.64,-0.36,0.27,1.0,25.71,34.04,0.0746231,0.0,19.263386543209883,nan,-99.61440398989899,nan,0.0,0.0,9936.8633,0.0,0.0,2624.8,0.0
1397.0,31.0,25.0,79.0,144.0,112.0,nan,-0.94,-7.73,-0.58,6.18,-95.22,126.55,0.06,-0.19,-0.64,-0.62,0.64,-0.36,0.27,1.0,25.71,34.04,0.0746231,0.0,19.26338666666667,nan,-99.61440499999999,nan,0.0,0.0,9936.8633,0.0,0.0,2624.8,0.0
1420.0,31.0,28.0,77.0,139.0,116.0,nan,-0.79,-7.89,-1.22,6.17,-95.25,126.55,0.27,-0.19,-0.29,-0.62,0.64,-0.36,0.27,1.0,25.71,34.04,0.0746231,0.0,19.26338666666667,nan,-99.61440497298757,nan,0.0,0.0,9936.8643,1.0,1.0,2624.8,0.0
1440.0,17.0,18.0,52.0,134.0,112.0,nan,-1.0,-7.85,-0.27,6.18,-95.2,126.56,0.55,-0.19,-0.22,-0.62,0.64,-0.36,0.27,1.0,25.71,34.04,0.0746231,0.0,19.263386750000006,nan,-99.61440494597512,nan,0.0,0.0,9936.8643,0.0,0.0,2624.8,0.0
1463.0,24.0,18.0,88.0,138.0,117.0,nan,-0.94,-7.77,-1.25,6.18,-95.25,126.56,-0.43,-0.05,-0.43,-0.62,0.64,-0.36,0.27,1.0,25.71,34.04,0.0746231,0.0,19.26338679166667,nan,-99.6144049189627,nan,0.0,0.0,9936.8643,0.0,0.0,2624.8,0.0
1482.0,31.0,39.0,76.0,152.0,124.0,nan,-1.0,-7.88,-0.45,6.18,-95.2,126.57,1.32,-0.47,-0.22,-0.62,0.64,-0.36,0.27,1.0,25.71,34.04,0.0746231,0.0,19.26338679166667,nan,-99.6144049189627,nan,0.0,0.0,9936.8643,0.0,0.0,0.0,0.0
1505.0,32.0,18.0,87.0,138.0,112.0,nan,-1.04,-7.8,-0.92,6.19,-95.23,126.57,-0.5,-0.05,-0.29,-0.62,0.64,-0.36,0.27,1.0,25.71,34.04,0.0746231,0.0,19.263386833333332,nan,-99.61440489195029,nan,0.0,0.0,9936.8643,0.0,0.0,2624.8,0.0
1525.0,23.0,18.0,82.0,153.0,97.0,nan,-0.87,-7.81,-0.88,6.19,-95.23,126.58,0.55,-0.33,-0.29,-0.62,0.64,-0.36,0.27,1.0,25.71,34.04,0.0746231,0.0,19.263386875000002,nan,-99.61440486493787,nan,0.0,0.0,9936.8643,0.0,0.0,2624.8,0.0
1547.0,32.0,30.0,97.0,139.0,125.0,nan,-1.17,-7.79,-0.59,6.21,-95.2,126.58,0.97,-0.26,-0.29,-0.62,0.64,-0.36,0.27,1.0,25.71,34.04,0.0746231,0.0,19.26338691666667,nan,-99.61440483792542,nan,0.0,0.0,9936.8643,0.0,0.0,2625.1,0.0
1567.0,32.0,17.0,51.0,156.0,124.0,nan,-0.79,-7.81,-1.12,6.19,-95.26,126.58,-1.34,0.02,-0.57,-0.62,0.64,-0.36,0.27,1.0,25.71,34.04,0.0746231,0.0,19.26338695833334,nan,-99.614404810913,nan,0.0,0.0,9936.8643,0.0,0.0,2625.1,0.0
1590.0,41.0,32.0,99.0,175.0,138.0,nan,-0.77,-7.94,-0.89,6.19,-95.25,126.59,-2.53,0.16,-0.64,-0.62,0.64,-0.36,0.27,1.0,25.71,34.04,0.0746231,0.0,19.263387,nan,-99.61440478390058,nan,0.0,0.0,9936.8643,0.0,0.0,2625.1,0.0
1616.0,31.0,32.0,39.0,162.0,118.0,nan,-0.98,-7.69,-0.82,6.19,-95.2,126.6,2.58,-0.54,-0.43,-0.62,0.64,-0.36,0.27,1.0,25.71,34.04,0.0746231,0.0,19.263387041666665,nan,-99.61440475688815,nan,0.0,0.0,9936.8643,0.0,0.0,2625.1,0.0
1639.0,34.0,32.0,51.0,125.0,111.0,nan,-0.84,-8.09,-0.66,6.18,-95.22,126.6,-0.99,-0.05,-0.57,-0.62,0.64,-0.36,0.27,1.0,25.71,34.04,0.0746231,0.0,19.263387041666665,nan,-99.61440475688815,nan,0.0,0.0,9936.8643,0.0,0.0,0.0,0.0
1659.0,17.0,17.0,87.0,139.0,110.0,nan,-0.93,-7.57,-0.98,6.18,-95.24,126.61,-0.08,-0.19,-0.29,-0.62,0.64,-0.36,0.27,1.0,25.71,34.04,0.0746231,0.0,19.263387083333335,nan,-99.61440472987573,nan,0.0,0.0,9936.8643,0.0,0.0,2625.1,0.0
1682.0,18.0,16.0,87.0,132.0,112.0,nan,-0.93,-8.06,-0.82,6.18,-95.22,126.61,1.39,-0.4,-0.29,-0.62,0.64,-0.36,0.27,1.0,25.71,34.04,0.0746231,0.0,19.263387125,nan,-99.61440470286331,nan,0.0,0.0,9936.8643,0.0,0.0,2625.1,0.0
1701.0,30.0,34.0,67.0,160.0,125.0,nan,-0.82,-7.71,-0.49,6.17,-95.23,126.62,-1.27,-0.05,-0.57,-0.62,0.64,-0.36,0.27,1.0,25.71,34.04,0.0746231,0.0,19.263387166666664,nan,-99.61440467585089,nan,0.0,0.0,9936.8643,0.0,0.0,2625.1,0.0
1724.0,16.0,34.0,124.0,142.0,109.0,nan,-0.98,-7.86,-1.25,6.18,-95.23,126.62,1.46,-0.4,0.06,-0.62,0.64,-0.36,0.27,1.0,25.71,34.04,0.0746231,0.0,19.263387208333334,nan,-99.61440464883844,nan,0.0,0.0,9936.8643,0.0,0.0,2625.1,0.0
1743.0,34.0,30.0,40.0,166.0,111.0,nan,-1.04,-7.85,-0.4,6.18,-95.22,126.63,-0.5,-0.12,-0.5,-0.62,0.64,-0.36,0.27,1.0,25.71,34.04,0.0746231,0.0,19.263387208333334,nan,-99.61440464883844,nan,0.0,0.0,9936.8643,0.0,0.0,0.0,0.0
1767.0,12.0,32.0,157.0,212.0,125.0,nan,-1.0,-7.67,-1.2,6.19,-95.26,126.63,-0.01,-0.26,-0.15,-0.62,0.64,-0.36,0.27,1.0,25.71,34.04,0.0746231,0.0,19.263387250000005,nan,-99.61440462182603,nan,0.0,0.0,9936.8643,0.0,0.0,2625.1,0.0
1786.0,29.0,31.0,173.0,163.0,112.0,nan,-0.97,-7.99,-0.46,6.19,-95.21,126.64,1.11,-0.4,-0.36,-0.62,0.64,-0.36,0.27,1.0,25.71,34.04,0.0746231,0.0,19.263387291666668,nan,-99.6144045948136,nan,0.0,0.0,9936.8643,0.0,0.0,2625.1,0.0
1809.0,32.0,18.0,93.0,138.0,126.0,nan,-0.81,-7.9,-1.01,6.19,-95.25,126.64,0.27,-0.26,-0.43,-0.62,0.64,-0.36,0.27,1.0,25.73,34.07,0.0746246,0.0,19.263387333333334,nan,-99.61440456780116,nan,0.0,0.0,9936.8643,0.0,0.0,2625.1,0.0
1841.0,24.0,17.0,53.0,139.0,110.0,nan,-1.14,-7.8,-0.45,6.2,-95.21,126.65,1.25,-0.4,-0.5,-0.62,0.64,-0.36,0.27,1.0,25.73,34.07,0.0746246,0.0,19.263387375000004,nan,-99.61440454078874,nan,0.0,0.0,9936.8643,0.0,0.0,2625.1,0.0
1860.0,24.0,29.0,79.0,159.0,111.0,nan,-0.73,-7.89,-1.06,6.18,-95.26,126.65,-1.34,0.02,-0.57,-0.62,0.64,-0.36,0.27,1.0,25.73,34.07,0.0746246,0.0,19.263387416666667,nan,-99.61440451377632,nan,0.0,0.0,9936.8643,0.0,0.0,2625.1,0.0
1883.0,31.0,29.0,148.0,182.0,126.0,nan,-1.04,-7.83,-0.53,6.19,-95.2,126.66,2.3,-0.54,-0.36,-0.62,0.64,-0.36,0.27,1.0,25.73,34.07,0.0746246,0.0,19.26338745833333,nan,-99.6144044867639,nan,0.0,0.0,9936.8643,0.0,0.0,2625.1,0.0
1903.0,12.0,31.0,108.0,184.0,126.0,nan,-0.74,-7.94,-1.02,6.17,-95.26,126.66,-2.11,0.16,-0.78,-0.62,0.64,-0.36,0.27,1.0,25.73,34.07,0.0746246,0.0,19.2633875,nan,-99.61440445975147,nan,0.0,0.0,9936.8643,0.0,0.0,2625.1,0.0
1926.0,32.0,32.0,60.0,161.0,96.0,nan,-1.0,-7.67,-0.77,6.18,-95.23,126.67,1.67,-0.4,-0.15,-0.62,0.64,-0.36,0.27,1.0,25.73,34.07,0.0746246,0.0,19.2633875,nan,-99.61440445975147,nan,0.0,0.0,9936.8643,0.0,0.0,0.0,0.0
1945.0,14.0,33.0,88.0,139.0,125.0,nan,-0.92,-8.02,-0.88,6.17,-95.26,126.67,-0.71,-0.12,-0.57,-0.62,0.64,-0.36,0.27,1.0,25.73,34.07,0.0746246,0.0,19.26338754166667,nan,-99.61440443273905,nan,0.0,0.0,9936.8643,0.0,0.0,2625.1,0.0
1968.0,14.0,19.0,87.0,138.0,112.0,nan,-0.97,-7.99,-0.95,6.17,-95.25,126.68,0.83,-0.33,-0.22,-0.62,0.64,-0.36,0.27,1.0,25.73,34.07,0.0746246,0.0,19.263387583333337,nan,-99.61440440572663,nan,0.0,0.0,9936.8643,0.0,0.0,2625.1,0.0
1994.0,13.0,32.0,76.0,137.0,109.0,nan,-0.92,-7.69,-0.68,6.17,-95.26,126.68,-0.78,-0.12,-0.5,-0.62,0.64,-0.36,0.27,1.0,25.73,34.07,0.0746246,0.0,19.263387625,nan,-99.61440437871418,nan,0.0,0.0,9936.8643,0.0,0.0,2625.1,0.0
2018.0,32.0,32.0,67.0,154.0,124.0,nan,-1.12,-7.83,-0.9,6.19,-95.24,126.69,1.53,-0.4,0.13,-0.62,0.64,-0.36,0.27,1.0,25.73,34.07,0.0746246,0.0,19.26338766666667,nan,-99.61440435170176,nan,0.0,0.0,9936.8643,0.0,0.0,2625.1,0.0
2037.0,31.0,31.0,68.0,138.0,124.0,nan,-0.92,-7.89,-0.66,6.18,-95.26,126.69,-1.13,0.02,-0.57,-0.62,0.64,-0.36,0.27,1.0,25.73,34.07,0.0746246,0.0,19.263387708333333,nan,-99.61440432468935,nan,0.0,0.0,9936.8643,0.0,0.0,2625.1,0.0
2060.0,21.0,31.0,147.0,126.0,108.0,nan,-1.16,-7.64,-1.0,6.21,-95.26,126.69,1.32,-0.26,0.06,-0.62,0.64,-0.36,0.27,1.0,25.73,34.07,0.0746246,0.0,19.26338775,nan,-99.61440429767693,nan,0.0,0.0,9936.8643,0.0,0.0,2625.1,0.0
2079.0,14.0,29.0,99.0,140.0,129.0,nan,-0.86,-8.01,-0.6,6.2,-95.26,126.7,-0.43,-0.19,-0.5,-0.62,0.64,-0.36,0.27,1.0,25.73,34.07,0.0746246,0.0,19.26338775,nan,-99.61440429767693,nan,0.0,0.0,9936.8643,0.0,0.0,0.0,0.0
2103.0,18.0,32.0,81.0,154.0,112.0,nan,-1.04,-7.65,-0.89,6.2,-95.25,126.7,0.9,-0.19,-0.5,-0.62,0.64,-0.36,0.27,1.0,25.73,34.07,0.0746246,0.0,19.26338779166667,nan,-99.61440427066448,nan,0.0,0.0,9936.8643,0.0,0.0,2625.1,0.0
2122.0,19.0,32.0,120.0,138.0,109.0,nan,-0.83,-8.02,-0.71,6.2,-95.25,126.71,-0.01,-0.19,-0.29,-0.62,0.64,-0.36,0.27,1.0,25.73,34.07,0.0746246,0.0,19.26338783333334,nan,-99.61440424365206,nan,0.0,0.0,9936.8643,0.0,0.0,2625.1,0.0
2145.0,12.0,32.0,87.0,135.0,104.0,nan,-0.85,-7.93,-0.96,6.18,-95.25,126.72,0.27,-0.19,-0.22,-0.62,0.64,-0.36,0.27,1.0,25.73,34.07,0.0746246,0.0,19.263387875000003,nan,-99.61440421663964,nan,0.0,0.0,9936.8643,0.0,0.0,2625.1,0.0
2171.0,30.0,31.0,77.0,137.0,75.0,nan,-0.85,-7.93,-0.96,6.18,-95.25,126.72,0.0,0.0,0.0,-0.62,0.64,-0.36,0.27,1.0,25.73,34.07,0.0746246,0.0,19.263387916666666,nan,-99.61440418962721,nan,0.0,0.0,9936.8643,0.0,0.0,2625.1,0.0
2189.0,24.0,31.0,67.0,138.0,102.0,nan,-0.77,-7.86,-1.28,6.16,-95.28,126.72,-0.78,-0.05,-0.43,-0.62,0.64,-0.36,0.27,1.0,25.73,34.07,0.0746246,0.0,19.263387958333336,nan,-99.61440416261479,nan,0.0,0.0,9936.8643,0.0,0.0,2625.1,0.0
2213.0,41.0,13.0,108.0,151.0,111.0,nan,-1.1,-7.78,-0.37,6.18,-95.22,126.74,1.53,-0.47,-0.01,-0.62,0.64,-0.36,0.27,1.0,25.73,34.07,0.0746246,0.0,19.263388000000003,nan,-99.61440413560237,nan,0.0,0.0,9936.8643,0.0,0.0,2625.1,0.0
2236.0,19.0,31.0,77.0,155.0,111.0,nan,-0.83,-7.92,-1.06,6.17,-95.26,126.74,-0.85,-0.05,-0.64,-0.62,0.64,-0.36,0.27,1.0,25.73,34.07,0.0746246,0.0,19.263388000000003,nan,-99.61440413560237,nan,0.0,0.0,9936.8643,0.0,0.0,0.0,0.0
2256.0,28.0,25.0,107.0,138.0,113.0,nan,-1.05,-7.71,-0.72,6.18,-95.24,126.74,1.04,-0.33,0.06,-0.62,0.64,-0.36,0.27,1.0,25.73,34.07,0.0746246,0.0,19.263388041666666,nan,-99.61440410858995,nan,0.0,0.0,9936.8643,0.0,0.0,2625.1,0.0
2278.0,19.0,33.0,68.0,159.0,111.0,nan,-1.01,-7.92,-0.77,6.19,-95.23,126.75,0.55,-0.19,-0.29,-0.62,0.64,-0.36,0.27,1.0,25.71,34.04,0.0746313,0.0,19.263388083333336,nan,-99.6144040815775,nan,0.0,0.0,9936.8643,0.0,0.0,2625.1,0.0
2300.0,31.0,30.0,87.0,139.0,110.0,nan,-0.9,-7.65,-0.9,6.19,-95.26,126.75,-0.71,-0.05,-0.29,-0.62,0.64,-0.36,0.27,1.0,25.71,34.04,0.0746313,0.0,19.263388125,nan,-99.61440405456509,nan,0.0,0.0,9936.8643,0.0,0.0,2625.1,0.0
2323.0,14.0,33.0,87.0,140.0,125.0,nan,-0.85,-7.88,-0.78,6.2,-95.26,126.75,-1.9,0.16,-0.43,-0.62,0.64,-0.36,0.27,1.0,25.71,34.04,0.0746313,0.0,19.26338816666667,nan,-99.61440402755267,nan,0.0,0.0,9936.8643,0.0,0.0,2625.1,0.0
2349.0,31.0,32.0,77.0,154.0,109.0,nan,-0.85,-7.88,-0.78,6.2,-95.26,126.75,0.0,0.0,0.0,-0.62,0.64,-0.36,0.27,1.0,25.71,34.04,0.0746313,0.0,19.263388208333335,nan,-99.61440400054025,nan,0.0,0.0,9936.8643,0.0,0.0,2625.1,0.0
2367.0,34.0,31.0,66.0,153.0,112.0,nan,-0.85,-8.06,-0.55,6.2,-95.24,126.76,-0.71,-0.05,-0.5,-0.62,0.64,-0.36,0.27,1.0,25.71,34.04,0.0746313,0.0,19.263388208333335,nan,-99.61440400054025,nan,0.0,0.0,9936.8643,0.0,0.0,0.0,0.0
2392.0,23.0,28.0,66.0,140.0,103.0,nan,-0.91,-7.62,-0.93,6.19,-95.25,126.77,0.34,-0.26,-0.71,-0.62,0.64,-0.36,0.27,1.0,25.71,34.04,0.0746313,0.0,19.26338825,nan,-99.6144039735278,nan,0.0,0.0,9936.8643,0.0,0.0,2625.1,0.0
2415.0,31.0,19.0,88.0,152.0,111.0,nan,-0.92,-8.03,-0.83,6.19,-95.24,126.77,0.41,-0.26,-0.15,-0.62,0.64,-0.36,0.27,1.0,25.71,34.04,0.0746313,0.0,19.26338833333333,nan,-99.61440394651538,nan,0.0,0.0,9936.8643,0.0,0.0,2625.1,0.0
2434.0,31.0,41.0,51.0,137.0,126.0,nan,-0.85,-7.75,-0.6,6.18,-95.24,126.78,-0.15,-0.19,-0.78,-0.62,0.64,-0.36,0.27,1.0,25.71,34.04,0.0746313,0.0,19.263388322510824,nan,-99.61440391950296,nan,0.0,0.0,9936.8643,1.0,0.0,2625.1,0.0
2457.0,19.0,31.0,77.0,139.0,112.0,nan,-0.79,-7.95,-1.14,6.17,-95.26,126.78,0.34,-0.26,-0.15,-0.62,0.64,-0.36,0.27,1.0,25.71,34.04,0.0746313,0.0,19.263388311688313,nan,-99.61440389249053,nan,0.0,0.0,9936.8643,0.0,0.0,2625.1,0.0
2477.0,19.0,31.0,52.0,136.0,123.0,nan,-1.11,-7.8,-0.32,6.19,-95.21,126.79,0.76,-0.26,-0.15,-0.62,0.64,-0.36,0.27,1.0,25.71,34.04,0.0746313,0.0,19.263388300865806,nan,-99.61440386547811,nan,0.0,0.0,9936.8643,0.0,0.0,2625.1,0.0
2499.0,23.0,18.0,52.0,137.0,111.0,nan,-0.72,-7.84,-1.22,6.16,-95.26,126.79,-0.71,-0.05,-0.57,-0.62,0.64,-0.36,0.27,1.0,25.71,34.04,0.0746313,0.0,19.263388300865806,nan,-99.61440386547811,nan,0.0,0.0,9936.8643,0.0,0.0,0.0,0.0
2519.0,32.0,31.0,68.0,153.0,125.0,nan,-1.15,-7.81,-0.46,6.19,-95.21,126.8,1.67,-0.4,0.06,-0.62,0.64,-0.36,0.27,1.0,25.71,34.04,0.0746313,0.0,19.26338829004329,nan,-99.61440383846569,nan,0.0,0.0,9936.8643,0.0,0.0,2625.1,0.0
2542.0,30.0,24.0,156.0,134.0,104.0,nan,-1.06,-7.73,-0.93,6.2,-95.24,126.8,-0.08,-0.12,-0.01,-0.62,0.64,-0.36,0.27,1.0,25.71,34.04,0.0746313,0.0,19.263388279220777,nan,-99.61440381145327,nan,0.0,0.0,9936.8643,0.0,0.0,2625.1,0.0
2569.0,30.0,32.0,162.0,154.0,74.0,nan,-1.06,-7.73,-0.93,6.2,-95.24,126.8,0.0,0.0,0.0,-0.62,0.64,-0.36,0.27,1.0,25.71,34.04,0.0746313,0.0,19.26338826839827,nan,-99.61440378444082,nan,0.0,0.0,9936.8643,0.0,0.0,2624.9,0.0
2586.0,32.0,30.0,88.0,139.0,103.0,nan,-0.76,-7.81,-0.92,6.19,-95.24,126.81,-1.48,0.02,-0.36,-0.62,0.64,-0.36,0.27,1.0,25.71,34.04,0.0746313,0.0,19.263388257575762,nan,-99.6144037574284,nan,0.0,0.0,9936.8643,0.0,0.0,2624.9,0.0
2610.0,31.0,30.0,88.0,130.0,76.0,nan,-1.16,-7.78,-0.75,6.21,-95.2,126.82,2.44,-0.54,-0.22,-0.62,0.64,-0.36,0.27,1.0,25.71,34.04,0.0746313,0.0,19.26338824675325,nan,-99.61440373041599,nan,0.0,0.0,9936.8643,0.0,0.0,2624.9,0.0
2633.0,35.0,31.0,77.0,125.0,103.0,nan,-0.83,-7.97,-0.79,6.19,-95.24,126.82,-1.9,0.09,-0.64,-0.62,0.64,-0.36,0.27,1.0,25.71,34.04,0.0746313,0.0,19.263388235930737,nan,-99.61440370340354,nan,0.0,0.0,9936.8643,0.0,0.0,2624.9,0.0
2653.0,15.0,17.0,147.0,149.0,116.0,nan,-0.9,-7.73,-0.82,6.19,-95.21,126.83,1.53,-0.4,-0.5,-0.62,0.64,-0.36,0.27,1.0,25.71,34.04,0.0746313,0.0,19.263388235930737,nan,-99.61440370340354,nan,0.0,0.0,9936.8643,0.0,0.0,0.0,0.0
2676.0,31.0,31.0,88.0,137.0,112.0,nan,-0.86,-8.02,-0.78,6.18,-95.22,126.83,-0.29,-0.19,-0.29,-0.62,0.64,-0.36,0.27,1.0,25.71,34.04,0.0746313,0.0,19.263388225108223,nan,-99.61440367639112,nan,0.0,0.0,9936.8643,0.0,0.0,2624.9,0.0
2696.0,43.0,31.0,68.0,137.0,109.0,nan,-0.86,-7.69,-0.73,6.17,-95.22,126.84,0.34,-0.19,-0.71,-0.62,0.64,-0.36,0.27,1.0,25.71,34.04,0.0746313,0.0,19.263388214285715,nan,-99.6144036493787,nan,0.0,0.0,9936.8643,0.0,0.0,2624.9,0.0
2718.0,12.0,32.0,60.0,154.0,110.0,nan,-0.93,-7.94,-1.03,6.17,-95.23,126.84,0.34,-0.26,-0.22,-0.62,0.64,-0.36,0.27,1.0,25.71,34.04,0.0746313,0.0,19.263388203463204,nan,-99.61440362236628,nan,0.0,0.0,9936.8643,0.0,0.0,2624.9,0.0
2738.0,32.0,19.0,73.0,154.0,111.0,nan,-0.97,-7.75,-0.53,6.17,-95.22,126.85,-0.08,-0.19,-0.43,-0.62,0.64,-0.36,0.27,1.0,25.71,34.11,0.0746066,0.0,19.26338819264069,nan,-99.61440359535385,nan,0.0,0.0,9936.8643,0.0,0.0,2624.9,0.0
2763.0,34.0,31.0,135.0,133.0,111.0,nan,-0.99,-7.87,-0.54,6.18,-95.22,126.85,-0.15,-0.12,-0.36,-0.62,0.64,-0.36,0.27,1.0,25.71,34.11,0.0746066,0.0,19.263388181818183,nan,-99.61440356834143,nan,0.0,0.0,9936.8643,0.0,0.0,2624.9,0.0
2789.0,30.0,24.0,121.0,133.0,75.0,nan,-1.05,-7.74,-0.96,6.19,-95.22,126.86,0.83,-0.19,-0.15,-0.62,0.64,-0.36,0.27,1.0,25.71,34.11,0.0746066,0.0,19.263388170995675,nan,-99.61440354132901,nan,0.0,0.0,9936.8643,0.0,0.0,2624.9,0.0
2812.0,30.0,25.0,157.0,138.0,103.0,nan,-0.97,-7.89,-0.73,6.2,-95.23,126.86,-0.5,-0.12,-0.22,-0.62,0.64,-0.36,0.27,1.0,25.71,34.11,0.0746066,0.0,19.26338816017316,nan,-99.61440351431656,nan,0.0,0.0,9936.8643,0.0,0.0,2624.9,0.0
2832.0,31.0,33.0,151.0,161.0,113.0,nan,-1.09,-7.65,-0.89,6.21,-95.22,126.86,0.83,-0.19,-0.36,-0.62,0.64,-0.36,0.27,1.0,25.71,34.11,0.0746066,0.0,19.26338816017316,nan,-99.61440351431656,nan,0.0,0.0,9936.8643,0.0,0.0,0.0,0.0
2855.0,21.0,31.0,99.0,135.0,110.0,nan,-0.81,-7.95,-0.77,6.2,-95.23,126.87,-0.15,-0.19,-0.36,-0.62,0.64,-0.36,0.27,1.0,25.71,34.11,0.0746066,0.0,19.26338814935065,nan,-99.61440348730414,nan,0.0,0.0,9936.8643,0.0,0.0,2624.9,0.0
2877.0,31.0,32.0,66.0,153.0,125.0,nan,-1.04,-7.72,-0.6,6.2,-95.2,126.87,1.04,-0.33,-0.71,-0.62,0.64,-0.36,0.27,1.0,25.71,34.11,0.0746066,0.0,19.263388138528143,nan,-99.61440346029173,nan,0.0,0.0,9936.8643,0.0,0.0,2624.9,0.0
2897.0,26.0,31.0,76.0,132.0,111.0,nan,-0.73,-7.95,-1.02,6.18,-95.23,126.87,-0.5,-0.05,-0.5,-0.62,0.64,-0.36,0.27,1.0,25.71,34.11,0.0746066,0.0,19.26338812770563,nan,-99.6144034332793,nan,0.0,0.0,9936.8643,0.0,0.0,2624.9,0.0
2917.0,31.0,31.0,77.0,118.0,111.0,nan,-0.98,-7.85,-0.58,6.18,-95.2,126.88,1.25,-0.33,-0.43,-0.62,0.64,-0.36,0.27,1.0,25.71,34.11,0.0746066,0.0,19.26338811688312,nan,-99.61440340626686,nan,0.0,0.0,9936.8643,0.0,0.0,2624.9,0.0
2939.0,13.0,27.0,77.0,138.0,125.0,nan,-0.99,-7.82,-0.48,6.18,-95.19,126.89,1.6,-0.4,-0.22,-0.62,0.64,-0.36,0.27,1.0,25.71,34.11,0.0746066,0.0,19.263388106060606,nan,-99.61440337925444,nan,0.0,0.0,9936.8643,0.0,0.0,2624.9,0.0
2967.0,31.0,14.0,67.0,138.0,110.0,nan,-0.86,-7.9,-1.02,6.17,-95.23,126.89,-0.92,-0.05,-0.5,-0.62,0.64,-0.36,0.27,1.0,25.71,34.11,0.0746066,0.0,19.263388095238096,nan,-99.61440335224202,nan,0.0,0.0,9936.8643,0.0,0.0,2624.9,0.0
2989.0,15.0,18.0,87.0,139.0,108.0,nan,-1.0,-7.72,-0.76,6.18,-95.22,126.89,0.62,-0.19,-0.01,-0.62,0.64,-0.36,0.27,1.0,25.71,34.11,0.0746066,0.0,19.263388095238096,nan,-99.61440335224202,nan,0.0,0.0,9936.8643,0.0,0.0,0.0,0.0
3008.0,13.0,18.0,61.0,132.0,125.0,nan,-1.02,-7.83,-0.77,6.19,-95.2,126.9,0.97,-0.26,-0.22,-0.62,0.64,-0.36,0.27,1.0,25.71,34.11,0.0746066,0.0,19.26338808441559,nan,-99.61440332522959,nan,0.0,0.0,9936.8643,0.0,0.0,2624.9,0.0
3031.0,21.0,32.0,136.0,138.0,112.0,nan,-0.96,-7.74,-0.85,6.19,-95.23,126.9,-1.06,-0.05,-0.36,-0.62,0.64,-0.36,0.27,1.0,25.71,34.11,0.0746066,0.0,19.263388073593074,nan,-99.61440329821717,nan,0.0,0.0,9936.8643,0.0,0.0,2624.9,0.0
3052.0,14.0,32.0,99.0,153.0,111.0,nan,-1.14,-7.83,-0.75,6.21,-95.19,126.91,2.16,-0.54,-0.08,-0.62,0.64,-0.36,0.27,1.0,25.71,34.11,0.0746066,0.0,19.263388062770566,nan,-99.61440327120475,nan,0.0,0.0,9936.8643,0.0,0.0,2624.9,0.0
3073.0,17.0,19.0,146.0,124.0,117.0,nan,-0.8,-7.98,-0.77,6.19,-95.23,126.91,-1.83,0.09,-0.5,-0.62,0.64,-0.36,0.27,1.0,25.71,34.11,0.0746066,0.0,19.263388051948052,nan,-99.61440324419233,nan,0.0,0.0,9936.8643,0.0,0.0,2624.9,0.0
3093.0,13.0,17.0,157.0,160.0,138.0,nan,-1.1,-7.65,-0.97,6.2,-95.21,126.92,2.09,-0.47,-0.36,-0.62,0.64,-0.36,0.27,1.0,25.71,34.11,0.0746066,0.0,19.263388051948052,nan,-99.61440324419233,nan,0.0,0.0,9936.8643,0.0,0.0,0.0,0.0
3116.0,31.0,25.0,78.0,153.0,126.0,nan,-0.84,-8.07,-0.54,6.2,-95.21,126.92,-0.71,-0.12,-0.36,-0.62,0.64,-0.36,0.27,1.0,25.71,34.11,0.0746066,0.0,19.26338804112554,nan,-99.61440321717988,nan,0.0,0.0,9936.8643,0.0,0.0,2624.9,0.0
3136.0,20.0,32.0,98.0,133.0,119.0,nan,-0.95,-7.65,-0.86,6.19,-95.21,126.93,0.27,-0.19,-0.64,-0.62,0.64,-0.36,0.27,1.0,25.71,34.11,0.0746066,0.0,19.263388030303034,nan,-99.61440319016747,nan,0.0,0.0,9936.8643,0.0,0.0,2624.9,0.0
3158.0,33.0,42.0,146.0,152.0,81.0,nan,-0.8,-7.74,-0.58,6.17,-95.21,126.93,-0.15,-0.19,-0.78,-0.62,0.64,-0.36,0.27,1.0,25.71,34.11,0.0746066,0.0,19.26338801948052,nan,-99.61440316315505,nan,0.0,0.0,9936.8643,0.0,0.0,2624.9,0.0
3185.0,17.0,31.0,39.0,138.0,111.0,nan,-0.89,-7.87,-1.24,6.17,-95.24,126.94,0.34,-0.26,-0.15,-0.62,0.64,-0.36,0.27,1.0,25.71,34.11,0.0746066,0.0,19.263388008658005,nan,-99.6144031361426,nan,0.0,0.0,9936.8643,0.0,0.0,2624.9,0.0
3208.0,31.0,25.0,136.0,130.0,116.0,nan,-1.08,-7.85,-0.23,6.18,-95.18,126.95,0.9,-0.33,-0.29,-0.62,0.64,-0.36,0.27,1.0,25.71,34.11,0.0746231,0.0,19.263387997835498,nan,-99.61440310913018,nan,0.0,0.0,9936.8643,0.0,0.0,2624.9,0.0
3229.0,17.0,33.0,38.0,140.0,116.0,nan,-0.82,-7.81,-1.22,6.17,-95.24,126.94,-0.99,-0.05,-0.5,-0.62,0.64,-0.36,0.27,1.0,25.71,34.11,0.0746231,0.0,19.26338798701299,nan,-99.61440308211776,nan,0.0,0.0,9936.8643,0.0,0.0,2624.9,0.0
3253.0,17.0,32.0,124.0,154.0,111.0,nan,-1.1,-7.87,-0.53,6.19,-95.19,126.95,1.6,-0.4,-0.01,-0.62,0.64,-0.36,0.27,1.0,25.71,34.11,0.0746231,0.0,19.26338798701299,nan,-99.61440308211776,nan,0.0,0.0,9936.8643,0.0,0.0,0.0,0.0
3272.0,43.0,41.0,121.0,145.0,126.0,nan,-1.02,-7.81,-0.8,6.19,-95.21,126.95,-0.43,-0.05,-0.29,-0.62,0.64,-0.36,0.26,1.0,25.71,34.11,0.0746231,0.0,19.26338797619048,nan,-99.61440305510534,nan,0.0,0.0,9936.8643,0.0,0.0,2624.9,0.0
3295.0,28.0,25.0,108.0,140.0,111.0,nan,-0.95,-7.71,-1.0,6.2,-95.23,126.96,0.06,-0.19,-0.15,-0.62,0.64,-0.36,0.26,1.0,25.71,34.11,0.0746231,0.0,19.263387965367965,nan,-99.61440302809291,nan,0.0,0.0,9936.8643,0.0,0.0,2624.9,0.0
3314.0,28.0,16.0,136.0,145.0,110.0,nan,-1.14,-7.83,-0.52,6.22,-95.18,126.97,1.67,-0.33,-0.29,-0.62,0.64,-0.36,0.26,1.0,25.71,34.11,0.0746231,0.0,19.263387954545458,nan,-99.61440300108049,nan,0.0,0.0,9936.8643,0.0,0.0,2624.9,0.0
3337.0,33.0,32.0,110.0,133.0,111.0,nan,-1.13,-7.78,-0.69,6.21,-95.18,126.97,2.86,-0.61,-0.15,-0.62,0.64,-0.36,0.26,1.0,25.71,34.11,0.0746231,0.0,19.263387943722943,nan,-99.61440297406807,nan,0.0,0.0,9936.8643,0.0,0.0,2624.9,0.0
3363.0,18.0,19.0,135.0,154.0,111.0,nan,-0.78,-7.99,-0.75,6.2,-95.22,126.97,-1.97,0.09,-0.64,-0.62,0.64,-0.36,0.26,1.0,25.71,34.11,0.0746231,0.0,19.263387932900436,nan,-99.61440294705562,nan,0.0,0.0,9936.8643,0.0,0.0,2624.9,0.0
3386.0,17.0,32.0,72.0,123.0,75.0,nan,-0.95,-7.64,-0.84,6.2,-95.19,126.98,1.74,-0.47,-0.36,-0.62,0.64,-0.36,0.26,1.0,25.71,34.11,0.0746231,0.0,19.263387922077925,nan,-99.6144029200432,nan,0.0,0.0,9936.8643,0.0,0.0,2624.9,0.0
3406.0,31.0,31.0,135.0,125.0,117.0,nan,-0.87,-8.07,-0.79,6.19,-95.21,126.98,-0.57,-0.05,-0.43,-0.62,0.64,-0.36,0.26,1.0,25.71,34.11,0.0746231,0.0,19.263387922077925,nan,-99.6144029200432,nan,0.0,0.0,9936.8643,0.0,0.0,0.0,0.0
3429.0,29.0,34.0,108.0,146.0,110.0,nan,-2.46,-4.25,-0.73,6.47,-95.14,126.98,5.45,-0.47,2.44,-0.62,0.64,-0.36,0.26,1.0,25.71,34.11,0.0746231,0.0,19.26338791125541,nan,-99.61440289303079,nan,0.0,0.0,9936.8643,0.0,0.0,2624.9,0.0
3448.0,34.0,34.0,135.0,146.0,126.0,nan,-1.05,-6.49,-1.59,6.41,-95.09,127.0,6.5,-0.61,-4.35,-0.62,0.64,-0.36,0.26,1.0,25.71,34.11,0.0746231,0.0,19.263387900432903,nan,-99.61440286601837,nan,0.0,0.0,9936.8643,0.0,0.0,2624.9,0.0
3471.0,31.0,32.0,62.0,133.0,111.0,nan,-1.82,-10.83,-0.05,6.34,-95.03,127.01,0.76,-0.05,-4.98,-0.62,0.64,-0.36,0.26,1.0,25.71,34.11,0.0746231,0.0,19.26338788961039,nan,-99.61440283900592,nan,0.0,0.0,9936.8643,0.0,0.0,2624.9,0.0
3491.0,47.0,37.0,146.0,153.0,125.0,nan,0.58,-10.53,-2.08,6.15,-95.03,127.02,2.79,-0.47,-5.12,-0.62,0.64,-0.36,0.27,1.0,25.71,34.11,0.0746231,0.0,19.26338787878788,nan,-99.6144028119935,nan,0.0,0.0,9936.8643,0.0,0.0,2624.9,0.0
3514.0,27.0,26.0,88.0,109.0,110.0,nan,-1.76,-11.45,-0.63,6.39,-94.85,127.03,8.18,-1.38,10.63,-0.62,0.64,-0.36,0.26,1.0,25.71,34.11,0.0746231,0.0,19.26338787878788,nan,-99.6144028119935,nan,0.0,0.0,9936.8643,0.0,0.0,0.0,0.0
3533.0,189.0,169.0,151.0,177.0,139.0,nan,-0.82,-8.6,-1.4,6.43,-95.1,127.01,-10.23,0.72,2.86,-0.62,0.64,-0.36,0.26,1.0,25.71,34.11,0.0746231,0.0,19.26338786796537,nan,-99.61440278498108,nan,0.0,0.0,9936.8643,0.0,0.0,2624.9,0.0
3556.0,144.0,146.0,143.0,168.0,118.0,nan,-1.07,-3.46,-0.41,6.77,-95.18,127.01,-0.92,-0.33,4.05,-0.62,0.64,-0.36,0.26,1.0,25.71,34.11,0.0746231,0.0,19.263387857142856,nan,-99.61440275796865,nan,0.0,0.0,9936.8643,0.0,0.0,2624.5,0.0
3582.0,0.0,0.0,135.0,116.0,96.0,nan,-0.86,-4.51,-1.62,6.75,-95.43,126.98,-5.26,0.58,-2.95,-0.62,0.64,-0.37,0.26,1.0,25.71,34.11,0.0746231,0.0,19.26338784632035,nan,-99.61440273095623,nan,0.0,0.0,9936.8643,0.0,0.0,2624.5,0.0
3605.0,0.0,0.0,108.0,156.0,113.0,nan,-0.6,-5.5,-0.53,6.69,-95.35,127.0,3.91,-0.47,-2.53,-0.62,0.64,-0.36,0.26,1.0,25.71,34.11,0.0746231,0.0,19.26338783549784,nan,-99.61440270394381,nan,0.0,0.0,9936.8643,0.0,0.0,2624.5,0.0
3625.0,39.0,41.0,78.0,148.0,110.0,nan,-1.78,-11.53,-0.87,6.61,-95.19,127.02,7.55,-0.75,-5.05,-0.62,0.64,-0.36,0.26,1.0,25.71,34.11,0.0746231,0.0,19.263387824675327,nan,-99.61440267693139,nan,0.0,0.0,9936.8643,0.0,0.0,2624.5,0.0
3648.0,39.0,32.0,88.0,166.0,136.0,nan,0.05,-10.84,0.34,6.39,-95.11,127.05,0.06,-0.05,-7.85,-0.62,0.64,-0.36,0.26,1.0,25.71,34.11,0.0746231,0.0,19.263387813852816,nan,-99.61440264991894,nan,0.0,0.0,9936.8643,0.0,0.0,2624.5,0.0
3667.0,16.0,30.0,108.0,162.0,113.0,nan,-1.17,-12.39,-2.54,6.49,-95.19,127.03,-0.64,-0.05,5.45,-0.62,0.64,-0.36,0.26,1.0,25.69,34.11,0.0746066,0.0,19.2633878030303,nan,-99.61440262290652,nan,0.0,0.0,9936.8643,0.0,0.0,2624.5,0.0
3693.0,26.0,13.0,108.0,110.0,75.0,nan,-1.23,-9.42,1.13,6.55,-95.07,127.06,0.06,-0.89,2.65,-0.62,0.64,-0.36,0.26,1.0,25.69,34.11,0.0746066,0.0,19.2633878030303,nan,-99.61440262290652,nan,0.0,0.0,9936.8643,0.0,0.0,0.0,0.0
3712.0,110.0,104.0,87.0,148.0,110.0,nan,-0.58,-6.86,-2.23,6.55,-95.35,127.02,-7.57,0.86,0.97,-0.62,0.64,-0.36,0.26,1.0,25.69,34.11,0.0746066,0.0,19.263387792207794,nan,-99.6144025958941,nan,0.0,0.0,9936.8643,0.0,0.0,2624.5,0.0
3735.0,27.0,24.0,109.0,124.0,117.0,nan,-0.31,-5.36,-0.35,6.46,-95.15,127.06,-2.25,0.3,-0.92,-0.62,0.64,-0.36,0.26,1.0,25.69,34.11,0.0746066,0.0,19.26338778138528,nan,-99.61440256888166,nan,0.0,0.0,9936.8643,0.0,0.0,2624.5,0.0
3761.0,0.0,0.0,50.0,125.0,97.0,nan,-0.82,-4.87,-1.63,6.42,-95.2,127.05,4.05,-0.26,-3.3,-0.62,0.64,-0.36,0.26,1.0,25.69,34.11,0.0746066,0.0,19.26338777056277,nan,-99.61440254186924,nan,0.0,0.0,9936.8643,0.0,0.0,2624.5,0.0
3784.0,30.0,44.0,88.0,182.0,139.0,nan,-1.51,-8.83,-0.41,6.42,-95.14,127.06,1.81,-0.26,-1.69,-0.62,0.64,-0.36,0.26,1.0,25.69,34.11,0.0746066,0.0,19.26338775974026,nan,-99.61440251485682,nan,0.0,0.0,9936.8643,0.0,0.0,2624.5,0.0
3804.0,20.0,44.0,52.0,148.0,110.0,nan,-1.11,-10.9,-1.06,6.29,-95.12,127.08,0.97,-0.19,-6.38,-0.62,0.64,-0.36,0.26,1.0,25.69,34.11,0.0746066,0.0,19.263387748917754,nan,-99.6144024878444,nan,0.0,0.0,9936.8643,0.0,0.0,2624.5,0.0
3827.0,40.0,31.0,79.0,140.0,112.0,nan,-0.94,-11.3,-0.91,6.25,-95.21,127.07,-4.84,0.37,-0.92,-0.62,0.64,-0.36,0.26,1.0,25.69,34.11,0.0746066,0.0,19.26338773809524,nan,-99.61440246083197,nan,0.0,0.0,9936.8643,0.0,0.0,2624.5,0.0
3846.0,25.0,30.0,88.0,127.0,76.0,nan,-1.13,-10.73,-0.72,6.33,-95.21,127.08,-0.43,-0.47,4.12,-0.62,0.64,-0.36,0.26,1.0,25.69,34.11,0.0746066,0.0,19.26338773809524,nan,-99.61440246083197,nan,0.0,0.0,9936.8643,0.0,0.0,0.0,0.0
3869.0,15.0,3.0,55.0,109.0,101.0,nan,-1.16,-7.71,-0.05,6.41,-95.2,127.08,-2.18,-0.12,2.72,-0.62,0.64,-0.36,0.26,1.0,25.69,34.11,0.0746066,0.0,19.263387727272725,nan,-99.61440243381955,nan,0.0,0.0,9936.8643,0.0,0.0,2624.5,0.0
3889.0,157.0,152.0,161.0,211.0,152.0,nan,-1.27,-5.03,-1.18,6.53,-95.22,127.08,2.65,-0.68,2.51,-0.62,0.64,-0.36,0.26,1.0,25.69,34.11,0.0746066,0.0,19.263387716450218,nan,-99.61440240680713,nan,0.0,0.0,9936.8643,0.0,0.0,2624.5,0.0
3911.0,0.0,0.0,135.0,154.0,81.0,nan,-0.51,-4.28,0.34,6.55,-95.09,127.1,2.02,-0.61,0.48,-0.62,0.64,-0.36,0.26,1.0,25.69,34.11,0.0746066,0.0,19.263387705627707,nan,-99.61440237979468,nan,0.0,0.0,9936.8643,0.0,0.0,2624.5,0.0
3931.0,0.0,0.0,109.0,140.0,111.0,nan,-0.97,-5.36,-2.09,6.55,-95.3,127.08,-2.74,0.51,-1.27,-0.62,0.64,-0.36,0.26,1.0,25.69,34.11,0.0746066,0.0,19.2633876948052,nan,-99.61440235278226,nan,0.0,0.0,9936.8643,0.0,0.0,2624.5,0.0
3954.0,26.0,42.0,89.0,146.0,110.0,nan,-1.22,-10.31,-0.83,6.44,-95.17,127.1,3.49,-0.33,-3.37,-0.62,0.64,-0.36,0.26,1.0,25.69,34.11,0.0746066,0.0,19.263387683982685,nan,-99.61440232576984,nan,0.0,0.0,9936.8643,0.0,0.0,2624.5,0.0
3981.0,32.0,38.0,136.0,140.0,97.0,nan,-1.34,-10.31,-0.22,6.41,-95.08,127.12,2.58,-0.33,-2.04,-0.62,0.64,-0.36,0.26,1.0,25.69,34.11,0.0746066,0.0,19.26338767316017,nan,-99.61440229875743,nan,0.0,0.0,9936.8643,0.0,0.0,2624.5,0.0
4004.0,28.0,31.0,75.0,137.0,125.0,nan,-1.35,-10.99,-1.03,6.47,-95.08,127.12,-0.08,-0.19,2.51,-0.62,0.64,-0.36,0.26,1.0,25.69,34.11,0.0746066,0.0,19.26338767316017,nan,-99.61440229875743,nan,0.0,0.0,9936.8643,0.0,0.0,0.0,0.0
4023.0,25.0,25.0,66.0,112.0,110.0,nan,-1.0,-8.66,-0.71,6.52,-95.15,127.11,-3.79,0.09,2.44,-0.62,0.64,-0.36,0.26,1.0,25.69,34.11,0.0746066,0.0,19.263387662337664,nan,-99.61440227174498,nan,0.0,0.0,9936.8643,0.0,0.0,2624.5,0.0
4046.0,18.0,15.0,62.0,111.0,112.0,nan,-1.2,-7.04,-1.21,6.59,-95.15,127.11,2.51,-0.47,2.23,-0.62,0.64,-0.36,0.26,1.0,25.69,34.11,0.0746066,0.0,19.263387651515156,nan,-99.61440224473256,nan,0.0,0.0,9936.8643,0.0,0.0,2624.5,0.0
4065.0,76.0,92.0,77.0,133.0,124.0,nan,-0.24,-5.16,-0.22,6.54,-95.1,127.12,1.25,-0.33,-0.71,-0.62,0.64,-0.36,0.26,1.0,25.69,34.11,0.0746066,0.0,19.263387640692645,nan,-99.61440221772014,nan,0.0,0.0,9936.8643,0.0,0.0,2624.5,0.0
4088.0,0.0,0.0,50.0,110.0,103.0,nan,-0.83,-5.09,-1.28,6.56,-95.23,127.11,-2.39,0.09,-0.29,-0.62,0.64,-0.36,0.26,1.0,25.69,34.11,0.0746066,0.0,19.26338762987013,nan,-99.61440219070772,nan,0.0,0.0,9936.8643,0.0,0.0,2624.5,0.0
4107.0,3.0,12.0,66.0,146.0,110.0,nan,-0.36,-6.65,-0.53,6.45,-95.16,127.13,3.07,-0.68,-3.79,-0.62,0.64,-0.36,0.26,1.0,25.69,34.11,0.0746066,0.0,19.26338762987013,nan,-99.61440219070772,nan,0.0,0.0,9936.8643,0.0,0.0,0.0,0.0
4130.0,28.0,32.0,52.0,134.0,111.0,nan,-0.59,-10.71,-1.18,6.27,-95.07,127.16,4.4,-0.68,-4.49,-0.62,0.64,-0.36,0.26,1.0,25.71,34.1,0.0746239,0.0,19.263387619047617,nan,-99.61440216369529,nan,0.0,0.0,9936.8643,0.0,0.0,2624.5,0.0
4163.0,27.0,32.0,82.0,161.0,112.0,nan,-0.91,-10.44,-0.14,6.26,-95.07,127.16,-2.18,0.09,0.13,-0.62,0.64,-0.36,0.26,1.0,25.71,34.1,0.0746239,0.0,19.26338760822511,nan,-99.61440213668287,nan,0.0,0.0,9936.8643,0.0,0.0,2624.5,0.0
4182.0,19.0,29.0,83.0,138.0,112.0,nan,-1.27,-9.72,-1.55,6.33,-95.15,127.16,-2.04,-0.12,3.0,-0.62,0.64,-0.36,0.26,1.0,25.71,34.1,0.0746239,0.0,19.2633875974026,nan,-99.61440210967045,nan,0.0,0.0,9936.8643,0.0,0.0,2624.5,0.0
4205.0,15.0,8.0,79.0,124.0,118.0,nan,-1.06,-7.5,-0.14,6.4,-95.13,127.16,-0.99,-0.26,3.0,-0.62,0.64,-0.36,0.26,1.0,25.71,34.1,0.0746239,0.0,19.263387586580084,nan,-99.614402082658,nan,0.0,0.0,9936.8643,0.0,0.0,2624.5,0.0
4225.0,47.0,48.0,136.0,152.0,111.0,nan,-1.08,-6.05,-1.21,6.47,-95.2,127.15,-0.43,-0.19,1.6,-0.62,0.64,-0.36,0.26,1.0,25.71,34.1,0.0746239,0.0,19.263387575757577,nan,-99.61440205564558,nan,0.0,0.0,9936.8643,0.0,0.0,2624.5,0.0
4247.0,5.0,14.0,109.0,159.0,116.0,nan,-0.72,-4.87,-0.23,6.51,-95.14,127.16,1.32,-0.4,0.83,-0.62,0.64,-0.36,0.26,1.0,25.71,34.1,0.0746239,0.0,19.26338756493507,nan,-99.61440202863317,nan,0.0,0.0,9936.8643,0.0,0.0,2624.5,0.0
4267.0,11.0,18.0,67.0,134.0,111.0,nan,-1.27,-5.96,-0.87,6.56,-95.18,127.16,-0.22,0.02,-0.15,-0.62,0.64,-0.36,0.26,1.0,25.71,34.1,0.0746239,0.0,19.263387554112555,nan,-99.61440200162075,nan,0.0,0.0,9936.8643,0.0,0.0,2624.5,0.0
4290.0,31.0,28.0,99.0,147.0,125.0,nan,-1.66,-9.13,-0.7,6.51,-95.09,127.18,3.77,-0.47,-2.18,-0.62,0.64,-0.36,0.26,1.0,25.71,34.1,0.0746239,0.0,19.263387554112555,nan,-99.61440200162075,nan,0.0,0.0,9936.8643,0.0,0.0,0.0,0.0
4316.0,28.0,30.0,136.0,133.0,110.0,nan,-1.66,-9.13,-0.7,6.51,-95.09,127.18,0.0,0.0,0.0,-0.62,0.64,-0.36,0.26,1.0,25.71,34.1,0.0746239,0.0,19.263387543290044,nan,-99.6144019746083,nan,0.0,0.0,9936.8643,0.0,0.0,2624.5,0.0
4334.0,20.0,31.0,98.0,139.0,123.0,nan,-1.05,-10.0,-0.63,6.46,-95.06,127.19,0.76,-0.47,0.9,-0.62,0.64,-0.36,0.26,1.0,25.71,34.1,0.0746239,0.0,19.263387532467537,nan,-99.61440194759588,nan,0.0,0.0,9936.8643,0.0,0.0,2624.5,0.0
4358.0,27.0,26.0,77.0,138.0,110.0,nan,-0.78,-8.72,-0.81,6.49,-95.14,127.19,-3.44,0.02,1.81,-0.62,0.64,-0.36,0.26,1.0,25.71,34.1,0.0746239,0.0,19.263387521645022,nan,-99.61440192058346,nan,0.0,0.0,9936.8643,0.0,0.0,2624.5,0.0
4381.0,19.0,25.0,68.0,123.0,112.0,nan,-1.02,-7.03,-1.02,6.53,-95.14,127.19,1.25,-0.47,1.39,-0.62,0.64,-0.36,0.26,1.0,25.71,34.1,0.0746239,0.0,19.263387510822515,nan,-99.61440189357103,nan,0.0,0.0,9936.8643,0.0,0.0,2624.5,0.0
4401.0,34.0,20.0,88.0,132.0,96.0,nan,-0.42,-5.88,-0.61,6.5,-95.12,127.2,1.46,-0.4,-0.43,-0.62,0.64,-0.36,0.26,1.0,25.71,34.1,0.0746239,0.0,19.2633875,nan,-99.61440186655861,nan,0.0,0.0,9936.8643,0.0,0.0,2624.5,0.0
4423.0,14.0,20.0,108.0,139.0,110.0,nan,-0.7,-5.88,-0.73,6.49,-95.15,127.2,-0.71,-0.05,-0.5,-0.62,0.64,-0.36,0.26,1.0,25.71,34.1,0.0746239,0.0,19.2633875,nan,-99.61440186655861,nan,0.0,0.0,9936.8643,0.0,0.0,0.0,0.0
4444.0,28.0,18.0,67.0,175.0,139.0,nan,-0.74,-6.8,-0.92,6.44,-95.13,127.21,2.3,-0.4,-2.25,-0.62,0.64,-0.36,0.26,1.0,25.71,34.1,0.0746239,0.0,19.26338748917749,nan,-99.61440183954619,nan,0.0,0.0,9936.8643,0.0,0.0,2624.5,0.0
4466.0,19.0,39.0,78.0,168.0,125.0,nan,-0.86,-8.51,-0.77,6.38,-95.12,127.22,0.55,-0.05,-2.95,-0.62,0.64,-0.36,0.26,1.0,25.71,34.1,0.0746239,0.0,19.263387478354982,nan,-99.61440181253377,nan,0.0,0.0,9936.8643,0.0,0.0,2624.5,0.0
4485.0,39.0,28.0,69.0,141.0,110.0,nan,-1.16,-9.47,-1.01,6.35,-95.08,127.23,2.37,-0.33,-1.83,-0.62,0.64,-0.36,0.26,1.0,25.71,34.1,0.0746239,0.0,19.263387467532468,nan,-99.61440178552132,nan,0.0,0.0,9936.8643,0.0,0.0,2624.5,0.0
4508.0,17.0,33.0,67.0,124.0,125.0,nan,-1.33,-8.83,-0.86,6.41,-95.14,127.23,-1.06,-0.19,1.88,-0.62,0.64,-0.36,0.26,1.0,25.71,34.1,0.0746239,0.0,19.26338745670996,nan,-99.6144017585089,nan,0.0,0.0,9936.8643,0.0,0.0,2624.5,0.0
4535.0,26.0,26.0,67.0,125.0,110.0,nan,-0.89,-7.72,-0.85,6.45,-95.2,127.22,-2.81,0.02,1.81,-0.62,0.64,-0.36,0.26,1.0,25.71,34.1,0.0746239,0.0,19.263387445887446,nan,-99.61440173149649,nan,0.0,0.0,9936.8643,0.0,0.0,2624.5,0.0
4558.0,30.0,14.0,53.0,124.0,112.0,nan,-0.91,-6.34,-0.7,6.47,-95.17,127.23,2.09,-0.54,0.2,-0.62,0.64,-0.36,0.26,1.0,25.71,34.1,0.0746239,0.0,19.263387435064935,nan,-99.61440170448404,nan,0.0,0.0,9936.8643,0.0,0.0,2624.3,0.0
4577.0,17.0,26.0,109.0,160.0,127.0,nan,-0.59,-5.87,-0.49,6.47,-95.19,127.23,-0.85,-0.12,0.41,-0.62,0.64,-0.36,0.26,1.0,25.71,34.1,0.0746239,0.0,19.263387435064935,nan,-99.61440170448404,nan,0.0,0.0,9936.8643,0.0,0.0,0.0,0.0
4600.0,17.0,31.0,88.0,148.0,126.0,nan,-0.98,-6.55,-0.87,6.47,-95.18,127.24,1.25,-0.33,-1.27,-0.62,0.64,-0.36,0.26,1.0,25.73,34.2,0.0746189,0.0,19.263387424242428,nan,-99.61440167747162,nan,0.0,0.0,9936.8643,0.0,0.0,2624.3,0.0
4622.0,31.0,26.0,77.0,138.0,124.0,nan,-0.88,-7.52,-0.81,6.42,-95.15,127.25,2.16,-0.33,-2.39,-0.62,0.64,-0.36,0.26,1.0,25.73,34.2,0.0746189,0.0,19.26338741341992,nan,-99.6144016504592,nan,0.0,0.0,9936.8643,0.0,0.0,2624.3,0.0
4645.0,33.0,33.0,77.0,141.0,110.0,nan,-0.97,-9.16,-0.63,6.37,-95.09,127.26,2.3,-0.47,-2.53,-0.62,0.64,-0.36,0.26,1.0,25.73,34.2,0.0746189,0.0,19.263387402597406,nan,-99.61440162344678,nan,0.0,0.0,9936.8643,0.0,0.0,2624.3,0.0
4664.0,30.0,15.0,78.0,153.0,111.0,nan,-0.99,-9.53,-1.08,6.34,-95.09,127.27,0.76,-0.26,-1.06,-0.62,0.64,-0.36,0.26,1.0,25.73,34.2,0.0746189,0.0,19.26338739177489,nan,-99.61440159643435,nan,0.0,0.0,9936.8643,0.0,0.0,2624.3,0.0
4687.0,28.0,27.0,77.0,137.0,111.0,nan,-1.04,-8.07,-1.03,6.41,-95.16,127.27,-1.97,-0.12,1.67,-0.62,0.64,-0.36,0.26,1.0,25.73,34.2,0.0746189,0.0,19.263387380952384,nan,-99.61440156942193,nan,0.0,0.0,9936.8643,0.0,0.0,2624.3,0.0
4714.0,26.0,24.0,66.0,137.0,110.0,nan,-1.04,-7.19,-0.82,6.44,-95.16,127.27,0.55,-0.26,0.97,-0.62,0.64,-0.36,0.26,1.0,25.73,34.2,0.0746189,0.0,19.263387370129873,nan,-99.61440154240951,nan,0.0,0.0,9936.8643,0.0,0.0,2624.3,0.0
4737.0,27.0,24.0,67.0,153.0,109.0,nan,-0.85,-6.07,-0.58,6.45,-95.14,127.28,0.97,-0.4,-0.22,-0.62,0.64,-0.36,0.26,1.0,25.73,34.2,0.0746189,0.0,19.26338735930736,nan,-99.61440151539706,nan,0.0,0.0,9936.8643,0.0,0.0,2624.3,0.0
4756.0,15.0,30.0,107.0,135.0,110.0,nan,-0.75,-6.37,-1.05,6.45,-95.22,127.27,-1.69,0.02,-0.57,-0.62,0.64,-0.36,0.26,1.0,25.73,34.2,0.0746189,0.0,19.26338735930736,nan,-99.61440151539706,nan,0.0,0.0,9936.8643,0.0,0.0,0.0,0.0
4779.0,19.0,20.0,147.0,145.0,111.0,nan,-1.22,-7.17,-0.76,6.44,-95.16,127.28,2.93,-0.47,-1.69,-0.62,0.64,-0.36,0.26,1.0,25.73,34.2,0.0746189,0.0,19.26338734848485,nan,-99.61440148838464,nan,0.0,0.0,9936.8643,0.0,0.0,2624.3,0.0
4799.0,20.0,38.0,82.0,155.0,112.0,nan,-0.72,-8.32,-0.76,6.38,-95.17,127.29,-0.5,-0.12,-2.67,-0.62,0.64,-0.36,0.26,1.0,25.73,34.2,0.0746189,0.0,19.263387337662337,nan,-99.61440146137222,nan,0.0,0.0,9936.8643,0.0,0.0,2624.3,0.0
4822.0,29.0,29.0,67.0,138.0,105.0,nan,-1.15,-9.35,-0.81,6.35,-95.11,127.31,3.14,-0.61,-1.55,-0.62,0.64,-0.36,0.26,1.0,25.73,34.2,0.0746189,0.0,19.26338732683983,nan,-99.6144014343598,nan,0.0,0.0,9936.8643,0.0,0.0,2624.3,0.0
4841.0,27.0,33.0,108.0,125.0,110.0,nan,-0.81,-9.34,-0.63,6.33,-95.13,127.31,-1.9,0.02,-0.29,-0.62,0.64,-0.36,0.26,1.0,25.73,34.2,0.0746189,0.0,19.26338731601732,nan,-99.61440140734736,nan,0.0,0.0,9936.8643,0.0,0.0,2624.3,0.0
4864.0,25.0,27.0,67.0,126.0,97.0,nan,-1.04,-8.58,-1.02,6.37,-95.17,127.31,-1.2,-0.12,1.46,-0.62,0.64,-0.36,0.26,1.0,25.73,34.2,0.0746189,0.0,19.26338731601732,nan,-99.61440140734736,nan,0.0,0.0,9936.8643,0.0,0.0,0.0,0.0
4884.0,25.0,25.0,107.0,129.0,111.0,nan,-0.91,-7.62,-0.73,6.4,-95.18,127.31,-0.15,-0.26,1.18,-0.62,0.64,-0.36,0.26,1.0,25.73,34.2,0.0746189,0.0,19.263387305194804,nan,-99.61440138033494,nan,0.0,0.0,9936.8643,0.0,0.0,2624.3,0.0
4907.0,27.0,23.0,108.0,153.0,124.0,nan,-0.83,-6.39,-1.01,6.41,-95.21,127.31,0.62,-0.19,0.34,-0.62,0.64,-0.36,0.26,1.0,25.73,34.2,0.0746189,0.0,19.263387294372297,nan,-99.61440135332252,nan,0.0,0.0,9936.8643,0.0,0.0,2624.3,0.0
4933.0,14.0,27.0,136.0,149.0,126.0,nan,-0.93,-7.0,-0.41,6.4,-95.17,127.32,0.83,-0.26,-1.06,-0.62,0.64,-0.36,0.26,1.0,25.73,34.2,0.0746189,0.0,19.263387283549783,nan,-99.61440132631009,nan,0.0,0.0,9936.8643,0.0,0.0,2624.3,0.0
4956.0,19.0,19.0,145.0,149.0,122.0,nan,-1.07,-7.63,-1.05,6.39,-95.16,127.33,1.67,-0.26,-1.34,-0.62,0.64,-0.36,0.26,1.0,25.73,34.2,0.0746189,0.0,19.263387272727275,nan,-99.61440129929767,nan,0.0,0.0,9936.8643,0.0,0.0,2624.3,0.0
4976.0,18.0,26.0,157.0,133.0,116.0,nan,-1.21,-8.95,-0.57,6.38,-95.1,127.34,2.09,-0.4,-1.2,-0.62,0.64,-0.36,0.26,1.0,25.73,34.2,0.0746189,0.0,19.263387261904764,nan,-99.61440127228525,nan,0.0,0.0,9936.8643,0.0,0.0,2624.3,0.0
4998.0,27.0,31.0,103.0,125.0,120.0,nan,-1.2,-8.94,-0.86,6.38,-95.11,127.34,-0.08,-0.12,-0.5,-0.62,0.64,-0.36,0.26,1.0,25.73,34.2,0.0746189,0.0,19.26338725108225,nan,-99.61440124527283,nan,0.0,0.0,9936.8643,0.0,0.0,2624.3,0.0
5018.0,37.0,26.0,89.0,138.0,125.0,nan,-0.89,-8.88,-0.97,6.39,-95.14,127.34,-0.85,-0.26,0.62,-0.62,0.64,-0.36,0.26,1.0,25.73,34.2,0.0746189,0.0,19.26338725108225,nan,-99.61440124527283,nan,0.0,0.0,9936.8643,0.0,0.0,0.0,0.0
5041.0,6.0,26.0,78.0,154.0,96.0,nan,-1.19,-7.83,-0.63,6.43,-95.13,127.35,-0.08,-0.26,1.04,-0.62,0.64,-0.36,0.26,1.0,25.73,34.2,0.0746189,0.0,19.263387240259743,nan,-99.61440121826038,nan,0.0,0.0,9936.8643,0.0,0.0,2624.3,0.0
5061.0,28.0,26.0,135.0,155.0,120.0,nan,-0.72,-7.17,-1.05,6.43,-95.19,127.34,-1.34,0.02,0.13,-0.62,0.64,-0.36,0.26,1.0,25.71,34.22,0.0746321,0.0,19.263387229437235,nan,-99.61440119124796,nan,0.0,0.0,9936.8643,0.0,0.0,2624.3,0.0
5086.0,18.0,28.0,78.0,137.0,75.0,nan,-0.7,-6.99,-0.93,6.41,-95.21,127.35,-2.25,0.16,-0.78,-0.62,0.64,-0.36,0.26,1.0,25.71,34.22,0.0746321,0.0,19.26338721861472,nan,-99.61440116423555,nan,0.0,0.0,9936.8643,0.0,0.0,2624.3,0.0
5112.0,31.0,28.0,157.0,152.0,90.0,nan,-0.92,-7.56,-0.84,6.38,-95.16,127.37,2.79,-0.61,-1.83,-0.62,0.64,-0.36,0.26,1.0,25.71,34.22,0.0746321,0.0,19.26338720779221,nan,-99.6144011372231,nan,0.0,0.0,9936.8643,0.0,0.0,2624.3,0.0
5135.0,18.0,34.0,102.0,133.0,111.0,nan,-0.88,-8.5,-0.71,6.34,-95.16,127.37,-0.29,-0.05,-1.69,-0.62,0.64,-0.36,0.26,1.0,25.71,34.22,0.0746321,0.0,19.263387196969695,nan,-99.61440111021068,nan,0.0,0.0,9936.8643,0.0,0.0,2624.3,0.0
5158.0,38.0,28.0,52.0,138.0,111.0,nan,-1.03,-8.92,-0.79,6.32,-95.14,127.38,1.18,-0.33,-0.78,-0.62,0.64,-0.36,0.26,1.0,25.71,34.22,0.0746321,0.0,19.263387186147188,nan,-99.61440108319826,nan,0.0,0.0,9936.8643,0.0,0.0,2624.3,0.0
5178.0,25.0,31.0,108.0,140.0,110.0,nan,-0.85,-8.83,-0.86,6.32,-95.15,127.38,-0.57,-0.26,0.13,-0.62,0.64,-0.36,0.26,1.0,25.71,34.22,0.0746321,0.0,19.263387186147188,nan,-99.61440108319826,nan,0.0,0.0,9936.8643,0.0,0.0,0.0,0.0
5197.0,30.0,27.0,77.0,136.0,115.0,nan,-1.14,-8.12,-0.79,6.36,-95.19,127.38,-1.41,0.02,1.11,-0.62,0.64,-0.36,0.26,1.0,25.71,34.22,0.0746321,0.0,19.263387175324674,nan,-99.61440105618584,nan,0.0,0.0,9936.8643,0.0,0.0,2624.3,0.0
5220.0,7.0,26.0,78.0,138.0,103.0,nan,-0.86,-7.43,-0.88,6.37,-95.19,127.38,0.76,-0.26,0.62,-0.62,0.64,-0.36,0.26,1.0,25.71,34.22,0.0746321,0.0,19.263387164502163,nan,-99.61440102917341,nan,0.0,0.0,9936.8643,0.0,0.0,2624.3,0.0
5242.0,31.0,26.0,69.0,136.0,111.0,nan,-0.98,-6.81,-0.66,6.39,-95.2,127.38,-0.64,-0.12,0.13,-0.62,0.64,-0.36,0.26,1.0,25.71,34.22,0.0746321,0.0,19.263387153679655,nan,-99.61440100216099,nan,0.0,0.0,9936.8643,0.0,0.0,2624.3,0.0
5262.0,32.0,30.0,51.0,137.0,110.0,nan,-1.04,-6.84,-0.83,6.42,-95.19,127.39,1.46,-0.4,0.13,-0.62,0.64,-0.36,0.26,1.0,25.71,34.22,0.0746321,0.0,19.263387142857148,nan,-99.61440097514857,nan,0.0,0.0,9936.8643,0.0,0.0,2624.3,0.0
5282.0,19.0,25.0,55.0,134.0,111.0,nan,-0.98,-7.48,-0.69,6.41,-95.19,127.39,0.06,-0.05,-1.06,-0.62,0.64,-0.36,0.26,1.0,25.71,34.22,0.0746321,0.0,19.263387132034634,nan,-99.61440094813612,nan,0.0,0.0,9936.8643,0.0,0.0,2624.3,0.0
5305.0,33.0,29.0,157.0,149.0,76.0,nan,-0.93,-8.91,-0.64,6.38,-95.14,127.41,1.04,-0.33,-1.06,-0.62,0.64,-0.36,0.26,1.0,25.71,34.22,0.0746321,0.0,19.26338712121212,nan,-99.6144009211237,nan,0.0,0.0,9936.8643,0.0,0.0,2624.3,0.0
5333.0,28.0,28.0,145.0,136.0,101.0,nan,-1.1,-8.46,-0.68,6.38,-95.13,127.41,0.06,-0.12,-0.5,-0.62,0.64,-0.36,0.26,1.0,25.71,34.22,0.0746321,0.0,19.26338712121212,nan,-99.6144009211237,nan,0.0,0.0,9936.8643,0.0,0.0,0.0,0.0
5354.0,26.0,26.0,40.0,139.0,110.0,nan,-0.84,-8.5,-1.07,6.38,-95.16,127.41,-0.5,-0.12,0.55,-0.62,0.64,-0.36,0.26,1.0,25.71,34.22,0.0746321,0.0,19.263387110389612,nan,-99.61440089411128,nan,0.0,0.0,9936.8643,0.0,0.0,2624.3,0.0
5374.0,25.0,27.0,83.0,154.0,103.0,nan,-0.89,-7.59,-0.52,6.39,-95.16,127.42,-0.36,-0.26,0.06,-0.62,0.64,-0.36,0.26,1.0,25.71,34.22,0.0746321,0.0,19.2633870995671,nan,-99.61440086709887,nan,0.0,0.0,9936.8643,0.0,0.0,2624.3,0.0
5397.0,16.0,22.0,82.0,136.0,118.0,nan,-0.76,-7.25,-1.25,6.39,-95.22,127.41,-0.85,-0.12,0.2,-0.62,0.64,-0.36,0.26,1.0,25.71,34.22,0.0746321,0.0,19.263387088744594,nan,-99.61440084008642,nan,0.0,0.0,9936.8643,0.0,0.0,2624.3,0.0
5417.0,28.0,26.0,39.0,133.0,110.0,nan,-0.92,-7.13,-0.26,6.38,-95.14,127.43,2.3,-0.61,-0.64,-0.62,0.64,-0.36,0.26,1.0,25.71,34.22,0.0746321,0.0,19.26338707792208,nan,-99.614400813074,nan,0.0,0.0,9936.8643,0.0,0.0,2624.3,0.0
5439.0,39.0,28.0,73.0,132.0,111.0,nan,-0.71,-7.38,-1.21,6.35,-95.22,127.43,-1.83,0.09,-1.2,-0.62,0.64,-0.36,0.26,1.0,25.71,34.22,0.0746321,0.0,19.263387067099565,nan,-99.61440078606158,nan,0.0,0.0,9936.8643,0.0,0.0,2624.3,0.0
5459.0,32.0,32.0,88.0,161.0,108.0,nan,-1.09,-7.89,-0.67,6.35,-95.16,127.44,2.79,-0.61,-0.78,-0.62,0.64,-0.36,0.26,1.0,25.71,34.22,0.0746321,0.0,19.263387067099565,nan,-99.61440078606158,nan,0.0,0.0,9936.8643,0.0,0.0,0.0,0.0
5482.0,31.0,30.0,77.0,142.0,104.0,nan,-1.07,-8.45,-1.07,6.34,-95.19,127.44,-0.43,-0.12,-0.22,-0.62,0.64,-0.36,0.26,1.0,25.71,34.22,0.0746321,0.0,19.263387056277057,nan,-99.61440075904915,nan,0.0,0.0,9936.8643,0.0,0.0,2624.3,0.0
5509.0,26.0,31.0,67.0,138.0,111.0,nan,-1.07,-8.45,-1.07,6.34,-95.19,127.44,0.0,0.0,0.0,-0.62,0.64,-0.36,0.26,1.0,25.71,34.22,0.0746321,0.0,19.26338704545455,nan,-99.61440073203673,nan,0.0,0.0,9936.8643,0.0,0.0,2624.3,0.0
5526.0,25.0,25.0,88.0,138.0,109.0,nan,-0.88,-7.81,-1.08,6.37,-95.22,127.45,-3.16,0.23,0.41,-0.62,0.64,-0.36,0.26,1.0,25.72,34.26,0.0746272,0.0,19.26338703463204,nan,-99.61440070502431,nan,0.0,0.0,9936.8643,0.0,0.0,2624.3,0.0
5556.0,25.0,27.0,66.0,159.0,110.0,nan,-1.13,-7.2,-0.79,6.4,-95.17,127.46,2.86,-0.61,0.27,-0.62,0.64,-0.36,0.26,1.0,25.72,34.26,0.0746272,0.0,19.263387023809525,nan,-99.61440067801189,nan,0.0,0.0,9936.8643,0.0,0.0,2623.9,0.0
5575.0,32.0,27.0,66.0,134.0,111.0,nan,-0.69,-7.42,-0.57,6.38,-95.2,127.46,-1.83,0.09,-0.5,-0.62,0.64,-0.36,0.26,1.0,25.72,34.26,0.0746272,0.0,19.26338701298701,nan,-99.61440065099944,nan,0.0,0.0,9936.8643,0.0,0.0,2623.9,0.0
5604.0,32.0,31.0,78.0,155.0,125.0,nan,-0.99,-7.17,-0.96,6.38,-95.19,127.46,1.74,-0.4,-0.92,-0.62,0.64,-0.36,0.26,1.0,25.72,34.26,0.0746272,0.0,19.263387002164503,nan,-99.61440062398702,nan,0.0,0.0,9936.8643,0.0,0.0,2623.9,0.0
5618.0,32.0,31.0,136.0,133.0,111.0,nan,-0.85,-8.05,-0.59,6.35,-95.16,127.47,0.97,-0.26,-1.06,-0.62,0.64,-0.36,0.26,1.0,25.72,34.26,0.0746272,0.0,19.263387002164503,nan,-99.61440062398702,nan,0.0,0.0,9936.8643,0.0,0.0,0.0,0.0
5641.0,28.0,33.0,87.0,138.0,109.0,nan,-0.98,-8.51,-0.99,6.33,-95.16,127.48,1.53,-0.4,-0.01,-0.62,0.64,-0.36,0.26,1.0,25.72,34.26,0.0746272,0.0,19.263386991341996,nan,-99.6144005969746,nan,0.0,0.0,9936.8643,0.0,0.0,2623.9,0.0
5667.0,26.0,31.0,77.0,139.0,111.0,nan,-0.88,-8.32,-0.35,6.32,-95.15,127.49,-1.06,-0.12,-0.29,-0.62,0.64,-0.36,0.26,1.0,25.72,34.26,0.0746272,0.0,19.263386980519485,nan,-99.61440056996216,nan,0.0,0.0,9936.8643,0.0,0.0,2623.9,0.0
5690.0,26.0,17.0,68.0,161.0,110.0,nan,-0.95,-7.76,-1.28,6.34,-95.19,127.49,-0.08,-0.12,0.69,-0.62,0.64,-0.36,0.26,1.0,25.72,34.26,0.0746272,0.0,19.26338696969697,nan,-99.61440054294974,nan,0.0,0.0,9936.8643,0.0,0.0,2623.9,0.0
5709.0,25.0,26.0,77.0,138.0,111.0,nan,-1.06,-7.64,-0.37,6.36,-95.16,127.49,0.55,-0.26,0.2,-0.62,0.64,-0.36,0.26,1.0,25.72,34.26,0.0746272,0.0,19.263386958874463,nan,-99.61440051593732,nan,0.0,0.0,9936.8643,0.0,0.0,2623.9,0.0
5732.0,38.0,24.0,56.0,133.0,76.0,nan,-0.95,-7.11,-1.02,6.37,-95.2,127.49,-0.36,-0.05,-0.22,-0.62,0.64,-0.36,0.26,1.0,25.72,34.26,0.0746272,0.0,19.26338694805195,nan,-99.6144004889249,nan,0.0,0.0,9936.8643,0.0,0.0,2623.9,0.0
5752.0,28.0,29.0,121.0,138.0,74.0,nan,-0.91,-7.52,-0.75,6.36,-95.18,127.5,1.18,-0.33,-0.5,-0.62,0.64,-0.36,0.26,1.0,25.72,34.26,0.0746272,0.0,19.263386937229438,nan,-99.61440046191247,nan,0.0,0.0,9936.8643,0.0,0.0,2623.9,0.0
5775.0,21.0,23.0,157.0,162.0,95.0,nan,-1.18,-7.65,-0.65,6.37,-95.16,127.51,0.83,-0.26,-0.92,-0.62,0.64,-0.36,0.26,1.0,25.72,34.26,0.0746272,0.0,19.263386937229438,nan,-99.61440046191247,nan,0.0,0.0,9936.8643,0.0,0.0,0.0,0.0
5794.0,38.0,32.0,152.0,133.0,74.0,nan,-0.76,-8.14,-1.04,6.34,-95.18,127.51,-0.15,-0.19,-0.78,-0.62,0.64,-0.36,0.26,1.0,25.72,34.26,0.0746272,0.0,19.26338692640693,nan,-99.61440043490005,nan,0.0,0.0,9936.8643,0.0,0.0,2623.9,0.0
5817.0,24.0,31.0,88.0,161.0,100.0,nan,-1.16,-8.3,-0.49,6.35,-95.12,127.52,2.23,-0.54,-0.57,-0.62,0.64,-0.36,0.26,1.0,25.72,34.26,0.0746272,0.0,19.263386915584416,nan,-99.61440040788763,nan,0.0,0.0,9936.8643,0.0,0.0,2623.9,0.0
5837.0,29.0,25.0,125.0,134.0,111.0,nan,-0.7,-8.22,-1.02,6.33,-95.18,127.52,-1.97,0.16,-0.29,-0.62,0.64,-0.36,0.26,1.0,25.72,34.26,0.0746272,0.0,19.26338690476191,nan,-99.61440038087518,nan,0.0,0.0,9936.8643,0.0,0.0,2623.9,0.0
5860.0,17.0,25.0,89.0,139.0,111.0,nan,-0.81,-7.72,-0.92,6.34,-95.19,127.52,-1.62,0.02,-0.29,-0.62,0.64,-0.36,0.26,1.0,25.72,34.26,0.0746272,0.0,19.263386893939394,nan,-99.61440035386276,nan,0.0,0.0,9936.8643,0.0,0.0,2623.9,0.0
