time,p1,p2,p3,p4,p5,termite,ax,ay,az,rx,ry,rz,roll,pitch,yaw,q1,q2,q3,q4,calibration,temperature,humidity,pressure,flag_rm,lat,lacoord,lon,locoord,capacitive,o_lat,o_lon,used_lat,used_lon,altitude,flag_lm
0.0,47.0,49.0,46.0,368.0,365.0,nan,-0.15,-7.91,-0.22,0.32,-91.72,300.73,1.32,-0.09,0.21,-0.34,0.36,0.62,-0.61,1.0,14.17,49.34,0.0964447,0.0,42.502075000000005,nan,-71.88523833333333,nan,-2.0,4230.1245,7153.1143,1.0,1.0,0.0,0.0
32.0,62.0,41.0,53.0,372.0,374.0,nan,0.02,-8.0,-0.14,0.32,-91.69,300.73,1.53,-0.16,-0.14,-0.34,0.36,0.62,-0.61,1.0,14.17,49.34,0.0964447,0.0,42.502075000000005,nan,-71.88523833333333,nan,-2.0,4230.1245,7153.1143,0.0,0.0,0.0,0.0
51.0,41.0,42.0,44.0,283.0,282.0,nan,-0.09,-7.94,-0.13,0.32,-91.65,300.73,1.46,-0.02,0.14,-0.34,0.36,0.62,-0.61,1.0,14.17,49.34,0.0964447,0.0,42.502075000000005,nan,-71.88523833333333,nan,-2.0,4230.1245,7153.1143,0.0,0.0,0.0,0.0
74.0,42.0,45.0,32.0,293.0,299.0,nan,-0.01,-7.98,-0.15,0.32,-91.62,300.73,1.04,-0.09,-0.07,-0.34,0.36,0.62,-0.61,1.0,14.17,49.34,0.0964447,0.0,42.502075000000005,nan,-71.88523833333333,nan,-2.0,4230.1245,7153.1143,0.0,0.0,0.0,0.0
93.0,54.0,50.0,41.0,286.0,291.0,nan,-0.07,-7.94,-0.15,0.32,-91.6,300.74,0.9,-0.09,0.0,-0.34,0.36,0.62,-0.61,1.0,14.17,49.34,0.0964447,0.0,42.502075000000005,nan,-71.88523833333333,nan,-2.0,4230.1245,7153.1143,0.0,0.0,0.0,0.0
116.0,42.0,36.0,34.0,250.0,258.0,nan,-0.03,-7.98,-0.15,0.32,-91.59,300.74,0.34,-0.09,-0.14,-0.34,0.36,0.62,-0.61,1.0,14.17,49.34,0.0964447,0.0,42.502075000000005,nan,-71.88523833333333,nan,-2.0,4230.1245,7153.1143,0.0,0.0,0.0,0.0
135.0,37.0,30.0,35.0,274.0,267.0,nan,-0.07,-7.95,-0.15,0.32,-91.57,300.74,0.55,-0.16,-0.07,-0.34,0.36,0.62,-0.61,1.0,14.17,49.34,0.0964447,0.0,42.502075000000005,nan,-71.88523833333333,nan,-2.0,4230.1245,7153.1143,0.0,0.0,0.0,0.0
158.0,53.0,44.0,38.0,247.0,251.0,nan,-0.05,-7.96,-0.19,0.31,-91.54,300.74,0.76,-0.02,-0.14,-0.34,0.36,0.62,-0.61,1.0,14.17,49.34,0.0964447,0.0,42.502075000000005,nan,-71.88523833333333,nan,-2.0,4230.1245,7153.1143,0.0,0.0,0.0,0.0
184.0,49.0,40.0,31.0,277.0,279.0,nan,-0.04,-7.96,-0.17,0.31,-91.52,300.75,0.9,-0.16,-0.07,-0.34,0.36,0.62,-0.61,1.0,14.17,49.34,0.0964447,0.0,42.502075000000005,nan,-71.88523833333333,nan,-2.0,4230.1245,7153.1143,0.0,0.0,0.0,0.0
207.0,53.0,37.0,32.0,228.0,241.0,nan,-0.06,-7.97,-0.11,0.31,-91.5,300.75,0.69,-0.09,-0.14,-0.34,0.36,0.62,-0.61,1.0,14.17,49.34,0.0964447,0.0,42.502075000000005,nan,-71.88523833333333,nan,-2.0,4230.1245,7153.1143,0.0,0.0,0.0,0.0
227.0,43.0,37.0,27.0,256.0,262.0,nan,-0.05,-7.97,-0.16,0.31,-91.48,300.75,0.55,-0.09,-0.07,-0.34,0.36,0.62,-0.61,1.0,14.17,49.34,0.0964447,0.0,42.502075000000005,nan,-71.88523833333333,nan,-2.0,4230.1245,7153.1143,0.0,0.0,0.0,0.0
249.0,39.0,32.0,47.0,230.0,225.0,nan,-0.04,-7.97,-0.15,0.31,-91.47,300.75,0.48,-0.02,-0.14,-0.34,0.36,0.62,-0.61,1.0,14.17,49.34,0.0964447,0.0,42.502075000000005,nan,-71.88523833333333,nan,-2.0,4230.1245,7153.1143,0.0,0.0,0.0,0.0
269.0,34.0,43.0,37.0,230.0,224.0,nan,-0.05,-7.97,-0.19,0.3,-91.46,300.75,0.62,-0.09,-0.07,-0.34,0.36,0.62,-0.61,1.0,14.17,49.34,0.0964447,0.0,42.502075000000005,nan,-71.88523833333333,nan,-2.0,4230.1245,7153.1143,0.0,0.0,0.0,0.0
291.0,46.0,31.0,32.0,222.0,217.0,nan,-0.05,-7.97,-0.13,0.3,-91.44,300.76,0.76,-0.16,-0.07,-0.34,0.36,0.62,-0.61,1.0,14.17,49.34,0.0964447,0.0,42.502075000000005,nan,-71.88523833333333,nan,-2.0,4230.1245,7153.1143,0.0,0.0,0.0,0.0
311.0,43.0,31.0,37.0,214.0,219.0,nan,-0.05,-7.97,-0.13,0.3,-91.42,300.76,0.69,-0.09,-0.14,-0.34,0.36,0.62,-0.61,1.0,14.17,49.34,0.0964447,0.0,42.502075000000005,nan,-71.88523833333333,nan,-2.0,4230.1245,7153.1143,0.0,0.0,0.0,0.0
334.0,31.0,36.0,36.0,213.0,221.0,nan,-0.05,-7.96,-0.13,0.3,-91.4,300.76,0.62,-0.09,-0.07,-0.34,0.36,0.62,-0.61,1.0,14.17,49.34,0.0964447,0.0,42.502075000000005,nan,-71.88523833333333,nan,-2.0,4230.1245,7153.1143,0.0,0.0,0.0,0.0
353.0,33.0,33.0,38.0,214.0,218.0,nan,-0.06,-7.96,-0.15,0.3,-91.38,300.76,0.76,-0.16,-0.14,-0.34,0.36,0.62,-0.61,1.0,14.17,49.34,0.0964447,0.0,42.502075000000005,nan,-71.88523833333333,nan,-2.0,4230.1245,7153.1143,0.0,0.0,0.0,0.0
376.0,45.0,28.0,30.0,219.0,213.0,nan,-0.05,-7.97,-0.15,0.3,-91.35,300.77,0.76,-0.02,-0.07,-0.34,0.36,0.62,-0.61,1.0,14.17,49.34,0.0964447,0.0,42.502075000000005,nan,-71.88523833333333,nan,-2.0,4230.1245,7153.1143,0.0,0.0,0.0,0.0
402.0,44.0,54.0,31.0,221.0,214.0,nan,-0.05,-7.97,-0.15,0.3,-91.35,300.77,0.0,0.0,0.0,-0.34,0.36,0.62,-0.61,1.0,14.17,49.34,0.0964447,0.0,42.502075000000005,nan,-71.88523833333333,nan,-2.0,4230.1245,7153.1143,0.0,0.0,0.0,0.0
420.0,37.0,39.0,50.0,219.0,220.0,nan,-0.05,-7.97,-0.16,0.3,-91.3,300.77,1.39,-0.02,-0.07,-0.34,0.35,0.62,-0.61,1.0,14.17,49.34,0.0964447,0.0,42.502075000000005,nan,-71.88523833333333,nan,-2.0,4230.1245,7153.1143,0.0,0.0,0.0,0.0
444.0,48.0,36.0,36.0,217.0,221.0,nan,-0.05,-7.96,-0.13,0.29,-91.25,300.77,1.95,-0.09,-0.07,-0.34,0.35,0.62,-0.61,1.0,14.17,49.34,0.0964447,0.0,42.502075000000005,nan,-71.88523833333333,nan,-2.0,4230.1245,7153.1143,0.0,0.0,0.0,0.0
467.0,45.0,45.0,42.0,217.0,220.0,nan,-0.05,-7.97,-0.13,0.3,-91.21,300.77,2.02,-0.09,0.0,-0.34,0.35,0.62,-0.61,1.0,14.16,49.39,0.0964426,0.0,42.502075000000005,nan,-71.88523833333333,nan,-2.0,4230.1245,7153.1143,0.0,0.0,0.0,0.0
488.0,51.0,40.0,38.0,216.0,215.0,nan,-0.04,-7.97,-0.1,0.29,-91.17,300.77,1.95,-0.02,-0.07,-0.34,0.35,0.62,-0.61,1.0,14.16,49.39,0.0964426,0.0,42.502075000000005,nan,-71.88523833333333,nan,-2.0,4230.1245,7153.1143,0.0,0.0,0.0,0.0
511.0,39.0,36.0,36.0,212.0,224.0,nan,-0.05,-7.97,-0.14,0.3,-91.13,300.77,1.74,-0.02,0.0,-0.34,0.35,0.62,-0.61,1.0,14.16,49.39,0.0964426,0.0,42.502075000000005,nan,-71.88523833333333,nan,-2.0,4230.1245,7153.1143,0.0,0.0,0.0,0.0
530.0,35.0,30.0,41.0,217.0,217.0,nan,-0.05,-7.97,-0.11,0.29,-91.08,300.78,2.09,-0.16,-0.07,-0.34,0.35,0.62,-0.61,1.0,14.16,49.39,0.0964426,0.0,42.502075000000005,nan,-71.88523833333333,nan,-2.0,4230.1245,7153.1143,0.0,0.0,0.0,0.0
553.0,35.0,40.0,30.0,217.0,217.0,nan,-0.05,-7.96,-0.11,0.29,-91.04,300.78,2.09,-0.16,-0.07,-0.34,0.35,0.62,-0.61,1.0,14.16,49.39,0.0964426,0.0,42.502075000000005,nan,-71.88523833333333,nan,-2.0,4230.1245,7153.1143,0.0,0.0,0.0,0.0
573.0,25.0,27.0,34.0,219.0,224.0,nan,-0.06,-7.97,-0.04,0.3,-90.99,300.78,1.88,-0.16,0.0,-0.34,0.35,0.62,-0.61,1.0,14.16,49.39,0.0964426,0.0,42.502075000000005,nan,-71.88523833333333,nan,-2.0,4230.1245,7153.1143,0.0,0.0,0.0,0.0
595.0,49.0,29.0,36.0,228.0,223.0,nan,-0.05,-7.97,-0.06,0.29,-90.95,300.79,0.76,-0.16,-0.21,-0.34,0.35,0.62,-0.61,1.0,14.16,49.39,0.0964426,0.0,42.502075000000005,nan,-71.88523833333333,nan,-2.0,4230.1245,7153.1143,0.0,0.0,0.0,0.0
622.0,41.0,45.0,34.0,223.0,219.0,nan,-0.04,-7.96,-0.05,0.29,-90.94,300.79,0.06,-0.09,-0.14,-0.34,0.35,0.62,-0.61,1.0,14.16,49.39,0.0964426,0.0,42.502075000000005,nan,-71.88523833333333,nan,-2.0,4230.1245,7153.1143,0.0,0.0,0.0,0.0
644.0,43.0,37.0,37.0,217.0,221.0,nan,-0.05,-7.96,-0.01,0.29,-90.94,300.79,-0.43,-0.02,-0.14,-0.34,0.35,0.62,-0.61,1.0,14.16,49.39,0.0964426,0.0,42.502075000000005,nan,-71.88523833333333,nan,-2.0,4230.1245,7153.1143,0.0,0.0,0.0,0.0
664.0,32.0,44.0,41.0,210.0,210.0,nan,-0.06,-7.97,-0.05,0.28,-90.96,300.79,-1.06,-0.02,-0.21,-0.34,0.35,0.62,-0.61,1.0,14.16,49.39,0.0964426,0.0,42.502075000000005,nan,-71.88523833333333,nan,-2.0,4230.1245,7153.1143,0.0,0.0,0.0,0.0
687.0,41.0,24.0,36.0,214.0,219.0,nan,-0.05,-7.97,-0.1,0.28,-90.98,300.79,-1.34,-0.02,-0.21,-0.34,0.35,0.62,-0.61,1.0,14.16,49.39,0.0964426,0.0,42.502075000000005,nan,-71.88523833333333,nan,-2.0,4230.1245,7153.1143,0.0,0.0,0.0,0.0
706.0,35.0,34.0,32.0,210.0,220.0,nan,-0.05,-7.97,-0.09,0.28,-91.0,300.79,-1.13,0.05,-0.14,-0.34,0.35,0.62,-0.61,1.0,14.16,49.39,0.0964426,0.0,42.502075000000005,nan,-71.88523833333333,nan,-2.0,4230.1245,7153.1143,0.0,0.0,0.0,0.0
729.0,42.0,36.0,36.0,211.0,218.0,nan,-0.04,-7.97,-0.15,0.27,-91.02,300.79,-1.06,0.05,-0.14,-0.34,0.35,0.62,-0.61,1.0,14.16,49.39,0.0964426,0.0,42.502075000000005,nan,-71.88523833333333,nan,-2.0,4230.1245,7153.1143,0.0,0.0,0.0,0.0
748.0,31.0,41.0,45.0,213.0,223.0,nan,-0.04,-7.96,-0.15,0.27,-91.04,300.79,-0.71,-0.02,-0.14,-0.34,0.35,0.62,-0.61,1.0,14.16,49.39,0.0964426,0.0,42.502075000000005,nan,-71.88523833333333,nan,-2.0,4230.1245,7153.1143,0.0,0.0,0.0,0.0
771.0,32.0,32.0,31.0,218.0,212.0,nan,-0.04,-7.97,-0.11,0.27,-91.04,300.79,-0.5,-0.09,-0.07,-0.34,0.35,0.62,-0.61,1.0,14.16,49.39,0.0964426,0.0,42.502075000000005,nan,-71.88523833333333,nan,-2.0,4230.1245,7153.1143,0.0,0.0,0.0,0.0
791.0,30.0,31.0,34.0,221.0,216.0,nan,-0.06,-7.96,-0.1,0.27,-91.05,300.79,-0.5,0.05,-0.07,-0.34,0.35,0.62,-0.61,1.0,14.16,49.39,0.0964426,0.0,42.502075000000005,nan,-71.88523833333333,nan,-2.0,4230.1245,7153.1143,0.0,0.0,0.0,0.0
813.0,31.0,34.0,34.0,221.0,218.0,nan,-0.06,-7.97,-0.13,0.27,-91.06,300.8,0.06,-0.09,0.0,-0.34,0.35,0.62,-0.61,1.0,14.16,49.39,0.0964426,0.0,42.502075000000005,nan,-71.88523833333333,nan,-2.0,4230.1245,7153.1143,0.0,0.0,0.0,0.0
839.0,42.0,36.0,43.0,220.0,223.0,nan,-0.04,-7.98,-0.1,0.27,-91.05,300.8,0.06,-0.09,-0.14,-0.34,0.35,0.62,-0.61,1.0,14.16,49.39,0.0964426,0.0,42.502075000000005,nan,-71.88523833333333,nan,-2.0,4230.1245,7153.1143,0.0,0.0,0.0,0.0
862.0,39.0,44.0,39.0,221.0,222.0,nan,-0.05,-7.96,-0.11,0.27,-91.05,300.8,0.13,-0.02,-0.07,-0.34,0.35,0.62,-0.61,1.0,14.16,49.39,0.0964426,0.0,42.502075000000005,nan,-71.88523833333333,nan,-2.0,4230.1245,7153.1143,0.0,0.0,0.0,0.0
881.0,38.0,32.0,49.0,226.0,215.0,nan,-0.04,-7.97,-0.08,0.27,-91.05,300.8,-0.29,-0.09,-0.07,-0.34,0.35,0.62,-0.61,1.0,14.16,49.39,0.0964426,0.0,42.502075000000005,nan,-71.88523833333333,nan,-2.0,4230.1245,7153.1143,0.0,0.0,0.0,0.0
904.0,32.0,36.0,33.0,216.0,221.0,nan,-0.06,-7.95,-0.07,0.27,-91.06,300.8,-1.06,0.05,-0.14,-0.34,0.35,0.62,-0.61,1.0,14.16,49.39,0.0964426,0.0,42.502075000000005,nan,-71.88523833333333,nan,-2.0,4230.1245,7153.1143,0.0,0.0,0.0,0.0
924.0,49.0,40.0,44.0,216.0,214.0,nan,-0.04,-7.97,-0.11,0.26,-91.09,300.8,-1.48,-0.02,-0.21,-0.34,0.35,0.62,-0.61,1.0,14.14,49.43,0.0964356,0.0,42.502075000000005,nan,-71.88523833333333,nan,-2.0,4230.1245,7153.1143,0.0,0.0,0.0,0.0
949.0,32.0,47.0,27.0,211.0,218.0,nan,-0.05,-7.96,-0.16,0.26,-91.13,300.8,-1.76,0.05,-0.07,-0.34,0.35,0.62,-0.61,1.0,14.14,49.43,0.0964356,0.0,42.502075000000005,nan,-71.88523833333333,nan,-2.0,4230.1245,7153.1143,0.0,0.0,0.0,0.0
968.0,39.0,29.0,32.0,214.0,217.0,nan,-0.04,-7.97,-0.14,0.26,-91.16,300.8,-1.76,-0.09,-0.21,-0.34,0.35,0.62,-0.61,1.0,14.14,49.43,0.0964356,0.0,42.502075000000005,nan,-71.88523833333333,nan,-2.0,4230.1245,7153.1143,0.0,0.0,0.0,0.0
991.0,34.0,28.0,42.0,216.0,219.0,nan,-0.06,-7.97,-0.14,0.26,-91.2,300.8,-1.9,0.12,-0.07,-0.34,0.35,0.62,-0.61,1.0,14.14,49.43,0.0964356,0.0,42.502075000000005,nan,-71.88523833333333,nan,-2.0,4230.1245,7153.1143,0.0,0.0,0.0,0.0
1010.0,40.0,32.0,28.0,219.0,215.0,nan,-0.05,-7.98,-0.13,0.26,-91.23,300.8,-1.62,0.05,-0.14,-0.34,0.35,0.62,-0.61,1.0,14.14,49.43,0.0964356,0.0,42.502075000000005,nan,-71.88523833333333,nan,-2.0,4230.1245,7153.1143,0.0,0.0,0.0,0.0
1033.0,38.0,38.0,41.0,218.0,221.0,nan,-0.05,-7.97,-0.19,0.26,-91.27,300.8,-0.64,-0.09,0.0,-0.34,0.35,0.62,-0.61,1.0,14.14,49.43,0.0964356,0.0,42.502075000000005,nan,-71.88523833333333,nan,-2.0,4230.1245,7153.1143,0.0,0.0,0.0,0.0
1059.0,36.0,38.0,39.0,220.0,215.0,nan,-0.05,-7.97,-0.17,0.26,-91.27,300.8,-0.08,-0.09,0.0,-0.34,0.35,0.62,-0.61,1.0,14.14,49.43,0.0964356,0.0,42.502075000000005,nan,-71.88523833333333,nan,-2.0,4230.1245,7153.1143,0.0,0.0,0.0,0.0
1082.0,34.0,35.0,51.0,215.0,218.0,nan,-0.05,-7.97,-0.15,0.26,-91.26,300.8,0.2,-0.09,0.0,-0.34,0.35,0.62,-0.61,1.0,14.14,49.43,0.0964356,0.0,42.502075000000005,nan,-71.88523833333333,nan,-2.0,4230.1245,7153.1143,0.0,0.0,0.0,0.0
1102.0,44.0,33.0,36.0,215.0,221.0,nan,-0.05,-7.97,-0.16,0.26,-91.26,300.8,0.2,-0.02,0.0,-0.34,0.35,0.62,-0.61,1.0,14.14,49.43,0.0964356,0.0,42.502075000000005,nan,-71.88523833333333,nan,-2.0,4230.1245,7153.1143,0.0,0.0,0.0,0.0
1124.0,39.0,46.0,42.0,221.0,221.0,nan,-0.03,-7.97,-0.13,0.26,-91.25,300.8,0.2,-0.09,0.0,-0.34,0.35,0.62,-0.61,1.0,14.14,49.43,0.0964356,0.0,42.502075000000005,nan,-71.88523833333333,nan,-2.0,4230.1245,7153.1143,0.0,0.0,0.0,0.0
1144.0,43.0,44.0,31.0,219.0,214.0,nan,-0.05,-7.97,-0.15,0.26,-91.25,300.81,0.06,-0.09,-0.07,-0.34,0.35,0.62,-0.61,1.0,14.14,49.43,0.0964356,0.0,42.502075000000005,nan,-71.88523833333333,nan,-2.0,4230.1245,7153.1143,0.0,0.0,0.0,0.0
1166.0,44.0,41.0,45.0,217.0,219.0,nan,-0.04,-7.97,-0.13,0.26,-91.25,300.81,-0.22,-0.02,0.0,-0.34,0.35,0.62,-0.61,1.0,14.14,49.43,0.0964356,0.0,42.502075000000005,nan,-71.88523833333333,nan,-2.0,4230.1245,7153.1143,0.0,0.0,0.0,0.0
1186.0,46.0,37.0,45.0,220.0,215.0,nan,-0.05,-7.96,-0.15,0.26,-91.25,300.81,-0.22,-0.02,-0.07,-0.34,0.35,0.62,-0.61,1.0,14.14,49.43,0.0964356,0.0,42.502075000000005,nan,-71.88523833333333,nan,-2.0,4230.1245,7153.1143,0.0,0.0,0.0,0.0
1209.0,47.0,35.0,38.0,213.0,216.0,nan,-0.06,-7.97,-0.14,0.26,-91.25,300.81,-0.29,-0.02,-0.07,-0.34,0.35,0.62,-0.61,1.0,14.14,49.43,0.0964356,0.0,42.502075000000005,nan,-71.88523833333333,nan,-2.0,4230.1245,7153.1143,0.0,0.0,0.0,0.0
1229.0,34.0,37.0,33.0,217.0,215.0,nan,-0.07,-7.96,-0.14,0.26,-91.26,300.81,-0.43,-0.16,-0.07,-0.34,0.35,0.62,-0.61,1.0,14.14,49.43,0.0964356,0.0,42.502075000000005,nan,-71.88523833333333,nan,-2.0,4230.1245,7153.1143,0.0,0.0,0.0,0.0
1251.0,38.0,26.0,32.0,212.0,217.0,nan,-0.05,-7.97,-0.16,0.26,-91.28,300.81,-0.64,-0.09,-0.07,-0.34,0.35,0.62,-0.61,1.0,14.14,49.43,0.0964356,0.0,42.502075000000005,nan,-71.88523833333333,nan,-2.0,4230.1245,7153.1143,0.0,0.0,0.0,0.0
1277.0,45.0,36.0,35.0,212.0,216.0,nan,-0.04,-7.97,-0.18,0.26,-91.29,300.81,-0.5,-0.02,0.0,-0.34,0.35,0.62,-0.61,1.0,14.14,49.43,0.0964356,0.0,42.502075000000005,nan,-71.88523833333333,nan,-2.0,4230.1245,7153.1143,0.0,0.0,0.0,0.0
1300.0,37.0,49.0,35.0,219.0,219.0,nan,-0.05,-7.97,-0.16,0.26,-91.3,300.82,-0.22,-0.09,0.07,-0.34,0.35,0.62,-0.61,1.0,14.14,49.43,0.0964356,0.0,42.502075000000005,nan,-71.88523833333333,nan,-2.0,4230.1245,7153.1143,0.0,0.0,0.0,0.0
1319.0,31.0,31.0,44.0,216.0,213.0,nan,-0.05,-7.98,-0.16,0.26,-91.3,300.82,-0.08,-0.02,-0.07,-0.34,0.35,0.62,-0.61,1.0,14.14,49.43,0.0964356,0.0,42.502075000000005,nan,-71.88523833333333,nan,-2.0,4230.1245,7153.1143,0.0,0.0,0.0,0.0
1342.0,42.0,45.0,37.0,223.0,220.0,nan,-0.06,-7.97,-0.15,0.26,-91.29,300.82,-0.01,-0.09,0.0,-0.34,0.35,0.62,-0.61,1.0,14.14,49.43,0.0964356,0.0,42.502075000000005,nan,-71.88523833333333,nan,-2.0,4230.1245,7153.1143,0.0,0.0,0.0,0.0
1362.0,45.0,38.0,31.0,218.0,215.0,nan,-0.05,-7.96,-0.16,0.26,-91.3,300.82,-0.15,-0.09,0.0,-0.34,0.35,0.62,-0.61,1.0,14.14,49.43,0.0964356,0.0,42.502075000000005,nan,-71.88523833333333,nan,-2.0,4230.1245,7153.1143,0.0,0.0,0.0,0.0
1384.0,44.0,46.0,43.0,220.0,216.0,nan,-0.06,-7.96,-0.17,0.27,-91.3,300.82,-0.01,-0.09,0.0,-0.34,0.35,0.62,-0.61,1.0,14.17,49.54,0.0964396,0.0,42.502075000000005,nan,-71.88523833333333,nan,-2.0,4230.1245,7153.1143,0.0,0.0,0.0,0.0
1406.0,44.0,54.0,35.0,220.0,216.0,nan,-0.05,-7.97,-0.16,0.27,-91.29,300.82,-0.01,-0.09,0.0,-0.34,0.35,0.62,-0.61,1.0,14.17,49.54,0.0964396,0.0,42.502075000000005,nan,-71.88523833333333,nan,-2.0,4230.1245,7153.1143,0.0,0.0,0.0,0.0
1429.0,40.0,52.0,31.0,211.0,210.0,nan,-0.07,-7.97,-0.16,0.27,-91.28,300.83,0.34,-0.09,0.07,-0.34,0.35,0.62,-0.61,1.0,14.17,49.54,0.0964396,0.0,42.502075000000005,nan,-71.88523833333333,nan,-2.0,4230.1245,7153.1143,0.0,0.0,0.0,0.0
1455.0,32.0,25.0,41.0,216.0,218.0,nan,-0.07,-7.96,-0.16,0.27,-91.27,300.83,0.41,-0.09,0.0,-0.34,0.35,0.62,-0.61,1.0,14.17,49.54,0.0964396,0.0,42.502075000000005,nan,-71.88523833333333,nan,-2.0,4230.1245,7153.1143,0.0,0.0,0.0,0.0
1478.0,35.0,44.0,29.0,230.0,221.0,nan,-0.04,-7.96,-0.15,0.28,-91.26,300.83,0.48,-0.09,0.07,-0.34,0.35,0.62,-0.61,1.0,14.17,49.54,0.0964396,0.0,42.502075000000005,nan,-71.88523833333333,nan,-2.0,4230.1245,7153.1143,0.0,0.0,0.0,0.0
1497.0,35.0,43.0,30.0,216.0,218.0,nan,-0.04,-7.96,-0.14,0.28,-91.25,300.83,0.48,-0.09,0.0,-0.34,0.35,0.62,-0.61,1.0,14.17,49.54,0.0964396,0.0,42.502075000000005,nan,-71.88523833333333,nan,-2.0,4230.1245,7153.1143,0.0,0.0,0.0,0.0
1520.0,47.0,32.0,30.0,220.0,213.0,nan,-0.04,-7.97,-0.14,0.28,-91.24,300.83,0.27,-0.09,0.0,-0.34,0.35,0.62,-0.61,1.0,14.17,49.54,0.0964396,0.0,42.502075000000005,nan,-71.88523833333333,nan,-2.0,4230.1245,7153.1143,0.0,0.0,0.0,0.0
1539.0,45.0,57.0,41.0,219.0,232.0,nan,-0.04,-7.98,-0.16,0.28,-91.23,300.84,0.34,-0.09,0.0,-0.34,0.35,0.62,-0.61,1.0,14.17,49.54,0.0964396,0.0,42.502075000000005,nan,-71.88523833333333,nan,-2.0,4230.1245,7153.1143,0.0,0.0,0.0,0.0
1562.0,43.0,42.0,26.0,230.0,221.0,nan,-0.04,-7.97,-0.15,0.28,-91.22,300.84,0.34,-0.09,0.0,-0.34,0.35,0.62,-0.61,1.0,14.17,49.54,0.0964396,0.0,42.502075000000005,nan,-71.88523833333333,nan,-2.0,4230.1245,7153.1143,0.0,0.0,0.0,0.0
1581.0,44.0,47.0,31.0,215.0,221.0,nan,-0.04,-7.97,-0.16,0.28,-91.21,300.84,0.41,-0.16,0.07,-0.34,0.35,0.62,-0.61,1.0,14.17,49.54,0.0964396,0.0,42.502075000000005,nan,-71.88523833333333,nan,-2.0,4230.1245,7153.1143,0.0,0.0,0.0,0.0
1604.0,42.0,37.0,38.0,220.0,228.0,nan,-0.03,-7.97,-0.17,0.28,-91.2,300.84,0.48,-0.09,-0.07,-0.34,0.35,0.62,-0.61,1.0,14.17,49.54,0.0964396,0.0,42.502075000000005,nan,-71.88523833333333,nan,-2.0,4230.1245,7153.1143,0.0,0.0,0.0,0.0
1624.0,36.0,45.0,30.0,228.0,227.0,nan,-0.04,-7.97,-0.14,0.28,-91.19,300.84,0.55,-0.09,0.0,-0.34,0.35,0.62,-0.61,1.0,14.17,49.54,0.0964396,0.0,42.502075000000005,nan,-71.88523833333333,nan,-2.0,4230.1245,7153.1143,0.0,0.0,0.0,0.0
1646.0,38.0,34.0,46.0,217.0,223.0,nan,-0.04,-7.97,-0.13,0.28,-91.17,300.85,0.48,-0.09,-0.07,-0.34,0.35,0.62,-0.61,1.0,14.17,49.54,0.0964396,0.0,42.502075000000005,nan,-71.88523833333333,nan,-2.0,4230.1245,7153.1143,0.0,0.0,0.0,0.0
1672.0,31.0,42.0,49.0,212.0,219.0,nan,-0.04,-7.97,-0.13,0.28,-91.17,300.85,0.0,0.0,0.0,-0.34,0.35,0.62,-0.61,1.0,14.17,49.54,0.0964396,0.0,42.502075000000005,nan,-71.88523833333333,nan,-2.0,4230.1245,7153.1143,0.0,0.0,0.0,0.0
1690.0,45.0,45.0,34.0,217.0,231.0,nan,-0.06,-7.97,-0.14,0.28,-91.15,300.85,0.27,-0.09,0.0,-0.34,0.35,0.62,-0.61,1.0,14.17,49.54,0.0964396,0.0,42.502075000000005,nan,-71.88523833333333,nan,-2.0,4230.1245,7153.1143,0.0,0.0,0.0,0.0
1714.0,42.0,37.0,35.0,211.0,220.0,nan,-0.05,-7.98,-0.16,0.28,-91.14,300.85,0.41,-0.09,0.0,-0.34,0.35,0.62,-0.61,1.0,14.17,49.54,0.0964396,0.0,42.502075000000005,nan,-71.88523833333333,nan,-2.0,4230.1245,7153.1143,0.0,0.0,0.0,0.0
1737.0,34.0,42.0,37.0,219.0,224.0,nan,-0.07,-7.97,-0.14,0.28,-91.13,300.86,0.48,-0.09,-0.07,-0.34,0.35,0.62,-0.61,1.0,14.17,49.54,0.0964396,0.0,42.502075000000005,nan,-71.88523833333333,nan,-2.0,4230.1245,7153.1143,0.0,0.0,0.0,0.0
1757.0,29.0,51.0,48.0,219.0,221.0,nan,-0.09,-7.96,-0.14,0.29,-91.12,300.86,0.48,-0.16,0.0,-0.34,0.35,0.62,-0.61,1.0,14.17,49.54,0.0964396,0.0,42.502075000000005,nan,-71.88523833333333,nan,-2.0,4230.1245,7153.1143,0.0,0.0,0.0,0.0
1779.0,43.0,34.0,34.0,210.0,217.0,nan,-0.1,-7.97,-0.13,0.29,-91.11,300.86,0.41,-0.09,0.0,-0.34,0.35,0.62,-0.61,1.0,14.17,49.54,0.0964396,0.0,42.502075000000005,nan,-71.88523833333333,nan,-2.0,4230.1245,7153.1143,0.0,0.0,0.0,0.0
1799.0,37.0,38.0,31.0,216.0,221.0,nan,-0.12,-7.96,-0.13,0.3,-91.1,300.86,0.34,-0.09,0.0,-0.34,0.35,0.62,-0.61,1.0,14.17,49.54,0.0964396,0.0,42.502075000000005,nan,-71.88523833333333,nan,-2.0,4230.1245,7153.1143,0.0,0.0,0.0,0.0
1822.0,42.0,41.0,35.0,213.0,213.0,nan,-0.07,-7.98,-0.14,0.3,-91.1,300.86,0.2,-0.09,0.07,-0.34,0.35,0.62,-0.61,1.0,14.17,49.54,0.0964396,0.0,42.502075000000005,nan,-71.88523833333333,nan,-2.0,4230.1245,7153.1143,0.0,0.0,0.0,0.0
1841.0,46.0,43.0,32.0,217.0,218.0,nan,-0.05,-7.96,-0.12,0.3,-91.09,300.87,0.06,-0.16,0.0,-0.34,0.35,0.62,-0.61,1.0,14.16,49.58,0.0964426,0.0,42.502075000000005,nan,-71.88523833333333,nan,-2.0,4230.1245,7153.1143,0.0,0.0,0.0,0.0
1866.0,34.0,49.0,45.0,216.0,213.0,nan,0.01,-7.96,-0.09,0.3,-91.1,300.87,-0.36,-0.09,0.0,-0.34,0.35,0.62,-0.61,1.0,14.16,49.58,0.0964426,0.0,42.502075000000005,nan,-71.88523833333333,nan,-2.0,4230.1245,7153.1143,0.0,0.0,0.0,0.0
1892.0,35.0,40.0,31.0,193.0,195.0,nan,0.08,-7.96,-0.12,0.28,-91.12,300.87,-1.13,-0.02,-0.14,-0.34,0.35,0.62,-0.61,1.0,14.16,49.58,0.0964426,0.0,42.502075000000005,nan,-71.88523833333333,nan,-2.0,4230.1245,7153.1143,0.0,0.0,0.0,0.0
1915.0,42.0,24.0,28.0,188.0,186.0,nan,0.02,-7.96,-0.12,0.28,-91.14,300.87,-1.13,-0.09,-0.07,-0.34,0.35,0.62,-0.61,1.0,14.16,49.58,0.0964426,0.0,42.502075000000005,nan,-71.88523833333333,nan,-2.0,4230.1245,7153.1143,0.0,0.0,0.0,0.0
1934.0,31.0,18.0,33.0,179.0,184.0,nan,0.04,-7.99,-0.1,0.27,-91.16,300.87,-1.2,0.05,-0.21,-0.34,0.35,0.62,-0.61,1.0,14.16,49.58,0.0964426,0.0,42.502075000000005,nan,-71.88523833333333,nan,-2.0,4230.1245,7153.1143,0.0,0.0,0.0,0.0
1957.0,30.0,22.0,34.0,165.0,157.0,nan,0.39,-7.99,0.05,0.23,-91.17,300.87,-1.62,-0.02,-0.35,-0.34,0.35,0.62,-0.61,1.0,14.16,49.58,0.0964426,0.0,42.502075000000005,nan,-71.88523833333333,nan,-2.0,4230.1245,7153.1143,0.0,0.0,0.0,0.0
1977.0,32.0,17.0,40.0,164.0,159.0,nan,3.63,-8.12,0.2,-0.02,-91.24,300.87,-4.28,0.26,-0.98,-0.35,0.35,0.62,-0.61,1.0,14.16,49.58,0.0964426,0.0,42.502075000000005,nan,-71.88523833333333,nan,-2.0,4230.1245,7153.1143,0.0,0.0,0.0,0.0
2000.0,36.0,26.0,61.0,188.0,194.0,nan,6.1,-8.07,0.25,-0.33,-91.37,300.84,-7.71,1.59,1.82,-0.35,0.35,0.62,-0.61,1.0,14.16,49.58,0.0964426,0.0,42.502075000000005,nan,-71.88523833333333,nan,-2.0,4230.1245,7153.1143,0.0,0.0,0.0,0.0
2018.0,32.0,77.0,19.0,250.0,256.0,nan,7.37,-8.88,-0.2,-0.66,-91.38,300.72,-0.99,5.93,2.1,-0.35,0.35,0.62,-0.61,1.0,14.16,49.58,0.0964426,0.0,42.502075000000005,nan,-71.88523833333333,nan,-2.0,4230.1245,7153.1143,0.0,0.0,0.0,0.0
2041.0,69.0,84.0,0.0,336.0,328.0,nan,7.35,-8.97,0.28,-0.95,-91.31,300.52,2.23,9.78,3.43,-0.35,0.35,0.62,-0.6,1.0,14.16,49.58,0.0964426,0.0,42.502075000000005,nan,-71.88523833333333,nan,-2.0,4230.1245,7153.1143,0.0,0.0,0.0,0.0
2060.0,38.0,0.0,0.0,44.0,57.0,nan,5.78,-8.35,-0.34,-1.19,-91.29,300.26,1.04,12.86,4.27,-0.35,0.35,0.62,-0.6,1.0,14.16,49.58,0.0964426,0.0,42.502075000000005,nan,-71.88523833333333,nan,-2.0,4230.1245,7153.1143,0.0,0.0,0.0,0.0
2086.0,59.0,49.0,0.0,230.0,244.0,nan,4.12,-7.96,-0.92,-1.55,-91.22,299.55,2.09,19.3,6.09,-0.36,0.35,0.62,-0.6,1.0,14.16,49.58,0.0964426,0.0,42.502075000000005,nan,-71.88523833333333,nan,-2.0,4230.1245,7153.1143,0.0,0.0,0.0,0.0
2110.0,45.0,40.0,0.0,125.0,149.0,nan,4.12,-7.96,-0.92,-1.55,-91.22,299.55,0.0,0.0,0.0,-0.36,0.35,0.62,-0.6,1.0,14.16,49.58,0.0964426,0.0,42.502075000000005,nan,-71.88523833333333,nan,-2.0,4230.1245,7153.1143,0.0,0.0,0.0,0.0
2128.0,49.0,69.0,22.0,192.0,198.0,nan,2.82,-7.31,-0.63,-1.74,-91.06,298.7,5.45,21.4,5.39,-0.37,0.35,0.62,-0.6,1.0,14.16,49.58,0.0964426,0.0,42.502075000000005,nan,-71.88523833333333,nan,-2.0,4230.1245,7153.1143,0.0,0.0,0.0,0.0
2152.0,43.0,41.0,17.0,150.0,158.0,nan,1.32,-7.88,-1.04,-1.69,-91.08,298.26,1.32,21.89,6.51,-0.37,0.36,0.62,-0.6,1.0,14.16,49.58,0.0964426,0.0,42.502075000000005,nan,-71.88523833333333,nan,-2.0,4230.1245,7153.1143,0.0,0.0,0.0,0.0
2175.0,36.0,8.0,26.0,102.0,103.0,nan,0.71,-7.83,-0.45,-1.66,-91.15,297.83,-2.67,21.47,3.5,-0.37,0.36,0.62,-0.59,1.0,14.16,49.58,0.0964426,0.0,42.502075000000005,nan,-71.88523833333333,nan,-2.0,4230.1245,7153.1143,0.0,0.0,0.0,0.0
2194.0,49.0,30.0,26.0,165.0,162.0,nan,0.51,-8.07,-1.07,-1.6,-91.26,297.41,-2.95,21.33,4.48,-0.37,0.36,0.62,-0.59,1.0,14.16,49.58,0.0964426,0.0,42.502075000000005,nan,-71.88523833333333,nan,-2.0,4230.1245,7153.1143,0.0,0.0,0.0,0.0
2217.0,45.0,30.0,16.0,220.0,211.0,nan,0.28,-7.83,-1.45,-1.53,-91.37,296.97,-1.62,21.96,4.48,-0.37,0.37,0.61,-0.59,1.0,14.16,49.58,0.0964426,0.0,42.502075000000005,nan,-71.88523833333333,nan,-2.0,4230.1245,7153.1143,0.0,0.0,0.0,0.0
2236.0,44.0,40.0,28.0,186.0,184.0,nan,0.63,-8.16,-1.88,-1.49,-91.52,296.52,-2.32,22.24,3.78,-0.37,0.37,0.61,-0.59,1.0,14.16,49.58,0.0964426,0.0,42.502075000000005,nan,-71.88523833333333,nan,-2.0,4230.1245,7153.1143,0.0,0.0,0.0,0.0
2259.0,28.0,0.0,0.0,85.0,87.0,nan,0.73,-9.42,-1.47,-1.54,-91.62,296.09,-1.83,21.68,-0.49,-0.38,0.37,0.61,-0.59,1.0,14.16,49.58,0.0964426,0.0,42.502075000000005,nan,-71.88523833333333,nan,-2.0,4230.1245,7153.1143,0.0,0.0,0.0,0.0
2279.0,37.0,33.0,40.0,183.0,178.0,nan,0.45,-7.31,-1.29,-1.56,-91.82,295.67,-6.59,20.98,0.77,-0.38,0.37,0.61,-0.58,1.0,14.16,49.58,0.0964426,0.0,42.502075000000005,nan,-71.88523833333333,nan,-2.0,4230.1245,7153.1143,0.0,0.0,0.0,0.0
2301.0,26.0,0.0,22.0,64.0,56.0,nan,-0.6,-7.38,-0.26,-1.68,-91.75,294.84,1.6,21.33,-3.01,-0.38,0.38,0.61,-0.58,1.0,14.12,49.59,0.0964406,0.0,42.502075000000005,nan,-71.88523833333333,nan,-2.0,4230.1245,7153.1143,0.0,0.0,0.0,0.0
2333.0,0.0,0.0,0.0,0.0,24.0,nan,-0.62,-7.06,-0.46,-1.61,-91.77,294.42,-0.71,21.05,0.91,-0.39,0.38,0.61,-0.58,1.0,14.12,49.59,0.0964406,0.0,42.502075000000005,nan,-71.88523833333333,nan,-2.0,4230.1245,7153.1143,0.0,0.0,0.0,0.0
2353.0,24.0,0.0,10.0,71.0,91.0,nan,-0.9,-7.47,-0.63,-1.46,-91.84,293.98,-2.46,21.68,3.78,-0.39,0.38,0.61,-0.58,1.0,14.12,49.59,0.0964406,0.0,42.502075000000005,nan,-71.88523833333333,nan,-2.0,4230.1245,7153.1143,0.0,0.0,0.0,0.0
2376.0,38.0,0.0,40.0,135.0,141.0,nan,-0.77,-8.33,-2.31,-1.36,-91.99,293.54,-0.99,22.17,2.52,-0.39,0.39,0.61,-0.58,1.0,14.12,49.59,0.0964406,0.0,42.502075000000005,nan,-71.88523833333333,nan,-2.0,4230.1245,7153.1143,0.0,0.0,0.0,0.0
2395.0,43.0,11.0,38.0,153.0,156.0,nan,-1.43,-6.07,-5.92,-1.32,-92.67,293.1,-15.69,22.8,-2.38,-0.39,0.39,0.61,-0.57,1.0,14.12,49.59,0.0964406,0.0,42.502075000000005,nan,-71.88523833333333,nan,-2.0,4230.1245,7153.1143,0.0,0.0,0.0,0.0
2418.0,27.0,24.0,35.0,169.0,161.0,nan,-0.74,-6.76,1.94,-1.33,-92.45,292.65,1.39,22.38,-2.94,-0.39,0.39,0.61,-0.57,1.0,14.12,49.59,0.0964406,0.0,42.502075000000005,nan,-71.88523833333333,nan,-2.0,4230.1245,7153.1143,0.0,0.0,0.0,0.0
2437.0,29.0,31.0,40.0,134.0,148.0,nan,-1.51,-5.59,-0.62,-1.14,-92.47,292.2,0.13,22.1,2.45,-0.39,0.4,0.6,-0.57,1.0,14.12,49.59,0.0964406,0.0,42.502075000000005,nan,-71.88523833333333,nan,-2.0,4230.1245,7153.1143,0.0,0.0,0.0,0.0
2460.0,72.0,82.0,71.0,303.0,310.0,nan,-1.57,-7.1,0.42,-0.72,-92.64,291.35,-2.11,20.84,5.6,-0.39,0.4,0.6,-0.57,1.0,14.12,49.59,0.0964406,0.0,42.502075000000005,nan,-71.88523833333333,nan,-2.0,4230.1245,7153.1143,0.0,0.0,0.0,0.0
2486.0,148.0,185.0,94.0,585.0,579.0,nan,-1.57,-7.1,0.42,-0.72,-92.64,291.35,0.0,0.0,0.0,-0.39,0.4,0.6,-0.57,1.0,14.12,49.59,0.0964406,0.0,42.502075000000005,nan,-71.88523833333333,nan,-2.0,4230.1245,7153.1143,0.0,0.0,0.0,0.0
2504.0,76.0,183.0,98.0,428.0,457.0,nan,1.61,-8.33,0.04,-0.91,-92.72,290.62,-5.68,16.92,-11.83,-0.4,0.41,0.6,-0.56,1.0,14.12,49.59,0.0964406,0.0,42.502075000000005,nan,-71.88523833333333,nan,-2.0,4230.1245,7153.1143,0.0,0.0,0.0,0.0
2529.0,34.0,123.0,31.0,306.0,307.0,nan,-2.1,-13.39,3.22,-0.83,-92.47,290.3,4.26,16.01,0.07,-0.4,0.41,0.6,-0.56,1.0,14.12,49.59,0.0964406,0.0,42.502075000000005,nan,-71.88523833333333,nan,-2.0,4230.1245,7153.1143,0.0,0.0,0.0,0.0
2551.0,55.0,143.0,55.0,526.0,487.0,nan,0.27,-8.6,-0.44,-0.96,-92.58,290.1,-5.4,10.41,-5.25,-0.4,0.41,0.6,-0.56,1.0,14.12,49.59,0.0964406,0.0,42.502075000000005,nan,-71.88523833333333,nan,-2.0,4230.1245,7153.1143,0.0,0.0,0.0,0.0
2571.0,69.0,150.0,59.0,464.0,446.0,nan,-1.84,-6.64,-1.42,-0.77,-92.86,289.93,-9.53,8.45,1.68,-0.4,0.41,0.6,-0.56,1.0,14.12,49.59,0.0964406,0.0,42.502075000000005,nan,-71.88523833333333,nan,-2.0,4230.1245,7153.1143,0.0,0.0,0.0,0.0
2594.0,68.0,126.0,52.0,439.0,433.0,nan,-0.04,-7.76,-0.64,-0.77,-92.97,289.8,-4.84,6.35,-0.21,-0.4,0.41,0.6,-0.56,1.0,14.12,49.59,0.0964406,0.0,42.502075000000005,nan,-71.88523833333333,nan,-2.0,4230.1245,7153.1143,0.0,0.0,0.0,0.0
2613.0,21.0,82.0,17.0,307.0,249.0,nan,0.81,-8.31,0.54,-0.83,-93.04,289.69,-6.73,5.72,-0.14,-0.4,0.41,0.6,-0.56,1.0,14.12,49.59,0.0964406,0.0,42.502075000000005,nan,-71.88523833333333,nan,-2.0,4230.1245,7153.1143,0.0,0.0,0.0,0.0
2636.0,31.0,98.0,87.0,309.0,307.0,nan,-0.98,2.54,-1.43,-0.66,-93.59,289.54,-13.24,7.61,-0.07,-0.4,0.42,0.6,-0.56,1.0,14.12,49.59,0.0964406,0.0,42.502075000000005,nan,-71.88523833333333,nan,-2.0,4230.1245,7153.1143,0.0,0.0,0.0,0.0
2656.0,40.0,125.0,80.0,344.0,361.0,nan,0.13,-10.56,0.65,-0.72,-93.37,289.46,7.34,3.9,-2.38,-0.4,0.42,0.6,-0.56,1.0,14.12,49.59,0.0964406,0.0,42.502075000000005,nan,-71.88523833333333,nan,-2.0,4230.1245,7153.1143,0.0,0.0,0.0,0.0
2678.0,49.0,105.0,43.0,267.0,277.0,nan,-3.14,-7.59,-3.85,-0.43,-93.6,289.38,-0.85,4.11,4.55,-0.4,0.42,0.6,-0.56,1.0,14.12,49.59,0.0964406,0.0,42.502075000000005,nan,-71.88523833333333,nan,-2.0,4230.1245,7153.1143,0.0,0.0,0.0,0.0
2697.0,31.0,96.0,41.0,203.0,222.0,nan,-0.84,-8.34,-1.7,-0.43,-93.71,289.33,-1.34,2.5,-3.22,-0.4,0.42,0.6,-0.56,1.0,14.12,49.59,0.0964406,0.0,42.502075000000005,nan,-71.88523833333333,nan,-2.0,4230.1245,7153.1143,0.0,0.0,0.0,0.0
2720.0,36.0,58.0,37.0,157.0,164.0,nan,-3.77,-8.16,0.7,0.05,-93.62,289.25,-0.36,1.52,-1.19,-0.4,0.42,0.59,-0.56,1.0,14.12,49.59,0.0964406,0.0,42.502075000000005,nan,-71.88523833333333,nan,-2.0,4230.1245,7153.1143,0.0,0.0,0.0,0.0
2746.0,39.0,46.0,44.0,102.0,124.0,nan,-5.07,-7.79,-0.66,0.37,-93.72,289.22,-4.35,1.1,0.56,-0.39,0.42,0.59,-0.56,1.0,14.12,49.59,0.0964406,0.0,42.502075000000005,nan,-71.88523833333333,nan,-2.0,4230.1245,7153.1143,0.0,0.0,0.0,0.0
2769.0,38.0,31.0,31.0,101.0,119.0,nan,-6.06,-7.9,-0.57,0.7,-93.84,289.22,-5.96,-0.02,-0.91,-0.39,0.43,0.59,-0.56,1.0,14.13,49.68,0.0964497,0.0,42.502075000000005,nan,-71.88523833333333,nan,-2.0,4230.1245,7153.1143,0.0,0.0,0.0,0.0
2791.0,37.0,24.0,42.0,100.0,101.0,nan,-7.2,-7.68,-0.57,1.08,-93.96,289.23,-5.82,-0.44,-0.07,-0.39,0.43,0.59,-0.56,1.0,14.13,49.68,0.0964497,0.0,42.502075000000005,nan,-71.88523833333333,nan,-2.0,4230.1245,7153.1143,0.0,0.0,0.0,0.0
2814.0,33.0,33.0,46.0,100.0,101.0,nan,-7.85,-7.76,-0.79,1.47,-94.07,289.24,-5.12,-0.51,-0.56,-0.39,0.43,0.59,-0.56,1.0,14.13,49.68,0.0964497,0.0,42.502075000000005,nan,-71.88523833333333,nan,-2.0,4230.1245,7153.1143,0.0,0.0,0.0,0.0
2833.0,31.0,29.0,33.0,126.0,132.0,nan,1.34,-8.87,-0.62,1.15,-94.11,289.27,-1.9,-0.58,-11.27,-0.39,0.43,0.59,-0.56,1.0,14.13,49.68,0.0964497,0.0,42.502075000000005,nan,-71.88523833333333,nan,-2.0,4230.1245,7153.1143,0.0,0.0,0.0,0.0
2856.0,23.0,31.0,47.0,145.0,153.0,nan,-0.49,-7.61,-0.83,1.26,-94.19,289.25,-2.81,0.61,4.13,-0.39,0.43,0.59,-0.56,1.0,14.13,49.68,0.0964497,0.0,42.502075000000005,nan,-71.88523833333333,nan,-2.0,4230.1245,7153.1143,0.0,0.0,0.0,0.0
2875.0,35.0,36.0,32.0,167.0,157.0,nan,-0.17,-7.98,-0.49,1.22,-94.17,289.26,0.41,-0.23,-1.96,-0.39,0.43,0.59,-0.56,1.0,14.13,49.68,0.0964497,0.0,42.502075000000005,nan,-71.88523833333333,nan,-2.0,4230.1245,7153.1143,0.0,0.0,0.0,0.0
2898.0,29.0,44.0,37.0,167.0,164.0,nan,-0.85,-7.74,-0.51,1.27,-94.1,289.26,1.95,-0.09,0.07,-0.39,0.43,0.59,-0.56,1.0,14.13,49.68,0.0964497,0.0,42.502075000000005,nan,-71.88523833333333,nan,-2.0,4230.1245,7153.1143,0.0,0.0,0.0,0.0
2924.0,36.0,27.0,49.0,156.0,159.0,nan,-0.75,-7.95,-0.44,1.32,-94.06,289.26,1.39,-0.09,0.0,-0.39,0.43,0.59,-0.56,1.0,14.13,49.68,0.0964497,0.0,42.502075000000005,nan,-71.88523833333333,nan,-2.0,4230.1245,7153.1143,0.0,0.0,0.0,0.0
2947.0,31.0,37.0,45.0,159.0,167.0,nan,-0.22,-7.87,-0.41,1.31,-94.03,289.26,0.9,-0.16,-0.28,-0.39,0.43,0.59,-0.56,1.0,14.13,49.68,0.0964497,0.0,42.502075000000005,nan,-71.88523833333333,nan,-2.0,4230.1245,7153.1143,0.0,0.0,0.0,0.0
2966.0,25.0,34.0,41.0,170.0,160.0,nan,1.69,-8.07,-0.33,1.17,-94.01,289.27,0.41,-0.02,-0.77,-0.39,0.43,0.59,-0.56,1.0,14.13,49.68,0.0964497,0.0,42.502075000000005,nan,-71.88523833333333,nan,-2.0,4230.1245,7153.1143,0.0,0.0,0.0,0.0
2989.0,38.0,36.0,43.0,155.0,163.0,nan,-0.1,-7.87,-0.47,1.18,-94.0,289.27,0.34,-0.02,0.63,-0.39,0.43,0.59,-0.56,1.0,14.13,49.68,0.0964497,0.0,42.502075000000005,nan,-71.88523833333333,nan,-2.0,4230.1245,7153.1143,0.0,0.0,0.0,0.0
3008.0,31.0,33.0,22.0,158.0,156.0,nan,0.1,-8.03,-0.4,1.15,-93.97,289.27,0.97,-0.16,-0.21,-0.39,0.43,0.59,-0.56,1.0,14.13,49.68,0.0964497,0.0,42.502075000000005,nan,-71.88523833333333,nan,-2.0,4230.1245,7153.1143,0.0,0.0,0.0,0.0
3031.0,49.0,24.0,36.0,161.0,164.0,nan,-0.13,-7.92,-0.49,1.15,-93.93,289.27,1.39,-0.09,0.14,-0.39,0.43,0.59,-0.56,1.0,14.13,49.68,0.0964497,0.0,42.502075000000005,nan,-71.88523833333333,nan,-2.0,4230.1245,7153.1143,0.0,0.0,0.0,0.0
3050.0,30.0,41.0,27.0,162.0,162.0,nan,0.01,-7.99,-0.43,1.14,-93.89,289.27,1.67,-0.09,0.0,-0.39,0.43,0.59,-0.56,1.0,14.13,49.68,0.0964497,0.0,42.502075000000005,nan,-71.88523833333333,nan,-2.0,4230.1245,7153.1143,0.0,0.0,0.0,0.0
3073.0,38.0,51.0,46.0,160.0,161.0,nan,-0.11,-7.9,-0.4,1.14,-93.85,289.28,1.6,-0.16,0.07,-0.39,0.43,0.59,-0.56,1.0,14.13,49.68,0.0964497,0.0,42.502075000000005,nan,-71.88523833333333,nan,-2.0,4230.1245,7153.1143,0.0,0.0,0.0,0.0
3092.0,33.0,31.0,43.0,160.0,161.0,nan,-0.02,-7.96,-0.4,1.13,-93.81,289.28,1.46,-0.09,0.0,-0.39,0.43,0.59,-0.56,1.0,14.13,49.68,0.0964497,0.0,42.502075000000005,nan,-71.88523833333333,nan,-2.0,4230.1245,7153.1143,0.0,0.0,0.0,0.0
3115.0,25.0,36.0,44.0,144.0,159.0,nan,-0.05,-7.91,-0.51,1.13,-93.77,289.28,1.88,-0.16,0.14,-0.39,0.43,0.59,-0.56,1.0,14.13,49.68,0.0964497,0.0,42.502075000000005,nan,-71.88523833333333,nan,-2.0,4230.1245,7153.1143,0.0,0.0,0.0,0.0
3135.0,33.0,41.0,48.0,151.0,163.0,nan,0.01,-7.92,-0.52,1.12,-93.69,289.29,3.84,-0.23,0.14,-0.39,0.43,0.59,-0.56,1.0,14.13,49.68,0.0964497,0.0,42.502075000000005,nan,-71.88523833333333,nan,-2.0,4230.1245,7153.1143,0.0,0.0,0.0,0.0
3157.0,46.0,34.0,48.0,163.0,164.0,nan,0.69,-7.98,-0.23,1.05,-93.47,289.29,4.54,-0.23,-0.14,-0.39,0.43,0.59,-0.56,1.0,14.13,49.68,0.0964497,0.0,42.502075000000005,nan,-71.88523833333333,nan,-2.0,4230.1245,7153.1143,0.0,0.0,0.0,0.0
3184.0,41.0,24.0,36.0,163.0,163.0,nan,3.41,-8.02,-0.14,0.8,-93.38,289.29,3.42,0.05,-0.84,-0.39,0.42,0.59,-0.56,1.0,14.13,49.68,0.0964497,0.0,42.502075000000005,nan,-71.88523833333333,nan,-2.0,4230.1245,7153.1143,0.0,0.0,0.0,0.0
3206.0,43.0,29.0,44.0,179.0,182.0,nan,5.55,-8.15,0.05,0.46,-93.33,289.29,0.97,0.47,-0.56,-0.39,0.42,0.59,-0.56,1.0,14.13,49.68,0.0964497,0.0,42.502075000000005,nan,-71.88523833333333,nan,-2.0,4230.1245,7153.1143,0.0,0.0,0.0,0.0
3226.0,46.0,41.0,26.0,164.0,161.0,nan,6.3,-8.18,-0.33,0.09,-93.33,289.26,-0.5,1.45,-0.42,-0.4,0.42,0.59,-0.56,1.0,14.12,49.78,0.0964395,0.0,42.502075000000005,nan,-71.88523833333333,nan,-2.0,4230.1245,7153.1143,0.0,0.0,0.0,0.0
3251.0,32.0,21.0,27.0,96.0,103.0,nan,5.78,-8.04,-0.35,-0.25,-93.32,289.2,0.06,2.64,-0.21,-0.4,0.42,0.59,-0.56,1.0,14.12,49.78,0.0964395,0.0,42.502075000000005,nan,-71.88523833333333,nan,-2.0,4230.1245,7153.1143,0.0,0.0,0.0,0.0
3270.0,37.0,22.0,28.0,84.0,109.0,nan,5.39,-8.03,-0.31,-0.58,-93.29,289.13,0.9,3.69,-0.35,-0.4,0.42,0.59,-0.56,1.0,14.12,49.78,0.0964395,0.0,42.502075000000005,nan,-71.88523833333333,nan,-2.0,4230.1245,7153.1143,0.0,0.0,0.0,0.0
3293.0,22.0,0.0,25.0,93.0,98.0,nan,5.07,-8.0,-0.12,-0.89,-93.23,289.03,1.88,4.95,-0.14,-0.4,0.42,0.59,-0.56,1.0,14.12,49.78,0.0964395,0.0,42.502075000000005,nan,-71.88523833333333,nan,-2.0,4230.1245,7153.1143,0.0,0.0,0.0,0.0
3313.0,20.0,0.0,22.0,95.0,106.0,nan,4.51,-8.12,-0.47,-1.17,-93.18,288.92,2.72,5.86,-0.35,-0.41,0.42,0.6,-0.55,1.0,14.12,49.78,0.0964395,0.0,42.502075000000005,nan,-71.88523833333333,nan,-2.0,4230.1245,7153.1143,0.0,0.0,0.0,0.0
3335.0,35.0,0.0,11.0,110.0,102.0,nan,3.74,-8.11,-0.52,-1.64,-93.01,288.63,5.24,7.54,0.42,-0.41,0.42,0.59,-0.55,1.0,14.12,49.78,0.0964395,0.0,42.502075000000005,nan,-71.88523833333333,nan,-2.0,4230.1245,7153.1143,0.0,0.0,0.0,0.0
3361.0,37.0,0.0,0.0,101.0,100.0,nan,3.2,-8.06,-1.01,-1.83,-92.95,288.46,4.96,8.38,0.7,-0.41,0.41,0.59,-0.55,1.0,14.12,49.78,0.0964395,0.0,42.502075000000005,nan,-71.88523833333333,nan,-2.0,4230.1245,7153.1143,0.0,0.0,0.0,0.0
3384.0,42.0,0.0,0.0,84.0,101.0,nan,2.61,-7.85,-0.68,-1.99,-92.86,288.27,4.75,9.29,0.56,-0.41,0.41,0.59,-0.55,1.0,14.12,49.78,0.0964395,0.0,42.502075000000005,nan,-71.88523833333333,nan,-2.0,4230.1245,7153.1143,0.0,0.0,0.0,0.0
3403.0,65.0,0.0,0.0,160.0,169.0,nan,1.7,-7.91,-0.87,-2.08,-92.84,288.08,2.65,9.85,1.05,-0.42,0.42,0.59,-0.55,1.0,14.12,49.78,0.0964395,0.0,42.502075000000005,nan,-71.88523833333333,nan,-2.0,4230.1245,7153.1143,0.0,0.0,0.0,0.0
3426.0,76.0,37.0,4.0,311.0,313.0,nan,1.51,-8.02,-1.07,-2.17,-92.87,287.88,0.48,9.78,0.56,-0.42,0.42,0.59,-0.55,1.0,14.12,49.78,0.0964395,0.0,42.502075000000005,nan,-71.88523833333333,nan,-2.0,4230.1245,7153.1143,0.0,0.0,0.0,0.0
3445.0,71.0,79.0,48.0,382.0,363.0,nan,0.62,-7.77,-1.34,-2.19,-92.98,287.67,-2.39,10.83,0.77,-0.42,0.42,0.59,-0.55,1.0,14.12,49.78,0.0964395,0.0,42.502075000000005,nan,-71.88523833333333,nan,-2.0,4230.1245,7153.1143,0.0,0.0,0.0,0.0
3468.0,26.0,69.0,35.0,278.0,283.0,nan,0.83,-8.07,-0.56,-2.23,-93.01,287.44,-1.48,11.25,0.21,-0.42,0.42,0.59,-0.55,1.0,14.12,49.78,0.0964395,0.0,42.502075000000005,nan,-71.88523833333333,nan,-2.0,4230.1245,7153.1143,0.0,0.0,0.0,0.0
3488.0,17.0,67.0,41.0,242.0,244.0,nan,0.88,-7.85,-0.61,-2.26,-93.04,287.21,-1.2,11.81,1.26,-0.42,0.42,0.59,-0.55,1.0,14.12,49.78,0.0964395,0.0,42.502075000000005,nan,-71.88523833333333,nan,-2.0,4230.1245,7153.1143,0.0,0.0,0.0,0.0
3511.0,24.0,61.0,41.0,264.0,258.0,nan,1.55,-8.05,-0.56,-2.33,-93.09,286.97,-2.53,11.88,1.26,-0.42,0.42,0.59,-0.54,1.0,14.12,49.78,0.0964395,0.0,42.502075000000005,nan,-71.88523833333333,nan,-2.0,4230.1245,7153.1143,0.0,0.0,0.0,0.0
3530.0,34.0,23.0,52.0,228.0,214.0,nan,0.89,-7.89,0.41,-2.33,-93.09,286.73,-3.72,11.39,2.73,-0.42,0.42,0.59,-0.54,1.0,14.12,49.78,0.0964395,0.0,42.502075000000005,nan,-71.88523833333333,nan,-2.0,4230.1245,7153.1143,0.0,0.0,0.0,0.0
3553.0,33.0,0.0,37.0,163.0,164.0,nan,-1.06,-7.75,-0.19,-2.14,-93.14,286.28,-1.97,11.11,2.31,-0.42,0.43,0.59,-0.54,1.0,14.12,49.78,0.0964395,0.0,42.502075000000005,nan,-71.88523833333333,nan,-2.0,4230.1245,7153.1143,0.0,0.0,0.0,0.0
3580.0,34.0,0.0,19.0,60.0,73.0,nan,-1.06,-7.75,-0.19,-2.14,-93.14,286.28,0.0,0.0,0.0,-0.42,0.43,0.59,-0.54,1.0,14.12,49.78,0.0964395,0.0,42.502075000000005,nan,-71.88523833333333,nan,-2.0,4230.1245,7153.1143,0.0,0.0,0.0,0.0
3597.0,37.0,0.0,1.0,80.0,88.0,nan,-2.1,-7.66,-0.93,-1.83,-93.15,285.84,1.74,11.04,0.77,-0.42,0.43,0.59,-0.54,1.0,14.12,49.78,0.0964395,0.0,42.502075000000005,nan,-71.88523833333333,nan,-2.0,4230.1245,7153.1143,0.0,0.0,0.0,0.0
3621.0,44.0,0.0,0.0,63.0,24.0,nan,0.49,-9.62,-1.52,-1.89,-93.14,285.62,3.14,11.18,-2.1,-0.43,0.43,0.59,-0.54,1.0,14.12,49.78,0.0964395,0.0,42.502075000000005,nan,-71.88523833333333,nan,-2.0,4230.1245,7153.1143,0.0,0.0,0.0,0.0
3644.0,163.0,38.0,49.0,747.0,706.0,nan,-7.29,-1.27,-0.75,-1.38,-93.12,285.36,3.28,13.63,-1.61,-0.42,0.43,0.58,-0.54,1.0,14.12,49.78,0.0964395,0.0,42.502075000000005,nan,-71.88523833333333,nan,-2.0,4230.1245,7153.1143,0.0,0.0,0.0,0.0
3663.0,8.0,0.0,0.0,144.0,84.0,nan,-0.94,-15.36,1.66,-2.05,-92.78,285.19,12.1,9.78,-35.49,-0.43,0.43,0.58,-0.54,1.0,14.12,49.78,0.0964395,0.0,42.502075000000005,nan,-71.88523833333333,nan,-2.0,4230.1245,7153.1143,0.0,0.0,0.0,0.0
3686.0,70.0,4.0,26.0,397.0,382.0,nan,1.65,-10.68,1.62,-2.21,-92.65,284.97,0.62,11.46,-4.27,-0.43,0.43,0.58,-0.54,1.0,14.12,49.81,0.0964406,0.0,42.502075000000005,nan,-71.88523833333333,nan,-2.0,4230.1245,7153.1143,0.0,0.0,0.0,0.0
3707.0,54.0,35.0,31.0,276.0,314.0,nan,-5.66,-4.72,-3.72,-1.62,-93.02,284.73,-7.15,11.46,9.94,-0.43,0.44,0.58,-0.54,1.0,14.12,49.81,0.0964406,0.0,42.502075000000005,nan,-71.88523833333333,nan,-2.0,4230.1245,7153.1143,0.0,0.0,0.0,0.0
3731.0,59.0,19.0,14.0,229.0,279.0,nan,4.93,-9.84,-0.86,-2.02,-93.09,284.55,-2.74,9.78,-7.7,-0.43,0.43,0.58,-0.54,1.0,14.12,49.81,0.0964406,0.0,42.502075000000005,nan,-71.88523833333333,nan,-2.0,4230.1245,7153.1143,0.0,0.0,0.0,0.0
3750.0,91.0,94.0,94.0,453.0,496.0,nan,-0.55,-6.44,-0.72,-1.81,-93.14,284.31,-1.27,11.74,7.98,-0.43,0.44,0.58,-0.54,1.0,14.12,49.81,0.0964406,0.0,42.502075000000005,nan,-71.88523833333333,nan,-2.0,4230.1245,7153.1143,0.0,0.0,0.0,0.0
3773.0,98.0,144.0,85.0,482.0,524.0,nan,1.28,-7.47,-0.84,-2.05,-93.06,283.81,1.04,13.49,5.32,-0.43,0.44,0.58,-0.53,1.0,14.12,49.81,0.0964406,0.0,42.502075000000005,nan,-71.88523833333333,nan,-2.0,4230.1245,7153.1143,0.0,0.0,0.0,0.0
3799.0,50.0,95.0,46.0,283.0,341.0,nan,2.41,-8.35,-0.92,-2.18,-93.03,283.53,2.51,13.98,1.19,-0.44,0.44,0.58,-0.53,1.0,14.12,49.81,0.0964406,0.0,42.502075000000005,nan,-71.88523833333333,nan,-2.0,4230.1245,7153.1143,0.0,0.0,0.0,0.0
3821.0,45.0,108.0,50.0,370.0,390.0,nan,1.07,-7.53,-1.36,-2.14,-93.06,283.19,1.32,16.57,5.6,-0.44,0.44,0.58,-0.53,1.0,14.12,49.81,0.0964406,0.0,42.502075000000005,nan,-71.88523833333333,nan,-2.0,4230.1245,7153.1143,0.0,0.0,0.0,0.0
3841.0,38.0,109.0,43.0,305.0,316.0,nan,1.43,-8.11,-1.17,-2.18,-93.06,282.82,1.74,18.81,2.94,-0.44,0.44,0.58,-0.53,1.0,14.12,49.81,0.0964406,0.0,42.502075000000005,nan,-71.88523833333333,nan,-2.0,4230.1245,7153.1143,0.0,0.0,0.0,0.0
3863.0,33.0,67.0,36.0,328.0,346.0,nan,0.08,-7.83,-1.63,-2.1,-93.13,282.39,0.13,21.47,4.27,-0.44,0.45,0.57,-0.53,1.0,14.12,49.81,0.0964406,0.0,42.502075000000005,nan,-71.88523833333333,nan,-2.0,4230.1245,7153.1143,0.0,0.0,0.0,0.0
3883.0,28.0,54.0,45.0,342.0,341.0,nan,-0.54,-7.72,-1.38,-2.01,-93.22,281.92,-1.69,23.08,3.01,-0.44,0.45,0.57,-0.53,1.0,14.12,49.81,0.0964406,0.0,42.502075000000005,nan,-71.88523833333333,nan,-2.0,4230.1245,7153.1143,0.0,0.0,0.0,0.0
3906.0,34.0,42.0,47.0,294.0,284.0,nan,-0.6,-7.83,-0.32,-1.89,-93.23,281.44,-1.97,23.99,3.78,-0.44,0.45,0.57,-0.52,1.0,14.12,49.81,0.0964406,0.0,42.502075000000005,nan,-71.88523833333333,nan,-2.0,4230.1245,7153.1143,0.0,0.0,0.0,0.0
3926.0,108.0,40.0,0.0,466.0,447.0,nan,-0.13,-8.01,-0.53,-1.83,-93.26,280.96,-1.83,23.78,3.36,-0.45,0.45,0.57,-0.52,1.0,14.12,49.81,0.0964406,0.0,42.502075000000005,nan,-71.88523833333333,nan,-2.0,4230.1245,7153.1143,0.0,0.0,0.0,0.0
3948.0,17.0,0.0,0.0,211.0,217.0,nan,2.12,-11.3,-5.58,-1.55,-93.74,280.49,-13.8,23.01,19.32,-0.44,0.46,0.57,-0.52,1.0,14.12,49.81,0.0964406,0.0,42.502075000000005,nan,-71.88523833333333,nan,-2.0,4230.1245,7153.1143,0.0,0.0,0.0,0.0
3968.0,46.0,0.0,34.0,362.0,361.0,nan,-5.23,-5.36,2.37,-0.83,-93.68,279.99,-7.36,23.43,17.92,-0.44,0.47,0.56,-0.52,1.0,14.12,49.81,0.0964406,0.0,42.502075000000005,nan,-71.88523833333333,nan,-2.0,4230.1245,7153.1143,0.0,0.0,0.0,0.0
3990.0,66.0,0.0,26.0,341.0,329.0,nan,-3.02,-6.56,0.44,-0.6,-93.4,279.08,-7.92,23.36,10.57,-0.45,0.47,0.56,-0.52,1.0,14.12,49.81,0.0964406,0.0,42.502075000000005,nan,-71.88523833333333,nan,-2.0,4230.1245,7153.1143,0.0,0.0,0.0,0.0
4017.0,9.0,0.0,12.0,219.0,226.0,nan,0.49,-8.76,-0.52,-0.65,-93.59,278.66,-9.81,20.84,-0.07,-0.45,0.47,0.56,-0.52,1.0,14.12,49.81,0.0964406,0.0,42.502075000000005,nan,-71.88523833333333,nan,-2.0,4230.1245,7153.1143,0.0,0.0,0.0,0.0
4039.0,61.0,0.0,32.0,330.0,340.0,nan,-1.9,-7.22,-0.44,-0.39,-93.79,278.26,-10.16,19.79,6.58,-0.45,0.48,0.55,-0.52,1.0,14.12,49.81,0.0964406,0.0,42.502075000000005,nan,-71.88523833333333,nan,-2.0,4230.1245,7153.1143,0.0,0.0,0.0,0.0
4059.0,43.0,0.0,15.0,309.0,297.0,nan,-0.45,-8.31,-0.05,-0.35,-94.02,277.91,-13.31,17.2,1.82,-0.45,0.48,0.55,-0.51,1.0,14.12,49.81,0.0964406,0.0,42.502075000000005,nan,-71.88523833333333,nan,-2.0,4230.1245,7153.1143,0.0,0.0,0.0,0.0
4082.0,46.0,0.0,18.0,311.0,298.0,nan,-1.26,-7.61,0.02,-0.19,-94.27,277.6,-14.43,15.24,3.99,-0.45,0.48,0.55,-0.51,1.0,14.12,49.81,0.0964406,0.0,42.502075000000005,nan,-71.88523833333333,nan,-2.0,4230.1245,7153.1143,0.0,0.0,0.0,0.0
4101.0,44.0,18.0,19.0,315.0,294.0,nan,0.07,-7.9,-0.36,-0.19,-94.5,277.36,-12.4,12.16,1.05,-0.45,0.48,0.55,-0.51,1.0,14.12,49.81,0.0964406,0.0,42.502075000000005,nan,-71.88523833333333,nan,-2.0,4230.1245,7153.1143,0.0,0.0,0.0,0.0
4124.0,32.0,25.0,36.0,278.0,288.0,nan,0.42,-6.22,0.65,-0.09,-94.73,277.14,-17.09,10.27,8.05,-0.45,0.49,0.55,-0.51,1.0,14.12,49.81,0.0964406,0.0,42.502075000000005,nan,-71.88523833333333,nan,-2.0,4230.1245,7153.1143,0.0,0.0,0.0,0.0
4143.0,31.0,0.0,7.0,219.0,221.0,nan,2.9,-9.55,1.49,-0.19,-94.79,276.97,-9.32,7.96,3.5,-0.45,0.49,0.55,-0.51,1.0,14.13,49.91,0.0964395,0.0,42.502075000000005,nan,-71.88523833333333,nan,-2.0,4230.1245,7153.1143,0.0,0.0,0.0,0.0
4168.0,76.0,81.0,60.0,525.0,521.0,nan,-1.38,-8.06,-1.79,0.04,-95.2,276.83,-16.88,6.77,7.49,-0.45,0.49,0.55,-0.5,1.0,14.13,49.91,0.0964395,0.0,42.502075000000005,nan,-71.88523833333333,nan,-2.0,4230.1245,7153.1143,0.0,0.0,0.0,0.0
4187.0,86.0,83.0,43.0,484.0,504.0,nan,0.7,-8.42,-1.7,-0.04,-95.48,276.73,-10.44,4.67,-1.33,-0.45,0.49,0.55,-0.5,1.0,14.13,49.91,0.0964395,0.0,42.502075000000005,nan,-71.88523833333333,nan,-2.0,4230.1245,7153.1143,0.0,0.0,0.0,0.0
4210.0,52.0,83.0,50.0,551.0,543.0,nan,-0.84,-8.26,-0.35,0.24,-95.72,276.61,-7.15,1.52,-0.14,-0.45,0.49,0.55,-0.5,1.0,14.13,49.91,0.0964395,0.0,42.502075000000005,nan,-71.88523833333333,nan,-2.0,4230.1245,7153.1143,0.0,0.0,0.0,0.0
4237.0,45.0,38.0,46.0,542.0,530.0,nan,-2.39,-7.68,-0.26,0.47,-95.83,276.66,-7.01,-2.82,3.01,-0.44,0.5,0.55,-0.5,1.0,14.13,49.91,0.0964395,0.0,42.502075000000005,nan,-71.88523833333333,nan,-2.0,4230.1245,7153.1143,0.0,0.0,0.0,0.0
4259.0,72.0,43.0,34.0,531.0,542.0,nan,-1.77,-7.36,-3.29,0.6,-96.2,276.75,-10.16,-4.85,0.14,-0.44,0.5,0.55,-0.5,1.0,14.13,49.91,0.0964395,0.0,42.502075000000005,nan,-71.88523833333333,nan,-2.0,4230.1245,7153.1143,0.0,0.0,0.0,0.0
4279.0,99.0,81.0,43.0,666.0,660.0,nan,-2.41,-7.73,0.54,0.82,-96.17,276.85,-3.37,-5.27,1.89,-0.44,0.5,0.55,-0.5,1.0,14.13,49.91,0.0964395,0.0,42.502075000000005,nan,-71.88523833333333,nan,-2.0,4230.1245,7153.1143,0.0,0.0,0.0,0.0
4301.0,55.0,83.0,41.0,563.0,564.0,nan,-2.2,-7.53,-0.16,0.95,-96.26,276.96,-6.8,-5.13,-1.47,-0.44,0.5,0.55,-0.5,1.0,14.13,49.91,0.0964395,0.0,42.502075000000005,nan,-71.88523833333333,nan,-2.0,4230.1245,7153.1143,0.0,0.0,0.0,0.0
4321.0,68.0,79.0,47.0,504.0,515.0,nan,-1.0,-8.17,-0.52,1.0,-96.41,277.06,-8.69,-4.92,-1.33,-0.44,0.5,0.55,-0.5,1.0,14.13,49.91,0.0964395,0.0,42.502075000000005,nan,-71.88523833333333,nan,-2.0,4230.1245,7153.1143,0.0,0.0,0.0,0.0
4344.0,52.0,55.0,37.0,462.0,449.0,nan,-1.29,-7.93,-0.33,1.11,-96.44,277.16,-3.86,-4.99,1.19,-0.44,0.5,0.55,-0.5,1.0,14.13,49.91,0.0964395,0.0,42.502075000000005,nan,-71.88523833333333,nan,-2.0,4230.1245,7153.1143,0.0,0.0,0.0,0.0
4363.0,41.0,34.0,32.0,371.0,357.0,nan,-0.7,-7.63,-1.1,1.16,-96.5,277.25,-2.18,-4.85,-0.07,-0.43,0.5,0.56,-0.5,1.0,14.13,49.91,0.0964395,0.0,42.502075000000005,nan,-71.88523833333333,nan,-2.0,4230.1245,7153.1143,0.0,0.0,0.0,0.0
4386.0,104.0,79.0,53.0,598.0,580.0,nan,-0.58,-7.68,-1.48,1.22,-96.61,277.33,-3.37,-3.87,0.63,-0.43,0.5,0.56,-0.5,1.0,14.13,49.91,0.0964395,0.0,42.502075000000005,nan,-71.88523833333333,nan,-2.0,4230.1245,7153.1143,0.0,0.0,0.0,0.0
4405.0,128.0,146.0,82.0,752.0,736.0,nan,-0.32,-7.33,-1.24,1.28,-96.64,277.39,0.06,-3.59,2.03,-0.43,0.5,0.56,-0.51,1.0,14.13,49.91,0.0964395,0.0,42.502075000000005,nan,-71.88523833333333,nan,-2.0,4230.1245,7153.1143,0.0,0.0,0.0,0.0
4428.0,97.0,162.0,68.0,525.0,472.0,nan,-5.24,-5.5,-3.03,1.49,-96.72,277.34,-1.69,3.27,5.81,-0.43,0.5,0.56,-0.51,1.0,14.13,49.91,0.0964395,0.0,42.502075000000005,nan,-71.88523833333333,nan,-2.0,4230.1245,7153.1143,0.0,0.0,0.0,0.0
4454.0,76.0,162.0,79.0,512.0,484.0,nan,2.53,-9.72,-0.04,1.1,-96.62,277.31,1.74,3.2,-11.41,-0.43,0.5,0.56,-0.5,1.0,14.13,49.91,0.0964395,0.0,42.502075000000005,nan,-71.88523833333333,nan,-2.0,4230.1245,7153.1143,0.0,0.0,0.0,0.0
4477.0,79.0,157.0,65.0,485.0,444.0,nan,-2.58,-6.87,-2.04,1.38,-96.74,277.16,-1.27,6.77,5.67,-0.43,0.5,0.56,-0.5,1.0,14.13,49.91,0.0964395,0.0,42.502075000000005,nan,-71.88523833333333,nan,-2.0,4230.1245,7153.1143,0.0,0.0,0.0,0.0
4496.0,61.0,124.0,44.0,466.0,375.0,nan,-0.06,-9.65,-1.36,1.28,-96.76,277.02,-0.29,7.33,-3.64,-0.43,0.5,0.56,-0.5,1.0,14.13,49.91,0.0964395,0.0,42.502075000000005,nan,-71.88523833333333,nan,-2.0,4230.1245,7153.1143,0.0,0.0,0.0,0.0
4519.0,52.0,135.0,54.0,401.0,353.0,nan,-6.13,-10.73,-1.91,1.89,-96.64,276.74,8.11,11.81,18.48,-0.43,0.5,0.55,-0.51,1.0,14.13,49.91,0.0964395,0.0,42.502075000000005,nan,-71.88523833333333,nan,-2.0,4230.1245,7153.1143,0.0,0.0,0.0,0.0
4539.0,75.0,155.0,69.0,400.0,422.0,nan,-2.55,-7.83,-4.51,2.01,-96.92,276.54,-2.6,9.78,0.42,-0.43,0.51,0.55,-0.5,1.0,14.13,49.91,0.0964395,0.0,42.502075000000005,nan,-71.88523833333333,nan,-2.0,4230.1245,7153.1143,0.0,0.0,0.0,0.0
4561.0,106.0,166.0,74.0,418.0,443.0,nan,-2.89,-7.46,-2.12,2.2,-97.02,276.34,-0.85,9.78,1.47,-0.43,0.51,0.55,-0.5,1.0,14.13,49.91,0.0964395,0.0,42.502075000000005,nan,-71.88523833333333,nan,-2.0,4230.1245,7153.1143,0.0,0.0,0.0,0.0
4581.0,74.0,181.0,83.0,434.0,470.0,nan,-2.05,-7.9,-2.31,2.28,-97.1,276.19,0.76,7.61,-0.7,-0.43,0.51,0.55,-0.5,1.0,14.13,49.91,0.0964395,0.0,42.502075000000005,nan,-71.88523833333333,nan,-2.0,4230.1245,7153.1143,0.0,0.0,0.0,0.0
4603.0,82.0,187.0,76.0,324.0,358.0,nan,-1.14,-7.62,-1.19,2.38,-97.07,275.99,1.04,4.11,-3.99,-0.43,0.51,0.55,-0.5,1.0,14.13,50.0,0.0964516,0.0,42.502075000000005,nan,-71.88523833333333,nan,-2.0,4230.1245,7153.1143,0.0,0.0,0.0,0.0
4635.0,63.0,193.0,89.0,295.0,342.0,nan,0.4,-7.68,-0.76,2.26,-97.09,275.95,-1.76,2.57,-3.29,-0.43,0.51,0.55,-0.5,1.0,14.13,50.0,0.0964516,0.0,42.502075000000005,nan,-71.88523833333333,nan,-2.0,4230.1245,7153.1143,0.0,0.0,0.0,0.0
4655.0,75.0,182.0,64.0,213.0,225.0,nan,-0.44,-7.53,-1.03,2.25,-97.15,275.92,-2.74,1.45,-0.98,-0.43,0.51,0.55,-0.5,1.0,14.13,50.0,0.0964516,0.0,42.502075000000005,nan,-71.88523833333333,nan,-2.0,4230.1245,7153.1143,0.0,0.0,0.0,0.0
4677.0,43.0,167.0,69.0,0.0,23.0,nan,0.32,-8.01,-0.46,2.15,-97.16,275.93,-2.18,0.12,-2.52,-0.43,0.51,0.55,-0.5,1.0,14.13,50.0,0.0964516,0.0,42.502075000000005,nan,-71.88523833333333,nan,-2.0,4230.1245,7153.1143,0.0,0.0,0.0,0.0
4697.0,48.0,164.0,67.0,0.0,6.0,nan,0.41,-7.81,-0.37,2.06,-97.14,275.95,-1.55,-0.93,-1.96,-0.43,0.51,0.55,-0.5,1.0,14.13,50.0,0.0964516,0.0,42.502075000000005,nan,-71.88523833333333,nan,-2.0,4230.1245,7153.1143,0.0,0.0,0.0,0.0
4719.0,16.0,166.0,77.0,0.0,2.0,nan,0.88,-7.64,-0.78,1.93,-97.14,275.99,-0.85,-1.7,-2.45,-0.43,0.51,0.55,-0.5,1.0,14.13,50.0,0.0964516,0.0,42.502075000000005,nan,-71.88523833333333,nan,-2.0,4230.1245,7153.1143,0.0,0.0,0.0,0.0
4739.0,31.0,167.0,53.0,0.0,25.0,nan,0.76,-7.76,-0.93,1.83,-97.17,276.05,-1.55,-2.54,-1.68,-0.43,0.51,0.55,-0.5,1.0,14.13,50.0,0.0964516,0.0,42.502075000000005,nan,-71.88523833333333,nan,-2.0,4230.1245,7153.1143,0.0,0.0,0.0,0.0
4762.0,0.0,145.0,60.0,0.0,0.0,nan,1.04,-7.98,-0.65,1.7,-97.15,276.13,-0.29,-3.73,-2.38,-0.43,0.51,0.55,-0.5,1.0,14.13,50.0,0.0964516,0.0,42.502075000000005,nan,-71.88523833333333,nan,-2.0,4230.1245,7153.1143,0.0,0.0,0.0,0.0
4781.0,4.0,120.0,55.0,5.0,28.0,nan,0.56,-7.97,-0.67,1.61,-97.12,276.21,0.13,-3.8,-2.38,-0.43,0.51,0.55,-0.5,1.0,14.13,50.0,0.0964516,0.0,42.502075000000005,nan,-71.88523833333333,nan,-2.0,4230.1245,7153.1143,0.0,0.0,0.0,0.0
4804.0,0.0,108.0,41.0,0.0,0.0,nan,-0.2,-8.0,-0.94,1.52,-97.15,276.39,-1.48,-4.5,-2.38,-0.43,0.51,0.55,-0.5,1.0,14.13,50.0,0.0964516,0.0,42.502075000000005,nan,-71.88523833333333,nan,-2.0,4230.1245,7153.1143,0.0,0.0,0.0,0.0
4831.0,0.0,73.0,44.0,34.0,2.0,nan,-0.2,-8.0,-0.94,1.52,-97.15,276.39,0.0,0.0,0.0,-0.43,0.51,0.55,-0.5,1.0,14.13,50.0,0.0964516,0.0,42.502075000000005,nan,-71.88523833333333,nan,-2.0,4230.1245,7153.1143,0.0,0.0,0.0,0.0
4848.0,0.0,48.0,41.0,4.0,0.0,nan,-0.67,-8.0,-0.25,1.5,-97.1,276.61,-1.34,-5.06,-2.45,-0.43,0.5,0.55,-0.5,1.0,14.13,50.0,0.0964516,0.0,42.502075000000005,nan,-71.88523833333333,nan,-2.0,4230.1245,7153.1143,0.0,0.0,0.0,0.0
4872.0,15.0,27.0,29.0,0.0,1.0,nan,-0.65,-7.81,-0.31,1.49,-97.08,276.72,-1.69,-5.34,-2.52,-0.43,0.5,0.55,-0.5,1.0,14.13,50.0,0.0964516,0.0,42.502075000000005,nan,-71.88523833333333,nan,-2.0,4230.1245,7153.1143,0.0,0.0,0.0,0.0
4895.0,0.0,28.0,32.0,0.0,0.0,nan,-0.82,-7.67,-0.92,1.52,-97.14,276.84,-3.02,-5.83,-1.61,-0.43,0.5,0.55,-0.5,1.0,14.13,50.0,0.0964516,0.0,42.502075000000005,nan,-71.88523833333333,nan,-2.0,4230.1245,7153.1143,0.0,0.0,0.0,0.0
4915.0,0.0,0.0,0.0,0.0,0.0,nan,0.3,-7.98,1.75,1.36,-97.07,276.99,-6.52,-6.25,-7.07,-0.43,0.5,0.56,-0.5,1.0,14.13,50.0,0.0964516,0.0,42.502075000000005,nan,-71.88523833333333,nan,-2.0,4230.1245,7153.1143,0.0,0.0,0.0,0.0
4937.0,39.0,0.0,12.0,285.0,293.0,nan,-0.28,-6.83,3.19,1.45,-96.67,277.11,4.96,-6.18,3.57,-0.43,0.5,0.55,-0.5,1.0,14.13,50.0,0.0964516,0.0,42.502075000000005,nan,-71.88523833333333,nan,-2.0,4230.1245,7153.1143,0.0,0.0,0.0,0.0
4956.0,67.0,0.0,9.0,306.0,307.0,nan,-0.33,-8.36,-1.35,1.42,-96.72,277.26,-1.41,-7.51,-2.87,-0.43,0.5,0.56,-0.5,1.0,14.13,50.0,0.0964516,0.0,42.502075000000005,nan,-71.88523833333333,nan,-2.0,4230.1245,7153.1143,0.0,0.0,0.0,0.0
4979.0,81.0,0.0,17.0,397.0,409.0,nan,1.32,-7.89,-1.42,1.3,-96.81,277.44,-3.37,-8.56,-1.89,-0.43,0.5,0.56,-0.5,1.0,14.13,50.0,0.0964516,0.0,42.502075000000005,nan,-71.88523833333333,nan,-2.0,4230.1245,7153.1143,0.0,0.0,0.0,0.0
4999.0,78.0,0.0,9.0,418.0,405.0,nan,-0.31,-7.75,-0.32,1.33,-96.79,277.62,-1.2,-9.12,-0.14,-0.43,0.5,0.56,-0.51,1.0,14.13,50.0,0.0964516,0.0,42.502075000000005,nan,-71.88523833333333,nan,-2.0,4230.1245,7153.1143,0.0,0.0,0.0,0.0
5022.0,90.0,0.0,19.0,467.0,448.0,nan,0.35,-8.3,0.2,1.29,-96.68,277.82,1.39,-10.1,-1.4,-0.43,0.5,0.56,-0.51,1.0,14.13,50.0,0.0964516,0.0,42.502075000000005,nan,-71.88523833333333,nan,-2.0,4230.1245,7153.1143,0.0,0.0,0.0,0.0
5041.0,88.0,23.0,22.0,482.0,471.0,nan,-0.74,-7.8,-0.27,1.34,-96.6,278.03,1.04,-10.24,-0.35,-0.43,0.5,0.56,-0.51,1.0,14.13,50.0,0.0964516,0.0,42.502075000000005,nan,-71.88523833333333,nan,-2.0,4230.1245,7153.1143,0.0,0.0,0.0,0.0
5064.0,55.0,33.0,35.0,460.0,456.0,nan,-1.05,-7.38,-0.87,1.44,-96.6,278.44,-0.85,-9.82,-1.05,-0.43,0.49,0.56,-0.51,1.0,14.12,50.0,0.0964425,0.0,42.502075000000005,nan,-71.88523833333333,nan,-2.0,4230.1245,7153.1143,0.0,0.0,0.0,0.0
5095.0,45.0,35.0,32.0,413.0,428.0,nan,-0.7,-7.75,-0.7,1.45,-96.61,278.63,-1.41,-9.54,-2.31,-0.43,0.49,0.56,-0.51,1.0,14.12,50.0,0.0964425,0.0,42.502075000000005,nan,-71.88523833333333,nan,-2.0,4230.1245,7153.1143,0.0,0.0,0.0,0.0
5115.0,49.0,28.0,17.0,410.0,414.0,nan,-0.83,-7.75,-0.86,1.47,-96.64,278.82,-1.97,-9.26,-2.31,-0.43,0.49,0.56,-0.51,1.0,14.12,50.0,0.0964425,0.0,42.502075000000005,nan,-71.88523833333333,nan,-2.0,4230.1245,7153.1143,0.0,0.0,0.0,0.0
5138.0,41.0,40.0,19.0,407.0,412.0,nan,-0.22,-8.25,-1.12,1.43,-96.7,279.0,-2.53,-8.84,-3.15,-0.42,0.49,0.56,-0.51,1.0,14.12,50.0,0.0964425,0.0,42.502075000000005,nan,-71.88523833333333,nan,-2.0,4230.1245,7153.1143,0.0,0.0,0.0,0.0
5157.0,27.0,13.0,18.0,322.0,333.0,nan,0.18,-7.68,-1.0,1.37,-96.76,279.18,-2.95,-8.77,-2.87,-0.42,0.49,0.56,-0.51,1.0,14.12,50.0,0.0964425,0.0,42.502075000000005,nan,-71.88523833333333,nan,-2.0,4230.1245,7153.1143,0.0,0.0,0.0,0.0
5179.0,28.0,0.0,16.0,340.0,346.0,nan,0.71,-8.65,-1.38,1.26,-96.86,279.36,-4.0,-8.63,-3.5,-0.42,0.49,0.57,-0.51,1.0,14.12,50.0,0.0964425,0.0,42.502075000000005,nan,-71.88523833333333,nan,-2.0,4230.1245,7153.1143,0.0,0.0,0.0,0.0
5199.0,32.0,0.0,17.0,339.0,339.0,nan,0.91,-8.25,0.07,1.14,-96.79,279.54,-0.29,-8.7,-3.29,-0.42,0.49,0.57,-0.51,1.0,14.12,50.0,0.0964425,0.0,42.502075000000005,nan,-71.88523833333333,nan,-2.0,4230.1245,7153.1143,0.0,0.0,0.0,0.0
5222.0,33.0,0.0,17.0,308.0,311.0,nan,0.65,-7.95,-1.32,0.98,-96.8,279.88,-0.78,-7.93,-2.73,-0.42,0.49,0.57,-0.51,1.0,14.12,50.0,0.0964425,0.0,42.502075000000005,nan,-71.88523833333333,nan,-2.0,4230.1245,7153.1143,0.0,0.0,0.0,0.0
5248.0,31.0,0.0,11.0,282.0,286.0,nan,0.48,-7.87,-1.24,0.9,-96.81,280.03,0.41,-7.16,-2.38,-0.42,0.48,0.57,-0.51,1.0,14.12,50.0,0.0964425,0.0,42.502075000000005,nan,-71.88523833333333,nan,-2.0,4230.1245,7153.1143,0.0,0.0,0.0,0.0
5271.0,32.0,0.0,25.0,274.0,269.0,nan,0.56,-8.07,-1.08,0.81,-96.81,280.16,0.41,-6.46,-2.73,-0.42,0.48,0.57,-0.51,1.0,14.12,50.0,0.0964425,0.0,42.502075000000005,nan,-71.88523833333333,nan,-2.0,4230.1245,7153.1143,0.0,0.0,0.0,0.0
5290.0,37.0,0.0,12.0,268.0,254.0,nan,0.06,-7.61,-0.81,0.78,-96.79,280.28,0.48,-5.69,-1.54,-0.42,0.48,0.57,-0.51,1.0,14.12,50.0,0.0964425,0.0,42.502075000000005,nan,-71.88523833333333,nan,-2.0,4230.1245,7153.1143,0.0,0.0,0.0,0.0
5312.0,34.0,0.0,18.0,247.0,217.0,nan,0.31,-7.84,-0.99,0.72,-96.76,280.39,1.53,-5.34,-2.31,-0.42,0.48,0.57,-0.51,1.0,14.12,50.0,0.0964425,0.0,42.502075000000005,nan,-71.88523833333333,nan,-2.0,4230.1245,7153.1143,0.0,0.0,0.0,0.0
5332.0,28.0,0.0,7.0,252.0,220.0,nan,-0.04,-7.74,-1.55,0.7,-96.8,280.47,0.62,-4.08,-1.12,-0.42,0.48,0.57,-0.51,1.0,14.12,50.0,0.0964425,0.0,42.502075000000005,nan,-71.88523833333333,nan,-2.0,4230.1245,7153.1143,0.0,0.0,0.0,0.0
5357.0,33.0,0.0,0.0,226.0,177.0,nan,0.16,-7.88,-0.52,0.65,-96.73,280.55,1.53,-3.52,-2.03,-0.42,0.48,0.57,-0.51,1.0,14.12,50.0,0.0964425,0.0,42.502075000000005,nan,-71.88523833333333,nan,-2.0,4230.1245,7153.1143,0.0,0.0,0.0,0.0
5374.0,41.0,0.0,0.0,216.0,173.0,nan,0.29,-8.3,-0.62,0.6,-96.69,280.61,0.97,-3.03,-1.68,-0.42,0.48,0.57,-0.51,1.0,14.12,50.0,0.0964425,0.0,42.502075000000005,nan,-71.88523833333333,nan,-2.0,4230.1245,7153.1143,0.0,0.0,0.0,0.0
5397.0,31.0,0.0,0.0,189.0,165.0,nan,-0.4,-7.4,-1.15,0.62,-96.69,280.66,0.9,-2.26,-0.7,-0.42,0.48,0.57,-0.51,1.0,14.12,50.0,0.0964425,0.0,42.502075000000005,nan,-71.88523833333333,nan,-2.0,4230.1245,7153.1143,0.0,0.0,0.0,0.0
5416.0,35.0,0.0,0.0,157.0,157.0,nan,-0.08,-7.79,-1.37,0.6,-96.72,280.71,0.2,-2.4,-0.91,-0.42,0.48,0.57,-0.51,1.0,14.12,50.0,0.0964425,0.0,42.502075000000005,nan,-71.88523833333333,nan,-2.0,4230.1245,7153.1143,0.0,0.0,0.0,0.0
5439.0,37.0,0.0,0.0,145.0,154.0,nan,-0.07,-8.03,-0.67,0.6,-96.6,280.77,0.62,-1.21,-0.21,-0.42,0.48,0.57,-0.51,1.0,14.12,50.0,0.0964425,0.0,42.502075000000005,nan,-71.88523833333333,nan,-2.0,4230.1245,7153.1143,0.0,0.0,0.0,0.0
5466.0,34.0,0.0,0.0,131.0,157.0,nan,-0.23,-7.88,-0.8,0.61,-96.57,280.81,1.18,-1.98,-0.28,-0.42,0.48,0.57,-0.52,1.0,14.12,50.0,0.0964425,0.0,42.502075000000005,nan,-71.88523833333333,nan,-2.0,4230.1245,7153.1143,0.0,0.0,0.0,0.0
5488.0,36.0,0.0,0.0,132.0,157.0,nan,-0.26,-7.75,-0.77,0.63,-96.56,280.85,-0.15,-2.4,0.14,-0.42,0.48,0.57,-0.52,1.0,14.12,50.0,0.0964425,0.0,42.502075000000005,nan,-71.88523833333333,nan,-2.0,4230.1245,7153.1143,0.0,0.0,0.0,0.0
5508.0,0.0,25.0,0.0,229.0,261.0,nan,6.22,10.39,-8.67,0.63,-97.28,280.93,-16.81,-5.48,11.06,-0.42,0.48,0.58,-0.51,1.0,14.12,50.0,0.0964425,0.0,42.502075000000005,nan,-71.88523833333333,nan,-2.0,4230.1245,7153.1143,0.0,0.0,0.0,0.0
5531.0,0.0,0.0,0.0,223.0,269.0,nan,-2.43,-6.53,1.31,1.1,-96.89,280.98,10.7,-3.8,13.72,-0.42,0.48,0.57,-0.52,1.0,14.13,50.12,0.0964345,0.0,42.502075000000005,nan,-71.88523833333333,nan,-2.0,4230.1245,7153.1143,0.0,0.0,0.0,0.0
5552.0,171.0,148.0,145.0,1023.0,1023.0,nan,-0.05,-9.39,4.37,1.1,-96.28,281.04,15.53,-2.96,-0.14,-0.42,0.48,0.57,-0.52,1.0,14.13,50.12,0.0964345,0.0,42.502075000000005,nan,-71.88523833333333,nan,-2.0,4230.1245,7153.1143,0.0,0.0,0.0,0.0
5575.0,10.0,0.0,0.0,33.0,66.0,nan,-0.46,-7.97,-0.68,1.16,-96.16,281.06,5.03,-1.07,1.89,-0.42,0.48,0.57,-0.52,1.0,14.13,50.12,0.0964345,0.0,42.502075000000005,nan,-71.88523833333333,nan,-2.0,4230.1245,7153.1143,0.0,0.0,0.0,0.0
5595.0,56.0,0.0,35.0,525.0,571.0,nan,-0.56,-7.65,-2.51,1.22,-96.3,281.07,-1.27,-0.79,1.05,-0.42,0.48,0.57,-0.52,1.0,14.13,50.12,0.0964345,0.0,42.502075000000005,nan,-71.88523833333333,nan,-2.0,4230.1245,7153.1143,0.0,0.0,0.0,0.0
5617.0,109.0,127.0,97.0,926.0,934.0,nan,-0.84,-7.57,-2.85,1.32,-96.47,281.05,-1.27,0.33,2.73,-0.42,0.48,0.57,-0.52,1.0,14.13,50.12,0.0964345,0.0,42.502075000000005,nan,-71.88523833333333,nan,-2.0,4230.1245,7153.1143,0.0,0.0,0.0,0.0
5637.0,6.0,0.0,0.0,103.0,115.0,nan,-0.51,-7.83,-1.42,1.33,-96.48,281.05,1.6,0.33,-0.49,-0.42,0.48,0.57,-0.52,1.0,14.13,50.12,0.0964345,0.0,42.502075000000005,nan,-71.88523833333333,nan,-2.0,4230.1245,7153.1143,0.0,0.0,0.0,0.0
5660.0,99.0,48.0,82.0,647.0,644.0,nan,-0.88,-7.76,-0.7,1.52,-96.45,280.98,3.63,1.66,1.82,-0.42,0.48,0.57,-0.52,1.0,14.13,50.12,0.0964345,0.0,42.502075000000005,nan,-71.88523833333333,nan,-2.0,4230.1245,7153.1143,0.0,0.0,0.0,0.0
5686.0,57.0,72.0,37.0,710.0,681.0,nan,0.29,-7.97,-0.38,1.46,-96.32,280.94,4.68,1.94,-0.91,-0.42,0.48,0.57,-0.52,1.0,14.13,50.12,0.0964345,0.0,42.502075000000005,nan,-71.88523833333333,nan,-2.0,4230.1245,7153.1143,0.0,0.0,0.0,0.0
5708.0,15.0,0.0,0.0,167.0,167.0,nan,0.09,-7.7,-0.73,1.55,-96.35,280.91,-1.97,1.17,5.6,-0.42,0.48,0.57,-0.52,1.0,14.13,50.12,0.0964345,0.0,42.502075000000005,nan,-71.88523833333333,nan,-2.0,4230.1245,7153.1143,0.0,0.0,0.0,0.0
