time,p1,p2,p3,p4,p5,termite,ax,ay,az,rx,ry,rz,roll,pitch,yaw,q1,q2,q3,q4,calibration,temperature,humidity,pressure,flag_rm,lat,lacoord,lon,locoord,capacitive,o_lat,o_lon,used_lat,used_lon,altitude,flag_lm
0.0,33.0,38.0,23.0,47.0,31.0,nan,-0.6,-7.9,-0.95,4.64,-96.52,269.0,-0.85,-0.09,0.0,-0.45,0.55,0.5,-0.49,1.0,3.78,95.51,0.0931214,0.0,42.502028262195125,nan,-71.88523788617887,nan,-2.0,0.0,4230.1245,7153.1143,1.0,1.0,0.0
19.0,39.0,46.0,31.0,65.0,36.0,nan,-0.6,-7.88,-0.99,4.64,-96.55,269.0,-1.13,-0.16,0.07,-0.45,0.55,0.5,-0.49,1.0,3.78,95.51,0.0931214,0.0,42.502028262195125,nan,-71.88523788617887,nan,-2.0,0.0,4230.1245,0.0,0.0,0.0,0.0
42.0,33.0,35.0,27.0,57.0,37.0,nan,-0.61,-7.86,-1.01,4.64,-96.58,269.0,-0.99,-0.16,0.0,-0.45,0.55,0.5,-0.49,1.0,3.78,95.51,0.0931214,0.0,42.502028262195125,nan,-71.88523788617887,nan,-2.0,0.0,4230.1245,0.0,0.0,0.0,0.0
62.0,29.0,35.0,29.0,36.0,27.0,nan,-0.61,-7.87,-0.98,4.64,-96.6,269.01,-0.71,-0.23,0.0,-0.45,0.55,0.5,-0.49,1.0,3.78,95.51,0.0931214,0.0,42.502028262195125,nan,-71.88523788617887,nan,-2.0,0.0,4230.1245,0.0,0.0,0.0,0.0
84.0,36.0,34.0,26.0,62.0,36.0,nan,-0.61,-7.88,-0.97,4.63,-96.62,269.01,-0.92,-0.16,-0.14,-0.45,0.55,0.5,-0.49,1.0,3.78,95.51,0.0931214,0.0,42.502028262195125,nan,-71.88523788617887,nan,-2.0,0.0,4230.1245,0.0,0.0,0.0,0.0
104.0,34.0,27.0,25.0,58.0,38.0,nan,-0.61,-7.85,-0.98,4.63,-96.65,269.02,-1.13,-0.23,-0.14,-0.45,0.55,0.5,-0.49,1.0,3.78,95.51,0.0931214,0.0,42.502028262195125,nan,-71.88523788617887,nan,-2.0,0.0,4230.1245,0.0,0.0,0.0,0.0
127.0,39.0,36.0,37.0,69.0,52.0,nan,-0.6,-7.91,-0.98,4.62,-96.67,269.02,-1.27,-0.16,-0.07,-0.45,0.55,0.5,-0.49,1.0,3.78,95.51,0.0931214,0.0,42.502028262195125,nan,-71.88523788617887,nan,-2.0,0.0,4230.1245,0.0,0.0,0.0,0.0
146.0,28.0,31.0,33.0,64.0,50.0,nan,-0.6,-7.86,-0.98,4.62,-96.71,269.02,-1.48,-0.16,0.0,-0.45,0.55,0.5,-0.49,1.0,3.78,95.51,0.0931214,0.0,42.502028262195125,nan,-71.88523788617887,nan,-2.0,0.0,4230.1245,0.0,0.0,0.0,0.0
169.0,33.0,41.0,30.0,66.0,48.0,nan,-0.6,-7.87,-1.04,4.62,-96.77,269.02,-0.92,-0.09,0.07,-0.45,0.55,0.5,-0.49,1.0,3.78,95.51,0.0931214,0.0,42.502028262195125,nan,-71.88523788617887,nan,-2.0,0.0,4230.1245,0.0,0.0,0.0,0.0
195.0,33.0,41.0,21.0,53.0,47.0,nan,-0.59,-7.85,-1.05,4.62,-96.79,269.03,-0.29,-0.16,0.07,-0.45,0.55,0.5,-0.49,1.0,3.78,95.51,0.0931214,0.0,42.502028262195125,nan,-71.88523788617887,nan,-2.0,0.0,4230.1245,0.0,0.0,0.0,0.0
218.0,24.0,40.0,34.0,53.0,28.0,nan,-0.6,-7.86,-1.04,4.62,-96.79,269.03,0.27,-0.3,0.07,-0.45,0.55,0.5,-0.49,1.0,3.76,95.53,0.0931253,0.0,42.502028262195125,nan,-71.88523788617887,nan,-2.0,0.0,4230.1245,0.0,0.0,0.0,0.0
239.0,38.0,46.0,32.0,50.0,37.0,nan,-0.6,-7.85,-1.06,4.62,-96.78,269.04,0.76,-0.3,0.21,-0.45,0.55,0.5,-0.49,1.0,3.76,95.53,0.0931253,0.0,42.502028262195125,nan,-71.88523788617887,nan,-2.0,0.0,4230.1245,0.0,0.0,0.0,0.0
262.0,44.0,29.0,32.0,60.0,39.0,nan,-0.59,-7.87,-1.01,4.62,-96.77,269.04,1.04,-0.23,0.21,-0.45,0.55,0.5,-0.49,1.0,3.76,95.53,0.0931253,0.0,42.502028262195125,nan,-71.88523788617887,nan,-2.0,0.0,4230.1245,0.0,0.0,0.0,0.0
282.0,37.0,43.0,34.0,51.0,35.0,nan,-0.6,-7.83,-1.01,4.62,-96.74,269.05,1.39,-0.3,0.21,-0.45,0.55,0.5,-0.49,1.0,3.76,95.53,0.0931253,0.0,42.502028262195125,nan,-71.88523788617887,nan,-2.0,0.0,4230.1245,0.0,0.0,0.0,0.0
304.0,29.0,41.0,33.0,50.0,34.0,nan,-0.61,-7.85,-1.02,4.62,-96.72,269.05,1.67,-0.3,0.21,-0.45,0.55,0.5,-0.49,1.0,3.76,95.53,0.0931253,0.0,42.502028262195125,nan,-71.88523788617887,nan,-2.0,0.0,4230.1245,0.0,0.0,0.0,0.0
324.0,32.0,47.0,29.0,54.0,50.0,nan,-0.59,-7.9,-0.97,4.63,-96.69,269.06,1.53,-0.3,0.28,-0.45,0.55,0.5,-0.49,1.0,3.76,95.53,0.0931253,0.0,42.502028262195125,nan,-71.88523788617887,nan,-2.0,0.0,4230.1245,0.0,0.0,0.0,0.0
347.0,38.0,25.0,33.0,54.0,35.0,nan,-0.58,-7.91,-0.99,4.63,-96.65,269.07,1.04,-0.37,0.21,-0.45,0.55,0.5,-0.49,1.0,3.76,95.53,0.0931253,0.0,42.502028262195125,nan,-71.88523788617887,nan,-2.0,0.0,4230.1245,0.0,0.0,0.0,0.0
373.0,29.0,34.0,27.0,62.0,54.0,nan,-0.58,-7.91,-0.99,4.63,-96.65,269.07,0.0,0.0,0.0,-0.45,0.55,0.5,-0.49,1.0,3.76,95.53,0.0931253,0.0,42.502028262195125,nan,-71.88523788617887,nan,-2.0,0.0,4230.1245,0.0,0.0,0.0,0.0
390.0,36.0,44.0,42.0,51.0,37.0,nan,-0.58,-7.79,-1.16,4.66,-96.53,269.08,5.03,-0.44,0.7,-0.45,0.55,0.5,-0.49,1.0,3.76,95.53,0.0931253,0.0,42.502028262195125,nan,-71.88523788617887,nan,-2.0,0.0,4230.1245,0.0,0.0,0.0,0.0
418.0,36.0,43.0,22.0,52.0,32.0,nan,-0.56,-7.86,-0.98,4.67,-96.39,269.09,6.99,-0.58,0.49,-0.45,0.55,0.5,-0.49,1.0,3.76,95.53,0.0931253,0.0,42.502028262195125,nan,-71.88523788617887,nan,-2.0,0.0,4230.1245,0.0,0.0,0.0,0.0
438.0,31.0,42.0,25.0,33.0,41.0,nan,-0.63,-7.91,-0.85,4.68,-96.27,269.1,6.22,-0.58,0.56,-0.45,0.55,0.5,-0.49,1.0,3.76,95.53,0.0931253,0.0,42.502028262195125,nan,-71.88523788617887,nan,-2.0,0.0,4230.1245,0.0,0.0,0.0,0.0
457.0,35.0,31.0,35.0,60.0,45.0,nan,-0.65,-7.95,-0.77,4.69,-96.18,269.1,3.98,-0.37,0.49,-0.45,0.55,0.5,-0.49,1.0,3.76,95.53,0.0931253,0.0,42.502028262195125,nan,-71.88523788617887,nan,-2.0,0.0,4230.1245,0.0,0.0,0.0,0.0
480.0,42.0,37.0,32.0,33.0,27.0,nan,-0.63,-7.99,-0.68,4.69,-96.16,269.11,0.34,-0.3,0.21,-0.45,0.55,0.5,-0.49,1.0,3.76,95.53,0.0931253,0.0,42.502028262195125,nan,-71.88523788617887,nan,-2.0,0.0,4230.1245,0.0,0.0,0.0,0.0
500.0,46.0,32.0,14.0,64.0,52.0,nan,-0.66,-7.93,-0.61,4.69,-96.23,269.11,-4.49,-0.09,-0.28,-0.45,0.55,0.5,-0.49,1.0,3.76,95.53,0.0931253,0.0,42.502028262195125,nan,-71.88523788617887,nan,-2.0,0.0,4230.1245,0.0,0.0,0.0,0.0
522.0,33.0,49.0,35.0,53.0,31.0,nan,-0.64,-8.03,-0.62,4.67,-96.42,269.11,-10.51,0.12,-0.77,-0.45,0.55,0.5,-0.49,1.0,3.76,95.53,0.0931253,0.0,42.502028262195125,nan,-71.88523788617887,nan,-2.0,0.0,4230.1245,0.0,0.0,0.0,0.0
542.0,32.0,49.0,30.0,33.0,25.0,nan,-0.59,-8.01,-0.82,4.65,-96.74,269.11,-16.18,0.33,-0.84,-0.45,0.55,0.5,-0.49,1.0,3.76,95.53,0.0931253,0.0,42.502028262195125,nan,-71.88523788617887,nan,-2.0,0.0,4230.1245,0.0,0.0,0.0,0.0
565.0,33.0,36.0,28.0,55.0,38.0,nan,-0.59,-7.97,-0.94,4.62,-97.13,269.1,-19.68,0.61,-0.98,-0.45,0.55,0.51,-0.49,1.0,3.76,95.53,0.0931253,0.0,42.502028262195125,nan,-71.88523788617887,nan,-2.0,0.0,4230.1245,0.0,0.0,0.0,0.0
584.0,32.0,46.0,39.0,48.0,44.0,nan,-0.61,-7.84,-1.13,4.6,-97.55,269.09,-20.03,0.68,-0.98,-0.45,0.55,0.51,-0.48,1.0,3.76,95.53,0.0931253,0.0,42.502028262195125,nan,-71.88523788617887,nan,-2.0,0.0,4230.1245,0.0,0.0,0.0,0.0
607.0,30.0,51.0,28.0,61.0,27.0,nan,-0.59,-7.63,-1.34,4.55,-98.32,269.07,-17.65,0.47,-1.05,-0.44,0.56,0.51,-0.48,1.0,3.76,95.53,0.0931253,0.0,42.502028262195125,nan,-71.88523788617887,nan,-2.0,0.0,4230.1245,0.0,0.0,0.0,0.0
633.0,27.0,38.0,29.0,55.0,28.0,nan,-0.6,-7.82,-1.19,4.52,-98.66,269.07,-17.23,0.4,-1.26,-0.44,0.56,0.51,-0.48,1.0,3.76,95.53,0.0931253,0.0,42.502028262195125,nan,-71.88523788617887,nan,-2.0,0.0,4230.1245,0.0,0.0,0.0,0.0
656.0,27.0,22.0,32.0,37.0,25.0,nan,-0.6,-7.81,-1.23,4.49,-99.04,269.06,-18.84,0.4,-1.54,-0.44,0.56,0.51,-0.48,1.0,3.76,95.53,0.0931253,0.0,42.502028262195125,nan,-71.88523788617887,nan,-2.0,0.0,4230.1245,0.0,0.0,0.0,0.0
675.0,31.0,33.0,28.0,59.0,46.0,nan,-0.57,-8.06,-1.22,4.46,-99.44,269.06,-20.17,0.54,-1.33,-0.44,0.56,0.52,-0.47,1.0,3.75,95.49,0.0931214,0.0,42.502028262195125,nan,-71.88523788617887,nan,-2.0,0.0,4230.1245,0.0,0.0,0.0,0.0
700.0,32.0,42.0,38.0,34.0,36.0,nan,-0.55,-7.86,-1.41,4.44,-99.87,269.05,-20.87,0.61,-0.7,-0.44,0.56,0.52,-0.47,1.0,3.75,95.49,0.0931214,0.0,42.502028262195125,nan,-71.88523788617887,nan,-2.0,0.0,4230.1245,0.0,0.0,0.0,0.0
719.0,35.0,36.0,25.0,63.0,35.0,nan,-0.47,-7.7,-1.87,4.42,-100.29,269.04,-19.12,0.54,-0.42,-0.44,0.56,0.52,-0.47,1.0,3.75,95.49,0.0931214,0.0,42.502028262195125,nan,-71.88523788617887,nan,-2.0,0.0,4230.1245,0.0,0.0,0.0,0.0
743.0,50.0,37.0,45.0,52.0,47.0,nan,-0.55,-7.53,-1.88,4.41,-100.62,269.03,-14.64,0.33,-0.14,-0.43,0.57,0.52,-0.47,1.0,3.75,95.49,0.0931214,0.0,42.502028262195125,nan,-71.88523788617887,nan,-2.0,0.0,4230.1245,0.0,0.0,0.0,0.0
762.0,37.0,45.0,26.0,57.0,54.0,nan,-0.55,-7.52,-1.89,4.4,-100.85,269.02,-9.88,0.12,-0.28,-0.43,0.57,0.52,-0.47,1.0,3.75,95.49,0.0931214,0.0,42.502028262195125,nan,-71.88523788617887,nan,-2.0,0.0,4230.1245,0.0,0.0,0.0,0.0
784.0,45.0,38.0,24.0,68.0,46.0,nan,-0.56,-7.5,-1.89,4.39,-100.91,269.03,3.77,-0.44,0.0,-0.43,0.57,0.52,-0.47,1.0,3.75,95.49,0.0931214,0.0,42.502028262195125,nan,-71.88523788617887,nan,-2.0,0.0,4230.1245,0.0,0.0,0.0,0.0
811.0,34.0,32.0,26.0,55.0,32.0,nan,-0.53,-7.56,-1.84,4.39,-100.74,269.04,10.0,-0.79,0.21,-0.43,0.57,0.52,-0.47,1.0,3.75,95.49,0.0931214,0.0,42.502028262195125,nan,-71.88523788617887,nan,-2.0,0.0,4230.1245,0.0,0.0,0.0,0.0
833.0,27.0,30.0,27.0,62.0,35.0,nan,-0.53,-7.74,-1.73,4.41,-100.45,269.06,15.53,-0.93,0.7,-0.44,0.56,0.52,-0.47,1.0,3.75,95.49,0.0931214,0.0,42.502028262195125,nan,-71.88523788617887,nan,-2.0,0.0,4230.1245,0.0,0.0,0.0,0.0
853.0,41.0,32.0,40.0,62.0,52.0,nan,-0.55,-7.88,-1.39,4.43,-100.08,269.07,17.91,-1.0,1.12,-0.44,0.56,0.52,-0.47,1.0,3.75,95.49,0.0931214,0.0,42.502028262195125,nan,-71.88523788617887,nan,-2.0,0.0,4230.1245,0.0,0.0,0.0,0.0
875.0,36.0,40.0,23.0,61.0,29.0,nan,-0.58,-7.94,-1.31,4.45,-99.73,269.09,17.21,-0.93,1.33,-0.44,0.56,0.52,-0.47,1.0,3.75,95.49,0.0931214,0.0,42.502028262195125,nan,-71.88523788617887,nan,-2.0,0.0,4230.1245,0.0,0.0,0.0,0.0
895.0,33.0,32.0,31.0,60.0,35.0,nan,-0.6,-7.84,-1.32,4.48,-99.41,269.1,16.02,-0.93,1.33,-0.44,0.56,0.52,-0.47,1.0,3.75,95.49,0.0931214,0.0,42.502028262195125,nan,-71.88523788617887,nan,-2.0,0.0,4230.1245,0.0,0.0,0.0,0.0
918.0,50.0,52.0,31.0,53.0,49.0,nan,-0.58,-7.89,-1.35,4.51,-99.1,269.12,15.39,-0.86,1.47,-0.44,0.56,0.52,-0.48,1.0,3.75,95.49,0.0931214,0.0,42.502028262195125,nan,-71.88523788617887,nan,-2.0,0.0,4230.1245,0.0,0.0,0.0,0.0
937.0,40.0,35.0,25.0,58.0,56.0,nan,-0.56,-7.86,-1.36,4.54,-98.8,269.13,15.53,-0.79,1.61,-0.44,0.56,0.51,-0.48,1.0,3.75,95.49,0.0931214,0.0,42.502028262195125,nan,-71.88523788617887,nan,-2.0,0.0,4230.1245,0.0,0.0,0.0,0.0
960.0,52.0,53.0,19.0,60.0,39.0,nan,-0.53,-7.96,-1.17,4.57,-98.47,269.14,16.23,-0.93,1.82,-0.44,0.56,0.51,-0.48,1.0,3.75,95.49,0.0931214,0.0,42.502028262195125,nan,-71.88523788617887,nan,-2.0,0.0,4230.1245,0.0,0.0,0.0,0.0
980.0,40.0,35.0,16.0,56.0,33.0,nan,-0.58,-8.04,-0.91,4.6,-98.17,269.15,13.64,-0.65,1.61,-0.44,0.56,0.51,-0.48,1.0,3.75,95.49,0.0931214,0.0,42.502028262195125,nan,-71.88523788617887,nan,-2.0,0.0,4230.1245,0.0,0.0,0.0,0.0
1002.0,50.0,48.0,36.0,68.0,36.0,nan,-0.56,-7.88,-0.96,4.62,-97.92,269.16,4.4,-0.37,0.7,-0.45,0.56,0.51,-0.48,1.0,3.75,95.49,0.0931214,0.0,42.502028262195125,nan,-71.88523788617887,nan,-2.0,0.0,4230.1245,0.0,0.0,0.0,0.0
1029.0,33.0,27.0,32.0,47.0,46.0,nan,-0.59,-7.92,-1.01,4.64,-97.88,269.16,1.46,-0.23,0.84,-0.45,0.56,0.51,-0.48,1.0,3.75,95.49,0.0931214,0.0,42.502028262195125,nan,-71.88523788617887,nan,-2.0,0.0,4230.1245,0.0,0.0,0.0,0.0
1051.0,46.0,35.0,29.0,47.0,32.0,nan,-0.52,-7.87,-1.14,4.65,-97.89,269.16,-0.08,-0.02,0.98,-0.45,0.56,0.51,-0.48,1.0,3.75,95.49,0.0931214,0.0,42.502028262195125,nan,-71.88523788617887,nan,-2.0,0.0,4230.1245,0.0,0.0,0.0,0.0
1071.0,37.0,41.0,36.0,52.0,33.0,nan,-0.32,-7.83,-1.12,4.65,-97.89,269.16,-0.08,-0.16,0.98,-0.45,0.56,0.51,-0.48,1.0,3.75,95.49,0.0931214,0.0,42.50198152439025,nan,-71.8852374390244,nan,-2.0,0.0,4230.1245,7153.1143,0.0,0.0,0.0
1094.0,43.0,37.0,12.0,51.0,28.0,nan,-0.66,-8.1,1.28,4.71,-97.64,269.17,4.54,-0.3,3.22,-0.45,0.55,0.51,-0.48,1.0,3.75,95.49,0.0931214,0.0,42.50198152439025,nan,-71.8852374390244,nan,-2.0,0.0,4230.1245,0.0,0.0,0.0,0.0
1113.0,58.0,26.0,34.0,74.0,35.0,nan,-0.73,-6.78,-1.24,4.76,-97.62,269.17,2.16,-0.16,1.96,-0.45,0.55,0.51,-0.48,1.0,3.75,95.49,0.0931214,0.0,42.50198152439025,nan,-71.8852374390244,nan,-2.0,0.0,4230.1245,0.0,0.0,0.0,0.0
1136.0,53.0,33.0,42.0,68.0,31.0,nan,0.15,-7.62,-1.1,4.71,-97.54,269.18,4.47,-0.51,-0.07,-0.45,0.55,0.51,-0.48,1.0,3.74,95.54,0.0931193,0.0,42.50198152439025,nan,-71.8852374390244,nan,-2.0,0.0,4230.1245,0.0,0.0,0.0,0.0
1157.0,40.0,41.0,32.0,63.0,51.0,nan,0.1,-7.67,-1.48,4.65,-97.4,269.19,8.6,-0.86,-0.21,-0.45,0.55,0.51,-0.48,1.0,3.74,95.54,0.0931193,0.0,42.50198152439025,nan,-71.8852374390244,nan,-2.0,0.0,4230.1245,0.0,0.0,0.0,0.0
1180.0,43.0,63.0,40.0,36.0,38.0,nan,-0.15,-7.86,-1.22,4.62,-97.17,269.21,12.17,-1.0,0.42,-0.45,0.55,0.51,-0.49,1.0,3.74,95.54,0.0931193,0.0,42.50198152439025,nan,-71.8852374390244,nan,-2.0,0.0,4230.1245,0.0,0.0,0.0,0.0
1200.0,0.0,25.0,24.0,35.0,24.0,nan,-0.0,-7.86,-1.31,4.59,-96.91,269.23,13.99,-1.14,0.35,-0.45,0.55,0.51,-0.49,1.0,3.74,95.54,0.0931193,0.0,42.50198152439025,nan,-71.8852374390244,nan,-2.0,0.0,4230.1245,0.0,0.0,0.0,0.0
1222.0,42.0,31.0,33.0,38.0,26.0,nan,0.98,-8.41,0.1,4.82,-95.67,269.31,19.66,-1.77,-1.89,-0.46,0.55,0.5,-0.49,1.0,3.74,95.54,0.0931193,0.0,42.50198152439025,nan,-71.8852374390244,nan,-2.0,0.0,4230.1245,0.0,0.0,0.0,0.0
1248.0,41.0,64.0,32.0,49.0,36.0,nan,0.07,-7.95,-1.63,4.78,-95.29,269.34,21.83,-1.63,0.77,-0.46,0.54,0.5,-0.5,1.0,3.74,95.54,0.0931193,0.0,42.50198152439025,nan,-71.8852374390244,nan,-2.0,0.0,4230.1245,0.0,0.0,0.0,0.0
1272.0,49.0,65.0,30.0,45.0,33.0,nan,-0.25,-7.99,-1.21,4.78,-94.8,269.37,25.96,-1.63,1.4,-0.46,0.54,0.5,-0.5,1.0,3.74,95.54,0.0931193,0.0,42.50198152439025,nan,-71.8852374390244,nan,-2.0,0.0,4230.1245,0.0,0.0,0.0,0.0
1291.0,25.0,30.0,27.0,47.0,34.0,nan,0.17,-9.09,-0.58,4.72,-94.1,269.41,34.5,-2.19,-0.21,-0.46,0.54,0.49,-0.5,1.0,3.74,95.54,0.0931193,0.0,42.50198152439025,nan,-71.8852374390244,nan,-2.0,0.0,4230.1245,0.0,0.0,0.0,0.0
1314.0,0.0,0.0,0.0,35.0,17.0,nan,-0.35,-8.95,-0.94,4.71,-93.34,269.45,38.77,-2.33,0.21,-0.47,0.54,0.49,-0.5,1.0,3.74,95.54,0.0931193,0.0,42.50198152439025,nan,-71.8852374390244,nan,-2.0,0.0,4230.1245,0.0,0.0,0.0,0.0
1333.0,0.0,0.0,0.0,31.0,18.0,nan,-0.17,-8.49,-0.05,4.67,-92.44,269.51,43.25,-2.82,-0.07,-0.47,0.53,0.49,-0.51,1.0,3.74,95.54,0.0931193,0.0,42.50198152439025,nan,-71.8852374390244,nan,-2.0,0.0,4230.1245,0.0,0.0,0.0,0.0
1356.0,0.0,0.0,0.0,38.0,19.0,nan,-0.34,-8.42,0.5,4.67,-91.41,269.62,48.36,-4.92,0.77,-0.47,0.53,0.48,-0.51,1.0,3.74,95.54,0.0931193,0.0,42.50198152439025,nan,-71.8852374390244,nan,-2.0,0.0,4230.1245,0.0,0.0,0.0,0.0
1375.0,0.0,0.0,0.0,31.0,23.0,nan,-0.64,-8.12,0.94,4.72,-90.35,269.72,48.57,-4.64,2.45,-0.48,0.52,0.48,-0.52,1.0,3.74,95.54,0.0931193,0.0,42.50198152439025,nan,-71.8852374390244,nan,-2.0,0.0,4230.1245,0.0,0.0,0.0,0.0
1398.0,0.0,0.0,0.0,26.0,22.0,nan,-0.69,-8.52,-0.67,4.79,-89.29,269.81,54.73,-4.92,3.5,-0.48,0.52,0.47,-0.52,1.0,3.74,95.54,0.0931193,0.0,42.50198152439025,nan,-71.8852374390244,nan,-2.0,0.0,4230.1245,0.0,0.0,0.0,0.0
1418.0,0.0,0.0,0.0,28.0,23.0,nan,-0.86,-7.13,-1.53,4.89,-88.29,269.89,55.85,-4.57,4.06,-0.49,0.51,0.47,-0.53,1.0,3.74,95.54,0.0931193,0.0,42.50198152439025,nan,-71.8852374390244,nan,-2.0,0.0,4230.1245,0.0,0.0,0.0,0.0
1441.0,0.0,0.0,0.0,34.0,36.0,nan,-1.28,-8.3,-0.96,5.1,-86.19,269.99,53.47,-0.86,5.39,-0.49,0.51,0.46,-0.54,1.0,3.74,95.54,0.0931193,0.0,42.50198152439025,nan,-71.8852374390244,nan,-2.0,0.0,4230.1245,0.0,0.0,0.0,0.0
1467.0,0.0,0.0,0.0,34.0,23.0,nan,-0.79,-8.46,-2.34,5.17,-85.76,269.89,31.42,4.6,3.08,-0.5,0.5,0.46,-0.54,1.0,3.74,95.54,0.0931193,0.0,42.50198152439025,nan,-71.8852374390244,nan,-2.0,0.0,4230.1245,0.0,0.0,0.0,0.0
1491.0,29.0,0.0,21.0,55.0,47.0,nan,-0.35,-7.48,-3.4,5.15,-85.67,269.63,19.38,11.39,-0.91,-0.5,0.51,0.46,-0.54,1.0,3.74,95.54,0.0931193,0.0,42.50198152439025,nan,-71.8852374390244,nan,-2.0,0.0,4230.1245,0.0,0.0,0.0,0.0
1509.0,38.0,0.0,45.0,53.0,45.0,nan,-0.43,-8.03,-2.57,5.06,-85.71,269.22,10.63,19.16,-4.76,-0.5,0.51,0.45,-0.54,1.0,3.74,95.54,0.0931193,0.0,42.50198152439025,nan,-71.8852374390244,nan,-2.0,0.0,4230.1245,0.0,0.0,0.0,0.0
1532.0,23.0,0.0,5.0,45.0,35.0,nan,0.0,-8.59,-2.47,4.92,-86.01,268.73,-3.16,23.22,-6.51,-0.5,0.51,0.45,-0.53,1.0,3.74,95.54,0.0931193,0.0,42.50198152439025,nan,-71.8852374390244,nan,-2.0,0.0,4230.1245,0.0,0.0,0.0,0.0
1551.0,41.0,0.0,32.0,39.0,33.0,nan,-0.54,-6.82,-1.8,4.82,-86.34,268.16,-4.7,27.07,-6.65,-0.5,0.51,0.45,-0.53,1.0,3.74,95.54,0.0931193,0.0,42.50198152439025,nan,-71.8852374390244,nan,-2.0,0.0,4230.1245,0.0,0.0,0.0,0.0
1574.0,31.0,0.0,25.0,61.0,40.0,nan,-0.54,-7.43,-1.03,4.71,-86.62,267.55,-5.89,29.94,-7.14,-0.51,0.52,0.45,-0.52,1.0,3.74,95.54,0.0931193,0.0,42.50198152439025,nan,-71.8852374390244,nan,-2.0,0.0,4230.1245,0.0,0.0,0.0,0.0
1594.0,22.0,0.0,22.0,57.0,34.0,nan,-0.27,-7.33,-0.98,4.58,-86.92,266.88,-6.8,32.25,-7.14,-0.51,0.52,0.45,-0.52,1.0,3.75,95.54,0.0931243,0.0,42.50198152439025,nan,-71.8852374390244,nan,-2.0,0.0,4230.1245,0.0,0.0,0.0,0.0
1618.0,37.0,21.0,43.0,60.0,37.0,nan,-1.27,-7.34,-1.03,4.44,-87.54,265.49,-13.24,34.56,-5.11,-0.51,0.53,0.45,-0.51,1.0,3.75,95.54,0.0931243,0.0,42.50198152439025,nan,-71.8852374390244,nan,-2.0,0.0,4230.1245,0.0,0.0,0.0,0.0
1645.0,21.0,13.0,22.0,57.0,50.0,nan,-1.06,-7.0,1.38,4.44,-87.65,264.81,-7.08,34.28,-3.43,-0.51,0.53,0.45,-0.51,1.0,3.75,95.54,0.0931243,0.0,42.50198152439025,nan,-71.8852374390244,nan,-2.0,0.0,4230.1245,0.0,0.0,0.0,0.0
1667.0,51.0,39.0,34.0,58.0,32.0,nan,-1.36,-5.66,-0.15,4.6,-87.9,264.11,-7.85,34.56,2.24,-0.52,0.53,0.44,-0.5,1.0,3.75,95.54,0.0931243,0.0,42.50198152439025,nan,-71.8852374390244,nan,-2.0,0.0,4230.1245,0.0,0.0,0.0,0.0
1687.0,28.0,24.0,24.0,51.0,25.0,nan,-0.63,-6.4,0.16,4.76,-88.06,263.43,-4.98,34.35,6.23,-0.52,0.54,0.44,-0.5,1.0,3.75,95.54,0.0931243,0.0,42.50198152439025,nan,-71.8852374390244,nan,-2.0,0.0,4230.1245,0.0,0.0,0.0,0.0
1709.0,41.0,24.0,25.0,48.0,30.0,nan,-0.63,-5.91,0.24,4.98,-88.16,262.76,-2.32,33.65,9.03,-0.52,0.54,0.44,-0.5,1.0,3.75,95.54,0.0931243,0.0,42.50198152439025,nan,-71.8852374390244,nan,-2.0,0.0,4230.1245,0.0,0.0,0.0,0.0
1729.0,38.0,22.0,33.0,70.0,51.0,nan,-1.05,-6.16,0.16,5.25,-88.27,262.1,-2.53,33.44,10.36,-0.52,0.55,0.43,-0.49,1.0,3.75,95.54,0.0931243,0.0,42.50198152439025,nan,-71.8852374390244,nan,-2.0,0.0,4230.1245,0.0,0.0,0.0,0.0
1752.0,36.0,41.0,38.0,46.0,33.0,nan,-1.3,-6.11,1.12,5.58,-88.27,261.41,-1.06,35.05,11.83,-0.52,0.55,0.43,-0.49,1.0,3.75,95.54,0.0931243,0.0,42.50198152439025,nan,-71.8852374390244,nan,-2.0,0.0,4230.1245,0.0,0.0,0.0,0.0
1771.0,29.0,31.0,45.0,58.0,29.0,nan,-2.36,-5.58,0.59,6.07,-88.48,260.71,-8.97,35.05,14.98,-0.52,0.56,0.42,-0.49,1.0,3.75,95.54,0.0931243,0.0,42.50198152439025,nan,-71.8852374390244,nan,-2.0,0.0,4230.1245,0.0,0.0,0.0,0.0
1794.0,10.0,0.0,48.0,51.0,21.0,nan,-2.72,-8.74,-0.35,6.52,-88.74,260.02,-7.01,34.7,16.31,-0.52,0.56,0.42,-0.49,1.0,3.75,95.54,0.0931243,0.0,42.50198152439025,nan,-71.8852374390244,nan,-2.0,0.0,4230.1245,0.0,0.0,0.0,0.0
1814.0,83.0,63.0,114.0,61.0,49.0,nan,-4.95,-15.06,5.93,6.47,-88.3,259.46,15.53,28.82,-8.54,-0.53,0.56,0.41,-0.49,1.0,3.75,95.54,0.0931243,0.0,42.50198152439025,nan,-71.8852374390244,nan,-2.0,0.0,4230.1245,0.0,0.0,0.0,0.0
1836.0,28.0,41.0,64.0,38.0,40.0,nan,-0.6,-5.66,4.51,6.05,-87.27,258.79,21.48,13.14,-11.55,-0.54,0.56,0.41,-0.49,1.0,3.75,95.54,0.0931243,0.0,42.50198152439025,nan,-71.8852374390244,nan,-2.0,0.0,4230.1245,0.0,0.0,0.0,0.0
1862.0,0.0,15.0,101.0,51.0,23.0,nan,-3.51,-5.72,3.04,6.36,-86.91,258.6,8.53,10.69,3.71,-0.54,0.56,0.4,-0.49,1.0,3.75,95.54,0.0931243,0.0,42.50198152439025,nan,-71.8852374390244,nan,-2.0,0.0,4230.1245,0.0,0.0,0.0,0.0
1885.0,49.0,35.0,94.0,32.0,34.0,nan,-0.59,-9.68,2.24,6.42,-86.7,258.44,6.64,8.87,4.06,-0.54,0.56,0.4,-0.49,1.0,3.75,95.54,0.0931243,0.0,42.50198152439025,nan,-71.8852374390244,nan,-2.0,0.0,4230.1245,0.0,0.0,0.0,0.0
1904.0,46.0,43.0,79.0,53.0,39.0,nan,1.04,-11.24,2.41,6.18,-86.3,258.38,15.53,3.06,-6.72,-0.54,0.55,0.4,-0.49,1.0,3.75,95.54,0.0931243,0.0,42.50198152439025,nan,-71.8852374390244,nan,-2.0,0.0,4230.1245,0.0,0.0,0.0,0.0
1927.0,43.0,35.0,0.0,39.0,27.0,nan,0.06,-9.65,2.08,5.96,-85.9,258.41,16.02,-1.7,-7.7,-0.54,0.55,0.4,-0.49,1.0,3.75,95.54,0.0931243,0.0,42.50198152439025,nan,-71.8852374390244,nan,-2.0,0.0,4230.1245,0.0,0.0,0.0,0.0
1947.0,21.0,27.0,0.0,43.0,36.0,nan,0.16,-8.02,1.38,5.77,-85.63,258.46,10.42,-2.19,-5.53,-0.55,0.55,0.4,-0.49,1.0,3.75,95.54,0.0931243,0.0,42.50198152439025,nan,-71.8852374390244,nan,-2.0,0.0,4230.1245,0.0,0.0,0.0,0.0
1969.0,31.0,40.0,23.0,56.0,29.0,nan,0.19,-8.37,1.56,5.7,-85.4,258.49,8.04,-1.35,-0.21,-0.55,0.55,0.4,-0.49,1.0,3.75,95.54,0.0931243,0.0,42.50198152439025,nan,-71.8852374390244,nan,-2.0,0.0,4230.1245,0.0,0.0,0.0,0.0
1988.0,26.0,22.0,13.0,59.0,39.0,nan,0.65,-7.99,1.05,5.57,-85.25,258.52,5.87,-1.49,-0.91,-0.55,0.55,0.4,-0.49,1.0,3.75,95.54,0.0931243,0.0,42.50198152439025,nan,-71.8852374390244,nan,-2.0,0.0,4230.1245,0.0,0.0,0.0,0.0
2011.0,37.0,40.0,7.0,56.0,34.0,nan,1.25,-7.83,0.61,5.4,-85.13,258.55,6.08,-1.56,-1.12,-0.55,0.55,0.4,-0.49,1.0,3.75,95.54,0.0931243,0.0,42.50198152439025,nan,-71.8852374390244,nan,-2.0,0.0,4230.1245,0.0,0.0,0.0,0.0
2031.0,27.0,22.0,6.0,55.0,47.0,nan,2.82,-8.01,0.36,5.12,-84.97,258.58,8.81,-2.05,-1.89,-0.55,0.54,0.4,-0.49,1.0,3.75,95.54,0.0931243,0.0,42.50198152439025,nan,-71.8852374390244,nan,-2.0,0.0,4230.1245,0.0,0.0,0.0,0.0
2053.0,39.0,30.0,28.0,48.0,34.0,nan,3.54,-8.45,-0.25,4.47,-84.49,258.7,17.35,-3.94,-2.66,-0.56,0.54,0.4,-0.49,1.0,3.75,95.52,0.0931222,0.0,42.50198152439025,nan,-71.8852374390244,nan,-2.0,0.0,4230.1245,0.0,0.0,0.0,0.0
2085.0,37.0,33.0,4.0,44.0,30.0,nan,3.0,-8.42,1.22,4.18,-84.16,258.8,14.83,-5.48,-2.59,-0.56,0.53,0.4,-0.49,1.0,3.75,95.52,0.0931222,0.0,42.50198152439025,nan,-71.8852374390244,nan,-2.0,0.0,4230.1245,0.0,0.0,0.0,0.0
2105.0,30.0,24.0,0.0,51.0,31.0,nan,2.34,-7.95,1.23,3.95,-83.99,258.93,6.78,-6.46,-0.98,-0.56,0.53,0.41,-0.49,1.0,3.75,95.52,0.0931222,0.0,42.50198152439025,nan,-71.8852374390244,nan,-2.0,0.0,4230.1245,0.0,0.0,0.0,0.0
2127.0,23.0,30.0,0.0,43.0,27.0,nan,1.54,-8.14,1.62,3.77,-83.82,259.08,5.45,-7.58,-0.98,-0.56,0.53,0.41,-0.49,1.0,3.75,95.52,0.0931222,0.0,42.50198152439025,nan,-71.8852374390244,nan,-2.0,0.0,4230.1245,0.0,0.0,0.0,0.0
2147.0,34.0,33.0,0.0,79.0,49.0,nan,-0.1,-8.03,1.52,3.73,-83.68,259.25,4.26,-7.93,0.77,-0.56,0.53,0.41,-0.49,1.0,3.75,95.52,0.0931222,0.0,42.501934786585366,nan,-71.88523699186993,nan,-2.0,0.0,4230.1245,7153.1143,0.0,0.0,0.0
2169.0,31.0,25.0,0.0,59.0,41.0,nan,4.4,-11.33,4.64,3.15,-83.39,259.45,6.43,-11.64,-16.59,-0.56,0.52,0.41,-0.49,1.0,3.75,95.52,0.0931222,0.0,42.501934786585366,nan,-71.88523699186993,nan,-2.0,0.0,4230.1245,0.0,0.0,0.0,0.0
2189.0,23.0,31.0,15.0,37.0,27.0,nan,-5.07,-8.12,2.75,3.35,-83.17,259.68,4.96,-11.64,-2.17,-0.56,0.52,0.41,-0.49,1.0,3.75,95.52,0.0931222,0.0,42.501934786585366,nan,-71.88523699186993,nan,-2.0,0.0,4230.1245,0.0,0.0,0.0,0.0
2212.0,24.0,32.0,14.0,57.0,30.0,nan,-5.34,-6.97,-1.75,3.72,-83.36,259.86,-1.83,-8.77,4.2,-0.56,0.53,0.41,-0.5,1.0,3.75,95.52,0.0931222,0.0,42.501934786585366,nan,-71.88523699186993,nan,-2.0,0.0,4230.1245,0.0,0.0,0.0,0.0
2231.0,25.0,41.0,22.0,41.0,34.0,nan,-1.91,-8.71,0.34,3.75,-83.35,260.04,2.09,-9.47,-1.89,-0.56,0.52,0.41,-0.5,1.0,3.75,95.52,0.0931222,0.0,42.501934786585366,nan,-71.88523699186993,nan,-2.0,0.0,4230.1245,0.0,0.0,0.0,0.0
2254.0,30.0,38.0,28.0,63.0,30.0,nan,-1.98,-7.92,0.23,4.03,-83.43,260.29,1.53,-6.04,1.54,-0.56,0.53,0.41,-0.5,1.0,3.75,95.52,0.0931222,0.0,42.501934786585366,nan,-71.88523699186993,nan,-2.0,0.0,4230.1245,0.0,0.0,0.0,0.0
2280.0,29.0,44.0,17.0,53.0,32.0,nan,-0.94,-8.05,0.96,4.05,-83.39,260.4,1.67,-5.41,0.49,-0.55,0.52,0.41,-0.5,1.0,3.75,95.52,0.0931222,0.0,42.501934786585366,nan,-71.88523699186993,nan,-2.0,0.0,4230.1245,0.0,0.0,0.0,0.0
2303.0,28.0,33.0,22.0,47.0,38.0,nan,0.04,-7.9,1.47,4.02,-83.33,260.51,0.69,-5.13,0.98,-0.55,0.52,0.41,-0.5,1.0,3.75,95.52,0.0931222,0.0,42.501934786585366,nan,-71.88523699186993,nan,-2.0,0.0,4230.1245,0.0,0.0,0.0,0.0
2322.0,29.0,51.0,32.0,66.0,49.0,nan,0.62,-7.81,1.13,3.95,-83.3,260.63,-0.08,-5.62,1.75,-0.55,0.52,0.41,-0.5,1.0,3.75,95.52,0.0931222,0.0,42.501934786585366,nan,-71.88523699186993,nan,-2.0,0.0,4230.1245,0.0,0.0,0.0,0.0
2345.0,43.0,44.0,26.0,41.0,29.0,nan,0.91,-8.0,0.39,3.87,-83.32,260.75,0.83,-6.32,1.75,-0.55,0.52,0.41,-0.5,1.0,3.75,95.52,0.0931222,0.0,42.501934786585366,nan,-71.88523699186993,nan,-2.0,0.0,4230.1245,0.0,0.0,0.0,0.0
2364.0,29.0,35.0,33.0,67.0,45.0,nan,0.44,-8.07,0.52,3.82,-83.29,260.88,2.72,-6.46,1.89,-0.55,0.52,0.41,-0.5,1.0,3.75,95.52,0.0931222,0.0,42.501934786585366,nan,-71.88523699186993,nan,-2.0,0.0,4230.1245,0.0,0.0,0.0,0.0
2388.0,38.0,35.0,25.0,55.0,39.0,nan,-0.36,-7.86,0.67,3.85,-83.23,261.01,3.21,-6.25,2.59,-0.55,0.52,0.41,-0.5,1.0,3.75,95.52,0.0931222,0.0,42.501934786585366,nan,-71.88523699186993,nan,-2.0,0.0,4230.1245,0.0,0.0,0.0,0.0
2407.0,34.0,39.0,23.0,48.0,26.0,nan,-0.47,-7.93,0.65,3.88,-83.19,261.14,2.86,-6.18,2.38,-0.55,0.52,0.41,-0.5,1.0,3.75,95.52,0.0931222,0.0,42.501934786585366,nan,-71.88523699186993,nan,-2.0,0.0,4230.1245,0.0,0.0,0.0,0.0
2429.0,35.0,43.0,32.0,55.0,31.0,nan,-0.41,-7.93,1.02,3.89,-83.13,261.27,2.16,-6.25,2.1,-0.55,0.52,0.41,-0.5,1.0,3.75,95.52,0.0931222,0.0,42.501934786585366,nan,-71.88523699186993,nan,-2.0,0.0,4230.1245,0.0,0.0,0.0,0.0
2449.0,25.0,25.0,18.0,54.0,38.0,nan,-1.51,-8.02,0.82,4.0,-83.07,261.41,2.93,-6.67,2.59,-0.55,0.52,0.41,-0.51,1.0,3.75,95.52,0.0931222,0.0,42.501934786585366,nan,-71.88523699186993,nan,-2.0,0.0,4230.1245,0.0,0.0,0.0,0.0
2471.0,35.0,36.0,31.0,38.0,32.0,nan,-2.07,-7.97,0.58,4.29,-82.95,261.69,3.84,-6.67,1.96,-0.55,0.52,0.41,-0.51,1.0,3.75,95.52,0.0931222,0.0,42.501934786585366,nan,-71.88523699186993,nan,-2.0,0.0,4230.1245,0.0,0.0,0.0,0.0
2498.0,32.0,48.0,34.0,58.0,39.0,nan,-1.41,-7.78,0.91,4.37,-82.91,261.81,1.81,-5.83,1.96,-0.55,0.52,0.41,-0.51,1.0,3.75,95.52,0.0931222,0.0,42.501934786585366,nan,-71.88523699186993,nan,-2.0,0.0,4230.1245,0.0,0.0,0.0,0.0
2520.0,25.0,47.0,47.0,53.0,34.0,nan,-1.24,-7.87,1.07,4.44,-82.86,261.93,1.74,-5.69,1.75,-0.55,0.52,0.41,-0.51,1.0,3.75,95.53,0.0931203,0.0,42.501934786585366,nan,-71.88523699186993,nan,-2.0,0.0,4230.1245,0.0,0.0,0.0,0.0
2542.0,35.0,32.0,30.0,29.0,25.0,nan,-1.28,-7.81,0.94,4.51,-82.81,262.05,2.02,-5.9,1.75,-0.55,0.52,0.41,-0.51,1.0,3.75,95.53,0.0931203,0.0,42.501934786585366,nan,-71.88523699186993,nan,-2.0,0.0,4230.1245,0.0,0.0,0.0,0.0
2565.0,35.0,35.0,31.0,66.0,39.0,nan,-1.34,-7.93,0.77,4.58,-82.77,262.18,2.3,-6.25,1.75,-0.55,0.52,0.41,-0.51,1.0,3.75,95.53,0.0931203,0.0,42.501934786585366,nan,-71.88523699186993,nan,-2.0,0.0,4230.1245,0.0,0.0,0.0,0.0
2584.0,32.0,35.0,34.0,53.0,36.0,nan,-1.15,-8.1,0.61,4.62,-82.73,262.3,2.93,-5.97,1.47,-0.55,0.52,0.41,-0.51,1.0,3.75,95.53,0.0931203,0.0,42.501934786585366,nan,-71.88523699186993,nan,-2.0,0.0,4230.1245,0.0,0.0,0.0,0.0
2607.0,33.0,41.0,34.0,56.0,31.0,nan,-1.03,-8.14,0.69,4.67,-82.68,262.41,3.28,-5.2,1.61,-0.55,0.52,0.41,-0.51,1.0,3.75,95.53,0.0931203,0.0,42.501934786585366,nan,-71.88523699186993,nan,-2.0,0.0,4230.1245,0.0,0.0,0.0,0.0
2626.0,27.0,36.0,22.0,32.0,24.0,nan,-1.2,-8.07,0.6,4.73,-82.63,262.5,3.77,-4.43,1.89,-0.55,0.52,0.41,-0.52,1.0,3.75,95.53,0.0931203,0.0,42.501934786585366,nan,-71.88523699186993,nan,-2.0,0.0,4230.1245,0.0,0.0,0.0,0.0
2649.0,33.0,43.0,28.0,51.0,32.0,nan,-1.12,-7.89,0.93,4.85,-82.51,262.64,3.21,-3.31,1.54,-0.55,0.52,0.41,-0.52,1.0,3.75,95.53,0.0931203,0.0,42.501934786585366,nan,-71.88523699186993,nan,-2.0,0.0,4230.1245,0.0,0.0,0.0,0.0
2676.0,21.0,42.0,25.0,51.0,38.0,nan,-1.12,-7.89,0.93,4.85,-82.51,262.64,0.0,0.0,0.0,-0.55,0.52,0.41,-0.52,1.0,3.75,95.53,0.0931203,0.0,42.501934786585366,nan,-71.88523699186993,nan,-2.0,0.0,4230.1245,0.0,0.0,0.0,0.0
2693.0,46.0,50.0,34.0,34.0,23.0,nan,-1.18,-7.89,0.8,4.95,-82.36,262.77,4.19,-3.03,1.61,-0.55,0.52,0.41,-0.52,1.0,3.75,95.53,0.0931203,0.0,42.501934786585366,nan,-71.88523699186993,nan,-2.0,0.0,4230.1245,0.0,0.0,0.0,0.0
2717.0,37.0,33.0,34.0,36.0,33.0,nan,-1.33,-7.99,0.67,5.02,-82.26,262.83,6.15,-2.75,1.4,-0.55,0.51,0.41,-0.52,1.0,3.75,95.53,0.0931203,0.0,42.501934786585366,nan,-71.88523699186993,nan,-2.0,0.0,4230.1245,0.0,0.0,0.0,0.0
2740.0,40.0,43.0,25.0,53.0,32.0,nan,-1.45,-7.86,0.6,5.09,-82.15,262.87,6.92,-2.19,1.26,-0.55,0.51,0.41,-0.52,1.0,3.75,95.53,0.0931203,0.0,42.501934786585366,nan,-71.88523699186993,nan,-2.0,0.0,4230.1245,0.0,0.0,0.0,0.0
2760.0,31.0,45.0,29.0,53.0,30.0,nan,-1.45,-7.88,0.65,5.16,-82.05,262.9,6.29,-1.56,0.84,-0.55,0.51,0.41,-0.52,1.0,3.75,95.53,0.0931203,0.0,42.501934786585366,nan,-71.88523699186993,nan,-2.0,0.0,4230.1245,0.0,0.0,0.0,0.0
2782.0,32.0,36.0,36.0,37.0,24.0,nan,-1.13,-7.9,0.91,5.2,-81.98,262.92,4.05,-1.14,0.84,-0.55,0.51,0.41,-0.52,1.0,3.75,95.53,0.0931203,0.0,42.501934786585366,nan,-71.88523699186993,nan,-2.0,0.0,4230.1245,0.0,0.0,0.0,0.0
2802.0,36.0,38.0,28.0,54.0,28.0,nan,-1.32,-7.93,0.96,5.26,-81.92,262.94,3.7,-0.86,1.19,-0.55,0.51,0.41,-0.52,1.0,3.75,95.53,0.0931203,0.0,42.501934786585366,nan,-71.88523699186993,nan,-2.0,0.0,4230.1245,0.0,0.0,0.0,0.0
2824.0,47.0,47.0,33.0,55.0,41.0,nan,-1.17,-7.92,0.95,5.31,-81.84,262.96,4.4,-0.86,1.05,-0.55,0.51,0.41,-0.52,1.0,3.75,95.53,0.0931203,0.0,42.501934786585366,nan,-71.88523699186993,nan,-2.0,0.0,4230.1245,0.0,0.0,0.0,0.0
2844.0,36.0,44.0,33.0,56.0,49.0,nan,-0.8,-7.86,0.81,5.34,-81.76,262.98,4.89,-0.93,1.05,-0.55,0.51,0.41,-0.52,1.0,3.75,95.53,0.0931203,0.0,42.501934786585366,nan,-71.88523699186993,nan,-2.0,0.0,4230.1245,0.0,0.0,0.0,0.0
2866.0,33.0,48.0,26.0,55.0,32.0,nan,0.19,-7.93,0.84,5.29,-81.67,263.0,5.59,-0.72,1.12,-0.55,0.51,0.41,-0.52,1.0,3.75,95.53,0.0931203,0.0,42.501934786585366,nan,-71.88523699186993,nan,-2.0,0.0,4230.1245,0.0,0.0,0.0,0.0
2886.0,44.0,33.0,39.0,50.0,30.0,nan,0.57,-8.06,0.94,5.23,-81.55,263.01,6.78,-0.23,1.75,-0.55,0.51,0.41,-0.52,1.0,3.75,95.53,0.0931203,0.0,42.501934786585366,nan,-71.88523699186993,nan,-2.0,0.0,4230.1245,0.0,0.0,0.0,0.0
2908.0,24.0,39.0,32.0,68.0,36.0,nan,0.09,-7.94,0.62,5.17,-81.22,262.99,10.91,0.68,1.82,-0.55,0.51,0.41,-0.52,1.0,3.75,95.53,0.0931203,0.0,42.501934786585366,nan,-71.88523699186993,nan,-2.0,0.0,4230.1245,0.0,0.0,0.0,0.0
2935.0,31.0,47.0,33.0,36.0,32.0,nan,0.21,-7.89,0.8,5.14,-80.99,262.97,13.22,1.17,1.75,-0.55,0.51,0.4,-0.53,1.0,3.75,95.53,0.0931203,0.0,42.501934786585366,nan,-71.88523699186993,nan,-2.0,0.0,4230.1245,0.0,0.0,0.0,0.0
2957.0,40.0,34.0,38.0,53.0,25.0,nan,0.76,-8.0,1.36,5.08,-80.71,262.95,13.57,1.38,1.89,-0.55,0.51,0.4,-0.53,1.0,3.75,95.53,0.0931203,0.0,42.501934786585366,nan,-71.88523699186993,nan,-2.0,0.0,4230.1245,0.0,0.0,0.0,0.0
2977.0,33.0,31.0,15.0,51.0,27.0,nan,0.38,-7.95,0.95,5.06,-80.52,262.91,11.05,2.36,2.59,-0.55,0.51,0.4,-0.53,1.0,3.76,95.52,0.0931282,0.0,42.501934786585366,nan,-71.88523699186993,nan,-2.0,0.0,4230.1245,0.0,0.0,0.0,0.0
3002.0,33.0,39.0,33.0,59.0,33.0,nan,-0.1,-8.1,0.77,5.07,-80.35,262.84,10.84,3.83,2.17,-0.55,0.51,0.4,-0.53,1.0,3.76,95.52,0.0931282,0.0,42.501934786585366,nan,-71.88523699186993,nan,-2.0,0.0,4230.1245,0.0,0.0,0.0,0.0
3022.0,32.0,41.0,32.0,48.0,35.0,nan,-0.8,-8.0,0.63,5.13,-80.18,262.72,11.47,6.07,1.4,-0.55,0.51,0.4,-0.53,1.0,3.76,95.52,0.0931282,0.0,42.501934786585366,nan,-71.88523699186993,nan,-2.0,0.0,4230.1245,0.0,0.0,0.0,0.0
3044.0,32.0,45.0,33.0,72.0,39.0,nan,-1.33,-7.77,-0.21,5.24,-80.07,262.53,11.96,9.57,1.68,-0.56,0.51,0.4,-0.53,1.0,3.76,95.52,0.0931282,0.0,42.501934786585366,nan,-71.88523699186993,nan,-2.0,0.0,4230.1245,0.0,0.0,0.0,0.0
3064.0,32.0,39.0,23.0,58.0,47.0,nan,-0.6,-8.14,-0.26,5.29,-79.96,262.24,12.94,13.84,0.56,-0.56,0.51,0.4,-0.53,1.0,3.76,95.52,0.0931282,0.0,42.501934786585366,nan,-71.88523699186993,nan,-2.0,0.0,4230.1245,0.0,0.0,0.0,0.0
3087.0,35.0,34.0,27.0,65.0,49.0,nan,-1.05,-8.26,-0.03,5.42,-79.9,261.43,3.98,21.68,-1.12,-0.56,0.51,0.39,-0.52,1.0,3.76,95.52,0.0931282,0.0,42.501934786585366,nan,-71.88523699186993,nan,-2.0,0.0,4230.1245,0.0,0.0,0.0,0.0
3116.0,39.0,33.0,33.0,50.0,31.0,nan,-1.57,-8.17,2.04,5.52,-79.82,261.0,3.77,21.75,-1.19,-0.56,0.51,0.39,-0.52,1.0,3.76,95.52,0.0931282,0.0,42.501934786585366,nan,-71.88523699186993,nan,-2.0,0.0,4230.1245,0.0,0.0,0.0,0.0
3136.0,30.0,27.0,45.0,51.0,37.0,nan,-0.85,-7.56,-0.68,5.61,-79.95,260.56,3.49,21.68,-0.14,-0.56,0.51,0.39,-0.52,1.0,3.76,95.52,0.0931282,0.0,42.501934786585366,nan,-71.88523699186993,nan,-2.0,0.0,4230.1245,0.0,0.0,0.0,0.0
3155.0,21.0,19.0,24.0,59.0,39.0,nan,0.13,-9.3,5.97,5.6,-79.46,260.15,15.11,21.4,-1.26,-0.57,0.51,0.38,-0.52,1.0,3.76,95.52,0.0931282,0.0,42.501934786585366,nan,-71.88523699186993,nan,-2.0,0.0,4230.1245,0.0,0.0,0.0,0.0
3178.0,36.0,34.0,28.0,55.0,37.0,nan,-0.12,-7.74,-3.09,5.68,-79.82,259.57,0.27,28.12,0.84,-0.57,0.52,0.38,-0.51,1.0,3.76,95.52,0.0931282,0.0,42.501934786585366,nan,-71.88523699186993,nan,-2.0,0.0,4230.1245,0.0,0.0,0.0,0.0
3197.0,20.0,41.0,34.0,52.0,32.0,nan,0.92,-8.89,1.37,5.6,-79.73,258.92,8.53,31.9,-3.92,-0.57,0.52,0.38,-0.51,1.0,3.76,95.52,0.0931282,0.0,42.501934786585366,nan,-71.88523699186993,nan,-2.0,0.0,4230.1245,0.0,0.0,0.0,0.0
3220.0,34.0,35.0,23.0,56.0,40.0,nan,-0.2,-6.9,-0.28,5.63,-79.76,258.2,8.18,35.4,-2.87,-0.57,0.52,0.37,-0.51,1.0,3.76,95.52,0.0931282,0.0,42.501888048780486,nan,-71.88523654471544,nan,-2.0,0.0,4230.1245,7153.1143,0.0,0.0,0.0
3240.0,30.0,37.0,36.0,49.0,40.0,nan,1.03,-9.01,-1.42,5.49,-79.98,257.42,2.02,37.29,-7.77,-0.58,0.52,0.37,-0.5,1.0,3.76,95.52,0.0931282,0.0,42.501888048780486,nan,-71.88523654471544,nan,-2.0,0.0,4230.1245,0.0,0.0,0.0,0.0
3262.0,25.0,13.0,21.0,54.0,27.0,nan,0.83,-8.69,-4.07,5.36,-80.33,256.6,2.58,38.13,-8.33,-0.58,0.53,0.37,-0.5,1.0,3.76,95.52,0.0931282,0.0,42.501888048780486,nan,-71.88523654471544,nan,-2.0,0.0,4230.1245,0.0,0.0,0.0,0.0
3282.0,34.0,41.0,47.0,57.0,34.0,nan,0.14,-8.37,-2.0,5.21,-80.57,255.75,3.42,39.88,-11.76,-0.58,0.53,0.37,-0.49,1.0,3.76,95.52,0.0931282,0.0,42.501888048780486,nan,-71.88523654471544,nan,-2.0,0.0,4230.1245,0.0,0.0,0.0,0.0
3304.0,31.0,56.0,34.0,49.0,30.0,nan,-0.98,-6.21,-2.09,5.07,-81.25,253.89,-2.11,45.34,-10.43,-0.59,0.54,0.36,-0.48,1.0,3.76,95.52,0.0931282,0.0,42.501888048780486,nan,-71.88523654471544,nan,-2.0,0.0,4230.1245,0.0,0.0,0.0,0.0
3331.0,38.0,62.0,33.0,52.0,34.0,nan,-0.98,-6.21,-2.09,5.07,-81.25,253.89,0.0,0.0,0.0,-0.59,0.54,0.36,-0.48,1.0,3.76,95.52,0.0931282,0.0,42.501888048780486,nan,-71.88523654471544,nan,-2.0,0.0,4230.1245,0.0,0.0,0.0,0.0
3349.0,21.0,57.0,19.0,61.0,56.0,nan,-0.18,-7.02,0.04,5.13,-81.63,251.84,-0.99,52.27,-0.42,-0.6,0.55,0.36,-0.47,1.0,3.76,95.52,0.0931282,0.0,42.501888048780486,nan,-71.88523654471544,nan,-2.0,0.0,4230.1245,0.0,0.0,0.0,0.0
3373.0,4.0,0.0,0.0,36.0,27.0,nan,-0.72,-8.09,2.11,5.29,-81.51,250.73,7.83,55.77,-0.42,-0.6,0.55,0.35,-0.46,1.0,3.76,95.52,0.0931282,0.0,42.501888048780486,nan,-71.88523654471544,nan,-2.0,0.0,4230.1245,0.0,0.0,0.0,0.0
3396.0,35.0,56.0,39.0,65.0,47.0,nan,-0.46,-8.73,2.4,5.38,-81.42,249.59,6.29,57.31,-2.66,-0.6,0.56,0.34,-0.46,1.0,3.76,95.52,0.0931282,0.0,42.501888048780486,nan,-71.88523654471544,nan,-2.0,0.0,4230.1245,0.0,0.0,0.0,0.0
3415.0,36.0,41.0,32.0,54.0,37.0,nan,0.3,-7.55,1.26,5.39,-81.46,248.41,3.21,59.06,-4.76,-0.61,0.56,0.34,-0.45,1.0,3.76,95.52,0.0931282,0.0,42.501888048780486,nan,-71.88523654471544,nan,-2.0,0.0,4230.1245,0.0,0.0,0.0,0.0
3437.0,36.0,29.0,25.0,69.0,31.0,nan,0.35,-6.87,0.59,5.45,-81.57,247.18,2.16,61.09,-1.54,-0.61,0.56,0.33,-0.44,1.0,3.75,95.53,0.0931331,0.0,42.501888048780486,nan,-71.88523654471544,nan,-2.0,0.0,4230.1245,0.0,0.0,0.0,0.0
3459.0,27.0,18.0,10.0,54.0,33.0,nan,-0.23,-7.89,1.03,5.61,-81.62,245.87,4.26,66.27,-0.21,-0.62,0.57,0.32,-0.44,1.0,3.75,95.53,0.0931331,0.0,42.501888048780486,nan,-71.88523654471544,nan,-2.0,0.0,4230.1245,0.0,0.0,0.0,0.0
3482.0,50.0,37.0,36.0,55.0,26.0,nan,-0.9,-8.03,-0.84,5.76,-81.83,244.35,4.19,74.81,-3.64,-0.62,0.57,0.32,-0.43,1.0,3.75,95.53,0.0931331,0.0,42.501888048780486,nan,-71.88523654471544,nan,-2.0,0.0,4230.1245,0.0,0.0,0.0,0.0
3502.0,32.0,47.0,42.0,55.0,35.0,nan,-1.12,-8.12,-1.35,5.89,-82.03,242.64,6.99,84.05,-6.23,-0.63,0.58,0.31,-0.42,1.0,3.75,95.53,0.0931331,0.0,42.501888048780486,nan,-71.88523654471544,nan,-2.0,0.0,4230.1245,0.0,0.0,0.0,0.0
3524.0,28.0,40.0,27.0,51.0,33.0,nan,-1.67,-7.09,-1.94,6.2,-82.84,238.74,-1.06,98.54,-7.21,-0.63,0.6,0.29,-0.4,1.0,3.75,95.53,0.0931331,0.0,42.501888048780486,nan,-71.88523654471544,nan,-2.0,0.0,4230.1245,0.0,0.0,0.0,0.0
3550.0,51.0,63.0,46.0,45.0,52.0,nan,-1.67,-5.47,-0.94,6.46,-83.1,236.68,6.36,101.55,-4.9,-0.64,0.6,0.28,-0.39,1.0,3.75,95.53,0.0931331,0.0,42.501888048780486,nan,-71.88523654471544,nan,-2.0,0.0,4230.1245,0.0,0.0,0.0,0.0
3573.0,42.0,82.0,40.0,42.0,33.0,nan,-0.28,-5.52,-1.2,6.66,-83.34,234.57,9.09,104.56,-0.91,-0.65,0.61,0.27,-0.38,1.0,3.75,95.53,0.0931331,0.0,42.501888048780486,nan,-71.88523654471544,nan,-2.0,0.0,4230.1245,0.0,0.0,0.0,0.0
3593.0,14.0,81.0,22.0,32.0,29.0,nan,-6.54,-3.43,-2.18,7.86,-83.61,232.38,9.86,110.93,24.92,-0.65,0.62,0.25,-0.37,1.0,3.75,95.53,0.0931331,0.0,42.501888048780486,nan,-71.88523654471544,nan,-2.0,0.0,4230.1245,0.0,0.0,0.0,0.0
3616.0,0.0,0.0,0.0,0.0,0.0,nan,-3.2,-5.62,-0.37,8.8,-83.83,230.17,9.65,112.12,24.15,-0.65,0.63,0.23,-0.36,1.0,3.75,95.53,0.0931331,0.0,42.501888048780486,nan,-71.88523654471544,nan,-2.0,0.0,4230.1245,0.0,0.0,0.0,0.0
3635.0,157.0,104.0,133.0,110.0,94.0,nan,1.21,-15.99,14.96,6.72,-82.63,227.97,57.81,99.24,-111.3,-0.67,0.62,0.23,-0.34,1.0,3.75,95.53,0.0931331,0.0,42.501888048780486,nan,-71.88523654471544,nan,-2.0,0.0,4230.1245,0.0,0.0,0.0,0.0
3658.0,39.0,117.0,41.0,53.0,32.0,nan,2.82,-7.6,3.95,6.15,-82.92,226.28,-14.15,82.44,-27.37,-0.67,0.62,0.22,-0.33,1.0,3.75,95.53,0.0931331,0.0,42.501888048780486,nan,-71.88523654471544,nan,-2.0,0.0,4230.1245,0.0,0.0,0.0,0.0
3677.0,0.0,0.0,0.0,16.0,16.0,nan,-2.45,-3.48,-3.85,6.11,-84.27,224.86,-39.07,65.99,-19.95,-0.67,0.63,0.22,-0.32,1.0,3.75,95.53,0.0931331,0.0,42.501888048780486,nan,-71.88523654471544,nan,-2.0,0.0,4230.1245,0.0,0.0,0.0,0.0
3700.0,36.0,43.0,46.0,50.0,36.0,nan,0.35,-9.65,9.97,5.96,-84.27,223.96,-13.45,46.39,-8.96,-0.67,0.64,0.21,-0.31,1.0,3.75,95.53,0.0931331,0.0,42.501888048780486,nan,-71.88523654471544,nan,-2.0,0.0,4230.1245,0.0,0.0,0.0,0.0
3719.0,36.0,49.0,36.0,53.0,48.0,nan,-0.07,-8.74,11.7,5.84,-83.8,223.53,4.68,22.59,-6.79,-0.68,0.63,0.21,-0.31,1.0,3.75,95.53,0.0931331,0.0,42.501888048780486,nan,-71.88523654471544,nan,-2.0,0.0,4230.1245,0.0,0.0,0.0,0.0
3742.0,16.0,7.0,6.0,53.0,39.0,nan,1.69,-8.18,4.04,5.57,-83.51,223.51,2.93,-3.38,1.19,-0.68,0.63,0.21,-0.31,1.0,3.75,95.53,0.0931331,0.0,42.501888048780486,nan,-71.88523654471544,nan,-2.0,0.0,4230.1245,0.0,0.0,0.0,0.0
3767.0,40.0,52.0,43.0,64.0,30.0,nan,1.18,-7.85,1.76,5.48,-83.4,223.63,1.88,-5.13,3.22,-0.68,0.63,0.21,-0.31,1.0,3.75,95.53,0.0931331,0.0,42.501888048780486,nan,-71.88523654471544,nan,-2.0,0.0,4230.1245,0.0,0.0,0.0,0.0
3790.0,23.0,36.0,31.0,50.0,32.0,nan,0.59,-7.94,1.13,5.43,-83.36,223.75,0.62,-5.69,2.94,-0.68,0.63,0.21,-0.31,1.0,3.75,95.53,0.0931331,0.0,42.501888048780486,nan,-71.88523654471544,nan,-2.0,0.0,4230.1245,0.0,0.0,0.0,0.0
3810.0,26.0,38.0,36.0,52.0,39.0,nan,0.3,-8.01,1.35,5.4,-83.3,223.89,0.76,-6.39,2.94,-0.68,0.63,0.22,-0.31,1.0,3.75,95.53,0.0931331,0.0,42.501888048780486,nan,-71.88523654471544,nan,-2.0,0.0,4230.1245,0.0,0.0,0.0,0.0
3832.0,35.0,41.0,37.0,56.0,32.0,nan,-0.8,-7.69,1.53,5.46,-83.26,224.04,-0.64,-7.02,3.92,-0.68,0.63,0.22,-0.31,1.0,3.75,95.53,0.0931331,0.0,42.501888048780486,nan,-71.88523654471544,nan,-2.0,0.0,4230.1245,0.0,0.0,0.0,0.0
3852.0,32.0,36.0,26.0,41.0,40.0,nan,-0.89,-7.77,1.26,5.53,-83.24,224.2,-1.13,-7.44,3.57,-0.68,0.63,0.22,-0.31,1.0,3.75,95.53,0.0931331,0.0,42.501888048780486,nan,-71.88523654471544,nan,-2.0,0.0,4230.1245,0.0,0.0,0.0,0.0
3875.0,36.0,34.0,20.0,71.0,39.0,nan,-1.35,-7.88,0.85,5.64,-83.25,224.36,-1.06,-7.65,4.27,-0.68,0.63,0.22,-0.31,1.0,3.75,95.53,0.0931331,0.0,42.501888048780486,nan,-71.88523654471544,nan,-2.0,0.0,4230.1245,0.0,0.0,0.0,0.0
3895.0,31.0,36.0,28.0,49.0,37.0,nan,-1.95,-7.89,0.82,5.76,-83.22,224.51,1.46,-7.23,3.01,-0.68,0.63,0.22,-0.31,1.0,3.78,95.52,0.0931282,0.0,42.501888048780486,nan,-71.88523654471544,nan,-2.0,0.0,4230.1245,0.0,0.0,0.0,0.0
3919.0,31.0,40.0,31.0,51.0,26.0,nan,-1.85,-7.88,0.52,6.01,-83.23,224.74,-0.08,-4.5,2.17,-0.68,0.63,0.22,-0.32,1.0,3.78,95.52,0.0931282,0.0,42.501888048780486,nan,-71.88523654471544,nan,-2.0,0.0,4230.1245,0.0,0.0,0.0,0.0
3946.0,35.0,35.0,33.0,67.0,49.0,nan,-1.85,-7.88,0.52,6.01,-83.23,224.74,0.0,0.0,0.0,-0.68,0.63,0.22,-0.32,1.0,3.78,95.52,0.0931282,0.0,42.501888048780486,nan,-71.88523654471544,nan,-2.0,0.0,4230.1245,0.0,0.0,0.0,0.0
3963.0,36.0,46.0,34.0,62.0,53.0,nan,-1.41,-7.79,1.91,6.16,-83.15,224.93,-0.99,-4.43,2.59,-0.68,0.63,0.22,-0.32,1.0,3.78,95.52,0.0931282,0.0,42.501888048780486,nan,-71.88523654471544,nan,-2.0,0.0,4230.1245,0.0,0.0,0.0,0.0
3988.0,35.0,48.0,34.0,57.0,48.0,nan,-0.91,-7.79,1.51,6.2,-83.12,225.05,-1.06,-5.69,2.59,-0.68,0.63,0.22,-0.32,1.0,3.78,95.52,0.0931282,0.0,42.501888048780486,nan,-71.88523654471544,nan,-2.0,0.0,4230.1245,0.0,0.0,0.0,0.0
4011.0,36.0,35.0,27.0,47.0,33.0,nan,-0.26,-7.76,0.71,6.2,-83.15,225.19,-1.41,-6.67,2.8,-0.68,0.63,0.22,-0.32,1.0,3.78,95.52,0.0931282,0.0,42.501888048780486,nan,-71.88523654471544,nan,-2.0,0.0,4230.1245,0.0,0.0,0.0,0.0
4030.0,36.0,45.0,27.0,35.0,30.0,nan,0.19,-8.06,0.73,6.16,-83.16,225.34,-0.5,-7.58,2.52,-0.68,0.63,0.22,-0.32,1.0,3.78,95.52,0.0931282,0.0,42.501888048780486,nan,-71.88523654471544,nan,-2.0,0.0,4230.1245,0.0,0.0,0.0,0.0
4053.0,49.0,28.0,29.0,58.0,37.0,nan,0.38,-7.95,0.38,6.11,-83.19,225.51,-0.36,-8.0,2.94,-0.68,0.63,0.22,-0.32,1.0,3.78,95.52,0.0931282,0.0,42.501888048780486,nan,-71.88523654471544,nan,-2.0,0.0,4230.1245,0.0,0.0,0.0,0.0
4072.0,37.0,34.0,34.0,51.0,33.0,nan,0.45,-7.86,0.57,6.05,-83.19,225.67,0.48,-8.21,3.01,-0.67,0.63,0.22,-0.32,1.0,3.78,95.52,0.0931282,0.0,42.501888048780486,nan,-71.88523654471544,nan,-2.0,0.0,4230.1245,0.0,0.0,0.0,0.0
4095.0,34.0,25.0,34.0,70.0,55.0,nan,0.45,-7.92,0.31,6.01,-83.21,225.84,0.41,-7.86,3.57,-0.67,0.63,0.22,-0.32,1.0,3.78,95.52,0.0931282,0.0,42.501888048780486,nan,-71.88523654471544,nan,-2.0,0.0,4230.1245,0.0,0.0,0.0,0.0
4114.0,43.0,45.0,38.0,46.0,46.0,nan,0.67,-8.16,1.05,5.94,-83.18,225.99,0.27,-7.65,2.59,-0.67,0.63,0.22,-0.32,1.0,3.78,95.52,0.0931282,0.0,42.50184131097561,nan,-71.88523609756099,nan,-2.0,0.0,4230.1245,7153.1143,0.0,0.0,0.0
4137.0,32.0,40.0,46.0,54.0,27.0,nan,-0.47,-7.89,0.46,5.96,-83.21,226.14,-0.71,-7.16,3.08,-0.67,0.63,0.22,-0.32,1.0,3.78,95.52,0.0931282,0.0,42.50184131097561,nan,-71.88523609756099,nan,-2.0,0.0,4230.1245,0.0,0.0,0.0,0.0
4157.0,30.0,32.0,22.0,52.0,40.0,nan,-1.37,-7.98,0.98,6.04,-83.24,226.26,-2.32,-5.83,2.66,-0.67,0.63,0.22,-0.33,1.0,3.78,95.52,0.0931282,0.0,42.50184131097561,nan,-71.88523609756099,nan,-2.0,0.0,4230.1245,0.0,0.0,0.0,0.0
4179.0,28.0,34.0,39.0,52.0,35.0,nan,-2.35,-7.9,0.69,6.31,-83.41,226.37,-5.47,-1.42,2.03,-0.67,0.63,0.22,-0.33,1.0,3.78,95.52,0.0931282,0.0,42.50184131097561,nan,-71.88523609756099,nan,-2.0,0.0,4230.1245,0.0,0.0,0.0,0.0
4206.0,46.0,31.0,30.0,33.0,22.0,nan,-3.09,-7.41,1.14,6.49,-83.47,226.39,-4.35,-0.65,0.77,-0.67,0.63,0.22,-0.33,1.0,3.78,95.52,0.0931282,0.0,42.50184131097561,nan,-71.88523609756099,nan,-2.0,0.0,4230.1245,0.0,0.0,0.0,0.0
4228.0,50.0,42.0,35.0,55.0,31.0,nan,-3.5,-7.31,0.88,6.7,-83.48,226.39,-0.64,-0.02,1.26,-0.67,0.63,0.22,-0.33,1.0,3.78,95.52,0.0931282,0.0,42.50184131097561,nan,-71.88523609756099,nan,-2.0,0.0,4230.1245,0.0,0.0,0.0,0.0
4248.0,39.0,54.0,44.0,60.0,52.0,nan,-2.45,-6.1,0.75,6.92,-83.48,226.39,-0.22,0.75,3.43,-0.67,0.63,0.22,-0.33,1.0,3.78,95.52,0.0931282,0.0,42.50184131097561,nan,-71.88523609756099,nan,-2.0,0.0,4230.1245,0.0,0.0,0.0,0.0
4270.0,19.0,34.0,0.0,36.0,23.0,nan,-1.19,-6.01,0.43,7.14,-83.5,226.37,0.55,1.94,8.68,-0.67,0.63,0.22,-0.33,1.0,3.78,95.52,0.0931282,0.0,42.50184131097561,nan,-71.88523609756099,nan,-2.0,0.0,4230.1245,0.0,0.0,0.0,0.0
4289.0,0.0,0.0,0.0,31.0,26.0,nan,-0.82,-10.79,1.57,7.23,-83.45,226.32,1.81,3.2,5.88,-0.67,0.63,0.22,-0.33,1.0,3.78,95.52,0.0931282,0.0,42.50184131097561,nan,-71.88523609756099,nan,-2.0,0.0,4230.1245,0.0,0.0,0.0,0.0
4312.0,116.0,102.0,98.0,72.0,38.0,nan,0.16,-8.6,0.54,7.13,-83.48,226.28,0.13,1.66,-1.33,-0.67,0.63,0.22,-0.33,1.0,3.78,95.52,0.0931282,0.0,42.50184131097561,nan,-71.88523609756099,nan,-2.0,0.0,4230.1245,0.0,0.0,0.0,0.0
4332.0,43.0,95.0,44.0,53.0,46.0,nan,0.19,-8.09,1.45,7.05,-83.41,226.23,1.81,2.43,0.21,-0.67,0.63,0.22,-0.33,1.0,3.78,95.52,0.0931282,0.0,42.50184131097561,nan,-71.88523609756099,nan,-2.0,0.0,4230.1245,0.0,0.0,0.0,0.0
4354.0,0.0,0.0,0.0,50.0,31.0,nan,0.48,-7.74,1.76,6.92,-83.27,226.12,0.69,3.41,1.96,-0.67,0.63,0.22,-0.33,1.0,3.76,95.5,0.0931331,0.0,42.50184131097561,nan,-71.88523609756099,nan,-2.0,0.0,4230.1245,0.0,0.0,0.0,0.0
4386.0,55.0,100.0,67.0,46.0,51.0,nan,0.95,-7.92,0.98,6.75,-83.29,226.05,-0.92,3.55,-2.24,-0.67,0.63,0.22,-0.33,1.0,3.76,95.5,0.0931331,0.0,42.50184131097561,nan,-71.88523609756099,nan,-2.0,0.0,4230.1245,0.0,0.0,0.0,0.0
4406.0,28.0,88.0,36.0,38.0,24.0,nan,0.12,-7.22,0.76,6.69,-83.38,225.95,-3.37,4.95,0.0,-0.67,0.63,0.22,-0.33,1.0,3.76,95.5,0.0931331,0.0,42.50184131097561,nan,-71.88523609756099,nan,-2.0,0.0,4230.1245,0.0,0.0,0.0,0.0
4428.0,43.0,103.0,40.0,53.0,35.0,nan,-0.99,-7.61,2.41,6.75,-83.3,225.85,-0.78,6.0,2.1,-0.67,0.63,0.22,-0.33,1.0,3.76,95.5,0.0931331,0.0,42.50184131097561,nan,-71.88523609756099,nan,-2.0,0.0,4230.1245,0.0,0.0,0.0,0.0
4448.0,32.0,93.0,45.0,50.0,35.0,nan,-0.43,-7.94,1.98,6.67,-83.28,225.73,-1.62,6.07,-2.8,-0.67,0.63,0.22,-0.33,1.0,3.76,95.5,0.0931331,0.0,42.50184131097561,nan,-71.88523609756099,nan,-2.0,0.0,4230.1245,0.0,0.0,0.0,0.0
4471.0,46.0,95.0,41.0,56.0,36.0,nan,-0.99,-7.7,1.03,6.68,-83.3,225.59,-0.71,6.98,-0.56,-0.67,0.63,0.22,-0.32,1.0,3.76,95.5,0.0931331,0.0,42.50184131097561,nan,-71.88523609756099,nan,-2.0,0.0,4230.1245,0.0,0.0,0.0,0.0
4490.0,10.0,88.0,33.0,45.0,31.0,nan,-0.48,-7.78,1.16,6.64,-83.34,225.43,-1.9,7.54,-1.12,-0.67,0.63,0.22,-0.32,1.0,3.76,95.5,0.0931331,0.0,42.50184131097561,nan,-71.88523609756099,nan,-2.0,0.0,4230.1245,0.0,0.0,0.0,0.0
4513.0,23.0,86.0,35.0,52.0,53.0,nan,-0.61,-7.03,0.98,6.61,-83.37,225.31,-1.83,6.21,-1.4,-0.67,0.63,0.22,-0.32,1.0,3.76,95.5,0.0931331,0.0,42.50184131097561,nan,-71.88523609756099,nan,-2.0,0.0,4230.1245,0.0,0.0,0.0,0.0
4533.0,32.0,52.0,29.0,58.0,49.0,nan,-0.58,-9.01,1.62,6.59,-83.33,225.17,0.97,6.98,-0.56,-0.67,0.63,0.22,-0.32,1.0,3.76,95.5,0.0931331,0.0,42.50184131097561,nan,-71.88523609756099,nan,-2.0,0.0,4230.1245,0.0,0.0,0.0,0.0
4555.0,4.0,34.0,31.0,61.0,36.0,nan,-0.77,-7.4,0.64,6.58,-83.33,224.89,-0.43,6.91,-0.35,-0.67,0.63,0.21,-0.32,1.0,3.76,95.5,0.0931331,0.0,42.50184131097561,nan,-71.88523609756099,nan,-2.0,0.0,4230.1245,0.0,0.0,0.0,0.0
4582.0,34.0,0.0,18.0,63.0,61.0,nan,-0.77,-7.4,0.64,6.58,-83.33,224.89,0.0,0.0,0.0,-0.67,0.63,0.21,-0.32,1.0,3.76,95.5,0.0931331,0.0,42.50184131097561,nan,-71.88523609756099,nan,-2.0,0.0,4230.1245,0.0,0.0,0.0,0.0
4599.0,28.0,0.0,14.0,63.0,53.0,nan,-0.62,-7.99,0.84,6.53,-83.33,224.67,-0.64,4.88,-0.35,-0.68,0.63,0.21,-0.32,1.0,3.76,95.5,0.0931331,0.0,42.50184131097561,nan,-71.88523609756099,nan,-2.0,0.0,4230.1245,0.0,0.0,0.0,0.0
4623.0,26.0,0.0,14.0,42.0,26.0,nan,-1.08,-7.71,1.65,6.56,-83.29,224.6,-0.29,3.76,0.49,-0.68,0.63,0.21,-0.32,1.0,3.76,95.5,0.0931331,0.0,42.50184131097561,nan,-71.88523609756099,nan,-2.0,0.0,4230.1245,0.0,0.0,0.0,0.0
4646.0,25.0,0.0,7.0,48.0,51.0,nan,-0.91,-7.7,0.44,6.58,-83.38,224.54,-2.39,2.85,0.14,-0.68,0.63,0.21,-0.32,1.0,3.76,95.5,0.0931331,0.0,42.50184131097561,nan,-71.88523609756099,nan,-2.0,0.0,4230.1245,0.0,0.0,0.0,0.0
4666.0,33.0,0.0,3.0,53.0,35.0,nan,-0.59,-7.67,-0.3,6.55,-83.53,224.46,-2.6,3.48,-0.49,-0.67,0.63,0.21,-0.32,1.0,3.76,95.5,0.0931331,0.0,42.50184131097561,nan,-71.88523609756099,nan,-2.0,0.0,4230.1245,0.0,0.0,0.0,0.0
4689.0,15.0,38.0,5.0,23.0,1.0,nan,0.69,-4.24,0.16,6.38,-83.62,224.37,-2.04,4.46,-1.4,-0.68,0.63,0.21,-0.32,1.0,3.76,95.5,0.0931331,0.0,42.50184131097561,nan,-71.88523609756099,nan,-2.0,0.0,4230.1245,0.0,0.0,0.0,0.0
4708.0,0.0,0.0,0.0,29.0,37.0,nan,3.88,-9.59,-1.73,5.93,-83.9,224.21,-5.75,6.14,-9.87,-0.68,0.63,0.22,-0.31,1.0,3.76,95.5,0.0931331,0.0,42.50184131097561,nan,-71.88523609756099,nan,-2.0,0.0,4230.1245,0.0,0.0,0.0,0.0
4733.0,48.0,41.0,27.0,53.0,52.0,nan,-1.07,-12.18,3.78,5.97,-83.64,224.03,8.6,9.36,1.33,-0.68,0.63,0.21,-0.31,1.0,3.76,95.5,0.0931331,0.0,42.50184131097561,nan,-71.88523609756099,nan,-2.0,0.0,4230.1245,0.0,0.0,0.0,0.0
4750.0,23.0,45.0,30.0,49.0,27.0,nan,-3.08,-7.2,2.03,6.22,-83.49,223.85,3.98,10.06,3.64,-0.68,0.63,0.21,-0.31,1.0,3.76,95.5,0.0931331,0.0,42.50184131097561,nan,-71.88523609756099,nan,-2.0,0.0,4230.1245,0.0,0.0,0.0,0.0
4773.0,31.0,45.0,23.0,54.0,27.0,nan,-0.2,-7.88,0.83,6.2,-83.47,223.65,2.23,9.99,0.14,-0.68,0.63,0.21,-0.31,1.0,3.76,95.5,0.0931331,0.0,42.50184131097561,nan,-71.88523609756099,nan,-2.0,0.0,4230.1245,0.0,0.0,0.0,0.0
4792.0,49.0,42.0,28.0,53.0,35.0,nan,0.61,-8.19,1.06,6.08,-83.4,223.43,4.68,10.55,-2.31,-0.68,0.63,0.21,-0.31,1.0,3.76,95.5,0.0931331,0.0,42.50184131097561,nan,-71.88523609756099,nan,-2.0,0.0,4230.1245,0.0,0.0,0.0,0.0
4815.0,46.0,44.0,34.0,41.0,22.0,nan,-0.95,-8.03,0.92,6.11,-83.27,222.94,5.31,12.72,0.28,-0.68,0.63,0.21,-0.31,1.0,3.76,95.54,0.0931331,0.0,42.50184131097561,nan,-71.88523609756099,nan,-2.0,0.0,4230.1245,0.0,0.0,0.0,0.0
4846.0,47.0,71.0,36.0,52.0,36.0,nan,-0.88,-7.89,0.89,6.13,-83.21,222.69,4.4,12.44,-0.49,-0.68,0.63,0.2,-0.3,1.0,3.76,95.54,0.0931331,0.0,42.50184131097561,nan,-71.88523609756099,nan,-2.0,0.0,4230.1245,0.0,0.0,0.0,0.0
4866.0,37.0,70.0,46.0,57.0,48.0,nan,-0.67,-8.07,1.48,6.13,-83.03,222.43,8.81,13.0,-1.12,-0.68,0.63,0.2,-0.3,1.0,3.76,95.54,0.0931331,0.0,42.50184131097561,nan,-71.88523609756099,nan,-2.0,0.0,4230.1245,0.0,0.0,0.0,0.0
4889.0,42.0,83.0,37.0,67.0,52.0,nan,-0.38,-8.16,0.52,6.11,-82.93,222.16,7.97,13.21,-0.7,-0.69,0.63,0.2,-0.3,1.0,3.76,95.54,0.0931331,0.0,42.50184131097561,nan,-71.88523609756099,nan,-2.0,0.0,4230.1245,0.0,0.0,0.0,0.0
4908.0,49.0,81.0,30.0,60.0,47.0,nan,-0.6,-8.78,-0.37,6.07,-82.95,221.86,5.03,14.19,-2.8,-0.69,0.63,0.2,-0.3,1.0,3.76,95.54,0.0931331,0.0,42.50184131097561,nan,-71.88523609756099,nan,-2.0,0.0,4230.1245,0.0,0.0,0.0,0.0
4931.0,32.0,87.0,48.0,51.0,30.0,nan,-0.4,-7.34,1.55,6.04,-82.74,221.6,9.58,13.21,-1.61,-0.69,0.63,0.2,-0.3,1.0,3.76,95.54,0.0931331,0.0,42.50184131097561,nan,-71.88523609756099,nan,-2.0,0.0,4230.1245,0.0,0.0,0.0,0.0
4950.0,12.0,61.0,32.0,45.0,34.0,nan,-0.64,-9.07,0.74,6.03,-82.69,221.33,5.31,13.14,-0.91,-0.69,0.63,0.2,-0.3,1.0,3.76,95.54,0.0931331,0.0,42.50184131097561,nan,-71.88523609756099,nan,-2.0,0.0,4230.1245,0.0,0.0,0.0,0.0
4973.0,0.0,35.0,26.0,52.0,36.0,nan,-0.88,-6.97,-1.32,5.95,-82.75,220.86,1.32,10.27,0.56,-0.69,0.63,0.19,-0.29,1.0,3.76,95.54,0.0931331,0.0,42.501794573170734,nan,-71.8852356504065,nan,-2.0,0.0,4230.1245,7153.1143,0.0,0.0,0.0
5000.0,0.0,17.0,47.0,43.0,25.0,nan,-0.32,-6.79,-1.12,5.94,-82.88,220.67,2.65,8.73,-0.14,-0.69,0.63,0.19,-0.29,1.0,3.76,95.54,0.0931331,0.0,42.501794573170734,nan,-71.8852356504065,nan,-2.0,0.0,4230.1245,0.0,0.0,0.0,0.0
5023.0,0.0,38.0,73.0,55.0,39.0,nan,-1.94,-8.59,-0.47,6.07,-82.66,220.52,16.65,7.4,2.17,-0.69,0.63,0.19,-0.29,1.0,3.76,95.54,0.0931331,0.0,42.501794573170734,nan,-71.8852356504065,nan,-2.0,0.0,4230.1245,0.0,0.0,0.0,0.0
5042.0,57.0,84.0,72.0,53.0,38.0,nan,-2.87,-6.72,-1.62,6.34,-82.65,220.39,10.63,5.79,4.41,-0.69,0.63,0.19,-0.29,1.0,3.76,95.54,0.0931331,0.0,42.501794573170734,nan,-71.8852356504065,nan,-2.0,0.0,4230.1245,0.0,0.0,0.0,0.0
5065.0,34.0,44.0,33.0,52.0,47.0,nan,-1.54,-10.3,2.99,6.38,-82.42,220.33,7.48,3.97,0.63,-0.69,0.63,0.19,-0.29,1.0,3.76,95.54,0.0931331,0.0,42.501794573170734,nan,-71.8852356504065,nan,-2.0,0.0,4230.1245,0.0,0.0,0.0,0.0
5084.0,33.0,16.0,27.0,51.0,47.0,nan,-0.55,-7.75,0.81,6.33,-82.39,220.24,2.51,4.11,-1.82,-0.69,0.63,0.19,-0.29,1.0,3.76,95.54,0.0931331,0.0,42.501794573170734,nan,-71.8852356504065,nan,-2.0,0.0,4230.1245,0.0,0.0,0.0,0.0
5107.0,35.0,0.0,14.0,45.0,47.0,nan,-0.3,-7.85,0.17,6.26,-82.4,220.13,3.21,4.53,-2.38,-0.69,0.63,0.19,-0.29,1.0,3.76,95.54,0.0931331,0.0,42.501794573170734,nan,-71.8852356504065,nan,-2.0,0.0,4230.1245,0.0,0.0,0.0,0.0
5126.0,10.0,34.0,23.0,58.0,52.0,nan,-0.84,-7.95,1.03,6.26,-82.32,220.01,4.96,5.93,-0.42,-0.69,0.63,0.19,-0.29,1.0,3.76,95.54,0.0931331,0.0,42.501794573170734,nan,-71.8852356504065,nan,-2.0,0.0,4230.1245,0.0,0.0,0.0,0.0
5149.0,39.0,91.0,87.0,48.0,28.0,nan,5.4,0.44,2.51,5.94,-82.0,220.03,3.91,1.73,9.52,-0.7,0.63,0.19,-0.29,1.0,3.76,95.54,0.0931331,0.0,42.501794573170734,nan,-71.8852356504065,nan,-2.0,0.0,4230.1245,0.0,0.0,0.0,0.0
5168.0,121.0,153.0,47.0,36.0,54.0,nan,-10.0,-9.67,7.09,6.69,-81.32,219.88,24.49,11.67,19.81,-0.7,0.63,0.18,-0.29,1.0,3.76,95.54,0.0931331,0.0,42.501794573170734,nan,-71.8852356504065,nan,-2.0,0.0,4230.1245,0.0,0.0,0.0,0.0
5192.0,46.0,167.0,46.0,50.0,24.0,nan,-0.27,-5.1,-2.99,6.3,-81.63,219.58,-2.11,4.74,-10.01,-0.7,0.63,0.18,-0.29,1.0,3.76,95.54,0.0931331,0.0,42.501794573170734,nan,-71.8852356504065,nan,-2.0,0.0,4230.1245,0.0,0.0,0.0,0.0
5218.0,0.0,172.0,55.0,62.0,37.0,nan,5.95,-14.64,4.71,5.74,-81.48,219.5,3.77,2.71,-15.26,-0.7,0.63,0.18,-0.29,1.0,3.76,95.54,0.0931331,0.0,42.501794573170734,nan,-71.8852356504065,nan,-2.0,0.0,4230.1245,0.0,0.0,0.0,0.0
5240.0,0.0,104.0,34.0,47.0,14.0,nan,-2.85,-7.47,2.2,5.85,-81.29,219.42,6.01,3.76,-2.66,-0.7,0.63,0.18,-0.29,1.0,3.76,95.54,0.0931331,0.0,42.501794573170734,nan,-71.8852356504065,nan,-2.0,0.0,4230.1245,0.0,0.0,0.0,0.0
5259.0,0.0,36.0,43.0,62.0,37.0,nan,-0.83,-7.4,1.64,5.86,-81.17,219.36,4.54,3.34,0.07,-0.7,0.62,0.18,-0.29,1.0,3.76,95.54,0.0931331,0.0,42.501794573170734,nan,-71.8852356504065,nan,-2.0,0.0,4230.1245,0.0,0.0,0.0,0.0
5282.0,21.0,0.0,11.0,52.0,40.0,nan,1.6,-8.78,0.8,5.57,-81.13,219.3,3.98,1.73,-6.79,-0.7,0.62,0.18,-0.28,1.0,3.75,95.53,0.0931313,0.0,42.501794573170734,nan,-71.8852356504065,nan,-2.0,0.0,4230.1245,0.0,0.0,0.0,0.0
5304.0,40.0,0.0,0.0,34.0,45.0,nan,0.69,-7.97,0.24,5.4,-81.16,219.25,2.3,1.59,-3.92,-0.7,0.62,0.18,-0.28,1.0,3.75,95.53,0.0931313,0.0,42.501794573170734,nan,-71.8852356504065,nan,-2.0,0.0,4230.1245,0.0,0.0,0.0,0.0
5326.0,38.0,0.0,0.0,34.0,36.0,nan,0.75,-8.12,0.75,5.23,-81.12,219.21,3.98,1.31,-3.5,-0.71,0.62,0.19,-0.28,1.0,3.75,95.53,0.0931313,0.0,42.501794573170734,nan,-71.8852356504065,nan,-2.0,0.0,4230.1245,0.0,0.0,0.0,0.0
5346.0,52.0,0.0,0.0,39.0,27.0,nan,0.6,-8.1,1.13,5.07,-81.0,219.16,6.71,1.94,-3.64,-0.71,0.62,0.19,-0.28,1.0,3.75,95.53,0.0931313,0.0,42.501794573170734,nan,-71.8852356504065,nan,-2.0,0.0,4230.1245,0.0,0.0,0.0,0.0
5370.0,17.0,0.0,0.0,40.0,19.0,nan,0.16,-8.25,0.35,4.81,-80.83,219.02,8.81,2.99,-3.78,-0.71,0.62,0.19,-0.28,1.0,3.75,95.53,0.0931313,0.0,42.501794573170734,nan,-71.8852356504065,nan,-2.0,0.0,4230.1245,0.0,0.0,0.0,0.0
5395.0,3.0,0.0,0.0,38.0,32.0,nan,0.16,-8.25,0.35,4.81,-80.83,219.02,0.0,0.0,0.0,-0.71,0.62,0.19,-0.28,1.0,3.75,95.53,0.0931313,0.0,42.501794573170734,nan,-71.8852356504065,nan,-2.0,0.0,4230.1245,0.0,0.0,0.0,0.0
5412.0,25.0,0.0,5.0,53.0,31.0,nan,0.07,-7.5,1.62,4.62,-80.58,218.81,6.78,5.09,-2.73,-0.71,0.62,0.19,-0.28,1.0,3.75,95.53,0.0931313,0.0,42.501794573170734,nan,-71.8852356504065,nan,-2.0,0.0,4230.1245,0.0,0.0,0.0,0.0
5437.0,34.0,0.0,57.0,40.0,46.0,nan,-1.25,-7.59,1.34,4.72,-80.51,218.72,3.63,5.3,2.1,-0.71,0.62,0.18,-0.28,1.0,3.75,95.53,0.0931313,0.0,42.501794573170734,nan,-71.8852356504065,nan,-2.0,0.0,4230.1245,0.0,0.0,0.0,0.0
5459.0,0.0,0.0,36.0,54.0,52.0,nan,1.23,-6.81,0.7,4.74,-80.65,218.62,-4.49,6.07,7.49,-0.71,0.62,0.18,-0.28,1.0,3.75,95.53,0.0931313,0.0,42.501794573170734,nan,-71.8852356504065,nan,-2.0,0.0,4230.1245,0.0,0.0,0.0,0.0
5479.0,82.0,91.0,86.0,72.0,60.0,nan,4.57,-13.1,-4.09,4.68,-81.23,218.48,-16.53,7.33,6.65,-0.71,0.62,0.19,-0.27,1.0,3.75,95.53,0.0931313,0.0,42.501794573170734,nan,-71.8852356504065,nan,-2.0,0.0,4230.1245,0.0,0.0,0.0,0.0
5502.0,80.0,191.0,102.0,36.0,23.0,nan,-3.48,-10.57,5.46,4.86,-81.05,218.44,0.34,3.13,2.87,-0.71,0.62,0.18,-0.28,1.0,3.75,95.53,0.0931313,0.0,42.501794573170734,nan,-71.8852356504065,nan,-2.0,0.0,4230.1245,0.0,0.0,0.0,0.0
5521.0,26.0,188.0,86.0,44.0,36.0,nan,-3.29,-8.18,4.36,4.95,-80.77,218.43,5.38,0.61,-3.15,-0.71,0.62,0.18,-0.28,1.0,3.75,95.53,0.0931313,0.0,42.501794573170734,nan,-71.8852356504065,nan,-2.0,0.0,4230.1245,0.0,0.0,0.0,0.0
5544.0,45.0,170.0,69.0,33.0,30.0,nan,-2.91,-6.71,0.78,5.18,-80.83,218.44,-1.9,-0.23,2.45,-0.71,0.62,0.18,-0.28,1.0,3.75,95.53,0.0931313,0.0,42.501794573170734,nan,-71.8852356504065,nan,-2.0,0.0,4230.1245,0.0,0.0,0.0,0.0
5564.0,112.0,211.0,85.0,68.0,40.0,nan,0.05,-7.87,0.89,5.06,-80.87,218.48,-0.92,-2.75,-2.66,-0.71,0.62,0.18,-0.28,1.0,3.75,95.53,0.0931313,0.0,42.501794573170734,nan,-71.8852356504065,nan,-2.0,0.0,4230.1245,0.0,0.0,0.0,0.0
5586.0,37.0,244.0,105.0,41.0,32.0,nan,-0.6,-8.01,0.54,4.99,-80.85,218.56,3.35,-4.5,-2.17,-0.71,0.62,0.18,-0.28,1.0,3.75,95.53,0.0931313,0.0,42.501794573170734,nan,-71.8852356504065,nan,-2.0,0.0,4230.1245,0.0,0.0,0.0,0.0
5606.0,0.0,182.0,95.0,60.0,47.0,nan,-0.52,-8.27,0.87,4.89,-80.86,218.64,0.97,-4.57,-3.99,-0.71,0.62,0.18,-0.28,1.0,3.75,95.53,0.0931313,0.0,42.501794573170734,nan,-71.8852356504065,nan,-2.0,0.0,4230.1245,0.0,0.0,0.0,0.0
5629.0,0.0,110.0,60.0,47.0,22.0,nan,-0.03,-7.92,0.61,4.59,-80.84,218.74,1.88,-3.38,-5.74,-0.71,0.62,0.19,-0.28,1.0,3.75,95.53,0.0931313,0.0,42.501794573170734,nan,-71.8852356504065,nan,-2.0,0.0,4230.1245,0.0,0.0,0.0,0.0
5655.0,36.0,29.0,33.0,54.0,32.0,nan,0.1,-7.27,1.37,4.42,-80.77,218.77,2.93,-2.54,-5.46,-0.71,0.62,0.19,-0.28,1.0,3.75,95.53,0.0931313,0.0,42.501794573170734,nan,-71.8852356504065,nan,-2.0,0.0,4230.1245,0.0,0.0,0.0,0.0
5677.0,34.0,0.0,18.0,53.0,30.0,nan,-0.33,-7.94,1.27,4.27,-80.71,218.77,3.14,-0.72,-6.37,-0.71,0.62,0.19,-0.28,1.0,3.75,95.53,0.0931313,0.0,42.501794573170734,nan,-71.8852356504065,nan,-2.0,0.0,4230.1245,0.0,0.0,0.0,0.0
5697.0,0.0,0.0,0.0,19.0,15.0,nan,-0.83,-7.52,0.82,4.19,-80.68,218.75,2.93,-0.16,-5.11,-0.71,0.62,0.19,-0.28,1.0,3.75,95.53,0.0931313,0.0,42.501794573170734,nan,-71.8852356504065,nan,-2.0,0.0,4230.1245,0.0,0.0,0.0,0.0
5720.0,0.0,0.0,0.0,26.0,26.0,nan,0.46,-8.54,1.36,3.96,-80.59,218.73,4.68,-0.16,-7.84,-0.71,0.62,0.19,-0.27,1.0,3.75,95.53,0.0931313,0.0,42.501794573170734,nan,-71.8852356504065,nan,-2.0,0.0,4230.1245,0.0,0.0,0.0,0.0
5739.0,0.0,0.0,0.0,18.0,5.0,nan,-5.12,-5.22,-5.68,4.39,-81.25,218.67,-12.75,2.57,6.37,-0.71,0.62,0.19,-0.27,1.0,3.75,95.54,0.0931253,0.0,42.501794573170734,nan,-71.8852356504065,nan,-2.0,0.0,4230.1245,0.0,0.0,0.0,0.0
5764.0,40.0,0.0,0.0,31.0,1.0,nan,3.24,-9.65,-1.06,3.84,-81.45,218.62,-2.88,-0.72,-16.8,-0.71,0.62,0.19,-0.27,1.0,3.75,95.54,0.0931253,0.0,42.501794573170734,nan,-71.8852356504065,nan,-2.0,0.0,4230.1245,0.0,0.0,0.0,0.0
5784.0,47.0,0.0,0.0,58.0,46.0,nan,-0.39,-8.14,2.13,3.66,-81.26,218.61,6.29,-0.37,-8.12,-0.71,0.62,0.19,-0.27,1.0,3.75,95.54,0.0931253,0.0,42.501794573170734,nan,-71.8852356504065,nan,-2.0,0.0,4230.1245,0.0,0.0,0.0,0.0
5806.0,66.0,36.0,40.0,80.0,81.0,nan,0.14,-8.05,2.17,3.65,-80.99,218.59,4.68,0.12,-0.63,-0.71,0.62,0.19,-0.27,1.0,3.75,95.54,0.0931253,0.0,42.501794573170734,nan,-71.8852356504065,nan,-2.0,0.0,4230.1245,0.0,0.0,0.0,0.0
5832.0,74.0,140.0,76.0,74.0,38.0,nan,0.4,-8.24,1.68,3.58,-80.93,218.59,1.81,0.05,-0.56,-0.71,0.62,0.19,-0.27,1.0,3.75,95.54,0.0931253,0.0,42.501794573170734,nan,-71.8852356504065,nan,-2.0,0.0,4230.1245,0.0,0.0,0.0,0.0
5855.0,36.0,143.0,71.0,48.0,44.0,nan,0.14,-8.26,2.28,3.53,-80.84,218.59,1.53,0.47,-0.21,-0.71,0.62,0.19,-0.27,1.0,3.75,95.54,0.0931253,0.0,42.501747835365855,nan,-71.88523520325204,nan,-2.0,0.0,4230.1245,7153.1143,0.0,0.0,0.0
5874.0,18.0,125.0,34.0,47.0,37.0,nan,1.07,-8.78,2.58,3.38,-80.58,218.59,9.44,-0.65,-2.73,-0.71,0.62,0.19,-0.27,1.0,3.75,95.54,0.0931253,0.0,42.501747835365855,nan,-71.88523520325204,nan,-2.0,0.0,4230.1245,0.0,0.0,0.0,0.0
5897.0,0.0,121.0,69.0,40.0,5.0,nan,-2.24,-7.37,-0.19,3.52,-80.68,218.6,0.13,-0.23,0.7,-0.71,0.62,0.19,-0.27,1.0,3.75,95.54,0.0931253,0.0,42.501747835365855,nan,-71.88523520325204,nan,-2.0,0.0,4230.1245,0.0,0.0,0.0,0.0
5917.0,0.0,84.0,53.0,53.0,34.0,nan,0.68,-8.6,-0.69,3.35,-80.88,218.45,-2.95,6.14,-5.81,-0.71,0.62,0.19,-0.27,1.0,3.75,95.54,0.0931253,0.0,42.501747835365855,nan,-71.88523520325204,nan,-2.0,0.0,4230.1245,0.0,0.0,0.0,0.0
5940.0,0.0,0.0,22.0,52.0,36.0,nan,-1.73,-9.08,4.45,3.32,-80.5,218.42,10.98,1.1,-4.9,-0.71,0.62,0.19,-0.27,1.0,3.75,95.54,0.0931253,0.0,42.501747835365855,nan,-71.88523520325204,nan,-2.0,0.0,4230.1245,0.0,0.0,0.0,0.0
5959.0,1.0,0.0,1.0,67.0,35.0,nan,-2.1,-7.82,1.27,3.42,-80.46,218.39,2.37,1.38,-1.05,-0.71,0.62,0.19,-0.27,1.0,3.75,95.54,0.0931253,0.0,42.501747835365855,nan,-71.88523520325204,nan,-2.0,0.0,4230.1245,0.0,0.0,0.0,0.0
