time,p1,p2,p3,p4,p5,termite,ax,ay,az,rx,ry,rz,roll,pitch,yaw,q1,q2,q3,q4,calibration,temperature,humidity,pressure,flag_rm,lat,lacoord,lon,locoord,capacitive,o_lat,o_lon,used_lat,used_lon,altitude,flag_lm
0.0,39.0,35.0,17.0,19.0,0.0,nan,1.53,-7.69,-0.96,-12.1,-96.44,93.78,2.93,-0.86,-1.61,0.43,-0.59,0.46,-0.51,1.0,6.64,93.41,0.0955795,0.0,42.502075000000005,nan,-71.88523833333333,nan,-2.0,0.0,4230.1245,7153.1143,1.0,1.0,0.0
26.0,24.0,35.0,35.0,23.0,0.0,nan,1.53,-7.69,-0.96,-12.1,-96.44,93.78,0.0,0.0,0.0,0.43,-0.59,0.46,-0.51,1.0,6.64,93.41,0.0955795,0.0,42.502075000000005,nan,-71.88523833333333,nan,-2.0,0.0,4230.1245,0.0,0.0,0.0,0.0
43.0,31.0,40.0,26.0,19.0,0.0,nan,1.47,-7.3,-0.95,-12.13,-96.37,93.8,1.11,-0.02,-1.26,0.43,-0.59,0.45,-0.51,1.0,6.64,93.41,0.0955795,0.0,42.502075000000005,nan,-71.88523833333333,nan,-2.0,0.0,4230.1245,0.0,0.0,0.0,0.0
68.0,38.0,23.0,32.0,28.0,0.0,nan,1.5,-7.53,-0.96,-12.16,-96.36,93.8,1.04,0.26,-1.68,0.43,-0.59,0.45,-0.51,1.0,6.64,93.41,0.0955795,0.0,42.502075000000005,nan,-71.88523833333333,nan,-2.0,0.0,4230.1245,0.0,0.0,0.0,0.0
91.0,28.0,50.0,28.0,19.0,1.0,nan,1.53,-7.57,-0.99,-12.18,-96.3,93.79,3.28,0.61,-1.4,0.43,-0.59,0.45,-0.51,1.0,6.64,93.41,0.0955795,0.0,42.502075000000005,nan,-71.88523833333333,nan,-2.0,0.0,4230.1245,0.0,0.0,0.0,0.0
110.0,29.0,29.0,33.0,24.0,1.0,nan,1.68,-7.78,-0.99,-12.2,-96.21,93.78,4.96,0.82,-0.84,0.43,-0.59,0.45,-0.51,1.0,6.64,93.41,0.0955795,0.0,42.502075000000005,nan,-71.88523833333333,nan,-2.0,0.0,4230.1245,0.0,0.0,0.0,0.0
133.0,18.0,38.0,32.0,32.0,1.0,nan,1.63,-7.63,-1.04,-12.19,-96.1,93.76,5.94,1.1,0.14,0.43,-0.59,0.45,-0.51,1.0,6.64,93.41,0.0955795,0.0,42.502075000000005,nan,-71.88523833333333,nan,-2.0,0.0,4230.1245,0.0,0.0,0.0,0.0
152.0,28.0,34.0,26.0,26.0,0.0,nan,1.53,-7.59,-1.06,-12.18,-96.0,93.74,5.8,1.17,0.14,0.43,-0.59,0.45,-0.51,1.0,6.64,93.41,0.0955795,0.0,42.502075000000005,nan,-71.88523833333333,nan,-2.0,0.0,4230.1245,0.0,0.0,0.0,0.0
175.0,25.0,45.0,19.0,8.0,0.0,nan,1.53,-7.78,-1.1,-12.18,-95.94,93.72,3.77,1.31,-0.21,0.43,-0.59,0.45,-0.51,1.0,6.64,93.41,0.0955795,0.0,42.502075000000005,nan,-71.88523833333333,nan,-2.0,0.0,4230.1245,0.0,0.0,0.0,0.0
195.0,26.0,30.0,28.0,24.0,0.0,nan,1.55,-7.8,-1.02,-12.19,-95.91,93.69,2.16,1.38,-0.63,0.43,-0.59,0.45,-0.51,1.0,6.64,93.41,0.0955795,0.0,42.502075000000005,nan,-71.88523833333333,nan,-2.0,0.0,4230.1245,0.0,0.0,0.0,0.0
217.0,27.0,39.0,30.0,18.0,0.0,nan,1.72,-7.86,-1.02,-12.19,-95.84,93.64,2.37,1.52,0.35,0.43,-0.59,0.45,-0.51,1.0,6.66,93.44,0.0955756,0.0,42.502075000000005,nan,-71.88523833333333,nan,-2.0,0.0,4230.1245,0.0,0.0,0.0,0.0
249.0,34.0,35.0,30.0,15.0,0.0,nan,1.72,-7.58,-1.05,-12.16,-95.81,93.61,2.09,1.59,1.75,0.43,-0.59,0.45,-0.51,1.0,6.66,93.44,0.0955756,0.0,42.502075000000005,nan,-71.88523833333333,nan,-2.0,0.0,4230.1245,0.0,0.0,0.0,0.0
268.0,20.0,24.0,36.0,11.0,0.0,nan,1.63,-7.47,-1.0,-12.12,-95.79,93.58,1.46,1.59,2.38,0.43,-0.59,0.45,-0.51,1.0,6.66,93.44,0.0955756,0.0,42.502075000000005,nan,-71.88523833333333,nan,-2.0,0.0,4230.1245,0.0,0.0,0.0,0.0
291.0,21.0,36.0,30.0,16.0,0.0,nan,1.53,-7.48,-0.99,-12.07,-95.81,93.54,-0.29,1.59,2.17,0.43,-0.59,0.45,-0.51,1.0,6.66,93.44,0.0955756,0.0,42.502075000000005,nan,-71.88523833333333,nan,-2.0,0.0,4230.1245,0.0,0.0,0.0,0.0
311.0,32.0,27.0,32.0,13.0,0.0,nan,1.47,-7.54,-0.98,-12.03,-95.86,93.51,-2.25,1.59,1.33,0.43,-0.59,0.45,-0.51,1.0,6.66,93.44,0.0955756,0.0,42.502075000000005,nan,-71.88523833333333,nan,-2.0,0.0,4230.1245,0.0,0.0,0.0,0.0
333.0,24.0,38.0,32.0,23.0,0.0,nan,1.51,-7.66,-0.95,-12.02,-95.91,93.48,-2.18,1.52,0.42,0.43,-0.59,0.46,-0.51,1.0,6.66,93.44,0.0955756,0.0,42.502075000000005,nan,-71.88523833333333,nan,-2.0,0.0,4230.1245,0.0,0.0,0.0,0.0
353.0,38.0,46.0,43.0,29.0,0.0,nan,1.66,-7.61,-0.91,-12.02,-95.93,93.45,-0.92,1.59,0.42,0.43,-0.59,0.46,-0.51,1.0,6.66,93.44,0.0955756,0.0,42.502075000000005,nan,-71.88523833333333,nan,-2.0,0.0,4230.1245,0.0,0.0,0.0,0.0
376.0,33.0,35.0,28.0,18.0,0.0,nan,1.78,-7.57,-0.89,-12.01,-95.94,93.42,-0.15,1.38,1.19,0.43,-0.59,0.46,-0.51,1.0,6.66,93.44,0.0955756,0.0,42.502075000000005,nan,-71.88523833333333,nan,-2.0,0.0,4230.1245,0.0,0.0,0.0,0.0
395.0,31.0,33.0,29.0,13.0,0.0,nan,1.68,-7.53,-0.88,-11.97,-95.95,93.39,-0.5,1.17,2.1,0.43,-0.59,0.46,-0.51,1.0,6.66,93.44,0.0955756,0.0,42.502075000000005,nan,-71.88523833333333,nan,-2.0,0.0,4230.1245,0.0,0.0,0.0,0.0
418.0,32.0,23.0,30.0,18.0,0.0,nan,1.56,-7.91,-0.87,-11.87,-96.02,93.36,-2.39,0.61,2.59,0.43,-0.59,0.46,-0.51,1.0,6.66,93.44,0.0955756,0.0,42.502075000000005,nan,-71.88523833333333,nan,-2.0,0.0,4230.1245,0.0,0.0,0.0,0.0
444.0,34.0,34.0,26.0,24.0,3.0,nan,1.62,-7.86,-0.85,-11.82,-96.08,93.35,-2.88,0.19,2.45,0.43,-0.59,0.46,-0.51,1.0,6.66,93.44,0.0955756,0.0,42.502075000000005,nan,-71.88523833333333,nan,-2.0,0.0,4230.1245,0.0,0.0,0.0,0.0
467.0,20.0,34.0,28.0,25.0,0.0,nan,1.58,-8.24,-0.89,-11.75,-96.16,93.35,-4.0,-0.37,2.73,0.43,-0.59,0.46,-0.51,1.0,6.66,93.44,0.0955756,0.0,42.502075000000005,nan,-71.88523833333333,nan,-2.0,0.0,4230.1245,0.0,0.0,0.0,0.0
486.0,34.0,24.0,31.0,24.0,1.0,nan,1.47,-7.52,-0.85,-11.69,-96.27,93.36,-5.33,-1.0,2.59,0.43,-0.59,0.46,-0.51,1.0,6.66,93.44,0.0955756,0.0,42.502075000000005,nan,-71.88523833333333,nan,-2.0,0.0,4230.1245,0.0,0.0,0.0,0.0
509.0,24.0,42.0,19.0,23.0,1.0,nan,1.57,-7.67,-0.94,-11.64,-96.42,93.4,-6.87,-1.7,2.1,0.43,-0.59,0.46,-0.51,1.0,6.66,93.44,0.0955756,0.0,42.502075000000005,nan,-71.88523833333333,nan,-2.0,0.0,4230.1245,0.0,0.0,0.0,0.0
531.0,34.0,34.0,34.0,22.0,1.0,nan,1.55,-7.5,-1.1,-11.6,-96.58,93.45,-6.45,-2.61,1.82,0.43,-0.59,0.46,-0.51,1.0,6.66,93.44,0.0955756,0.0,42.502075000000005,nan,-71.88523833333333,nan,-2.0,0.0,4230.1245,0.0,0.0,0.0,0.0
551.0,35.0,33.0,41.0,14.0,0.0,nan,1.57,-7.53,-1.24,-11.56,-96.79,93.53,-8.48,-3.8,1.4,0.43,-0.59,0.46,-0.51,1.0,6.66,93.44,0.0955756,0.0,42.502075000000005,nan,-71.88523833333333,nan,-2.0,0.0,4230.1245,0.0,0.0,0.0,0.0
571.0,36.0,44.0,25.0,18.0,1.0,nan,1.62,-7.56,-1.33,-11.53,-97.11,93.63,-13.03,-5.13,1.33,0.43,-0.59,0.46,-0.51,1.0,6.66,93.44,0.0955756,0.0,42.502075000000005,nan,-71.88523833333333,nan,-2.0,0.0,4230.1245,0.0,0.0,0.0,0.0
594.0,34.0,36.0,19.0,22.0,1.0,nan,1.62,-7.45,-1.43,-11.48,-97.48,93.76,-15.55,-6.25,1.82,0.43,-0.59,0.46,-0.5,1.0,6.66,93.44,0.0955756,0.0,42.502075000000005,nan,-71.88523833333333,nan,-2.0,0.0,4230.1245,0.0,0.0,0.0,0.0
613.0,30.0,30.0,29.0,27.0,0.0,nan,1.5,-7.51,-1.46,-11.41,-97.87,93.92,-16.18,-7.51,2.52,0.43,-0.59,0.46,-0.5,1.0,6.66,93.44,0.0955756,0.0,42.502075000000005,nan,-71.88523833333333,nan,-2.0,0.0,4230.1245,0.0,0.0,0.0,0.0
636.0,36.0,53.0,21.0,37.0,1.0,nan,1.56,-7.64,-1.71,-11.23,-98.91,94.26,-24.23,-8.77,3.5,0.42,-0.6,0.47,-0.49,1.0,6.66,93.44,0.0955756,0.0,42.502075000000005,nan,-71.88523833333333,nan,-2.0,0.0,4230.1245,0.0,0.0,0.0,0.0
662.0,30.0,29.0,19.0,8.0,1.0,nan,1.43,-7.85,-1.77,-11.1,-99.46,94.43,-23.67,-8.91,4.55,0.42,-0.6,0.47,-0.49,1.0,6.66,93.44,0.0955756,0.0,42.502075000000005,nan,-71.88523833333333,nan,-2.0,0.0,4230.1245,0.0,0.0,0.0,0.0
685.0,29.0,35.0,27.0,19.0,1.0,nan,1.43,-7.62,-1.81,-10.96,-99.96,94.6,-21.85,-8.91,5.04,0.42,-0.6,0.47,-0.49,1.0,6.66,93.44,0.0955795,0.0,42.502075000000005,nan,-71.88523833333333,nan,-2.0,0.0,4230.1245,0.0,0.0,0.0,0.0
706.0,25.0,34.0,29.0,23.0,0.0,nan,1.45,-7.66,-1.84,-10.82,-100.49,94.76,-23.18,-8.84,5.53,0.42,-0.6,0.47,-0.48,1.0,6.66,93.44,0.0955795,0.0,42.502075000000005,nan,-71.88523833333333,nan,-2.0,0.0,4230.1245,0.0,0.0,0.0,0.0
730.0,23.0,44.0,24.0,25.0,0.0,nan,1.42,-7.28,-1.88,-10.67,-101.05,94.92,-24.51,-8.7,5.95,0.42,-0.61,0.48,-0.48,1.0,6.66,93.44,0.0955795,0.0,42.502075000000005,nan,-71.88523833333333,nan,-2.0,0.0,4230.1245,0.0,0.0,0.0,0.0
749.0,32.0,32.0,30.0,28.0,1.0,nan,1.32,-7.38,-1.92,-10.51,-101.66,95.07,-27.24,-8.42,5.88,0.42,-0.61,0.48,-0.48,1.0,6.66,93.44,0.0955795,0.0,42.502075000000005,nan,-71.88523833333333,nan,-2.0,0.0,4230.1245,0.0,0.0,0.0,0.0
772.0,44.0,39.0,30.0,24.0,0.0,nan,1.33,-7.57,-1.97,-10.36,-102.26,95.21,-27.38,-7.79,5.6,0.41,-0.61,0.48,-0.47,1.0,6.66,93.44,0.0955795,0.0,42.502075000000005,nan,-71.88523833333333,nan,-2.0,0.0,4230.1245,0.0,0.0,0.0,0.0
791.0,37.0,40.0,28.0,16.0,0.0,nan,1.4,-7.68,-1.99,-10.21,-102.81,95.33,-25.56,-7.16,5.74,0.41,-0.61,0.48,-0.47,1.0,6.66,93.44,0.0955795,0.0,42.502075000000005,nan,-71.88523833333333,nan,-2.0,0.0,4230.1245,0.0,0.0,0.0,0.0
814.0,36.0,37.0,34.0,31.0,1.0,nan,1.36,-7.54,-1.98,-9.91,-103.79,95.51,-22.34,-5.55,6.23,0.41,-0.62,0.49,-0.46,1.0,6.66,93.44,0.0955795,0.0,42.502075000000005,nan,-71.88523833333333,nan,-2.0,0.0,4230.1245,0.0,0.0,0.0,0.0
840.0,22.0,33.0,31.0,20.0,0.0,nan,1.36,-7.54,-1.98,-9.91,-103.79,95.51,0.0,0.0,0.0,0.41,-0.62,0.49,-0.46,1.0,6.66,93.44,0.0955795,0.0,42.502075000000005,nan,-71.88523833333333,nan,-2.0,0.0,4230.1245,0.0,0.0,0.0,0.0
858.0,36.0,30.0,23.0,21.0,0.0,nan,1.22,-7.7,-1.87,-9.65,-104.74,95.61,-23.6,-3.45,5.46,0.41,-0.62,0.49,-0.46,1.0,6.66,93.44,0.0955795,0.0,42.502075000000005,nan,-71.88523833333333,nan,-2.0,0.0,4230.1245,0.0,0.0,0.0,0.0
882.0,24.0,42.0,29.0,21.0,0.0,nan,1.39,-7.75,-1.79,-9.54,-105.16,95.62,-21.78,-2.19,4.9,0.4,-0.62,0.49,-0.46,1.0,6.66,93.44,0.0955795,0.0,42.502075000000005,nan,-71.88523833333333,nan,-2.0,0.0,4230.1245,0.0,0.0,0.0,0.0
905.0,37.0,37.0,32.0,25.0,0.0,nan,1.45,-7.56,-1.76,-9.45,-105.49,95.6,-17.72,-0.58,5.18,0.4,-0.62,0.5,-0.45,1.0,6.66,93.44,0.0955795,0.0,42.502075000000005,nan,-71.88523833333333,nan,-2.0,0.0,4230.1245,0.0,0.0,0.0,0.0
924.0,36.0,45.0,18.0,13.0,0.0,nan,1.52,-7.48,-1.53,-9.37,-105.76,95.55,-15.9,0.96,5.6,0.4,-0.62,0.5,-0.45,1.0,6.66,93.44,0.0955795,0.0,42.502075000000005,nan,-71.88523833333333,nan,-2.0,0.0,4230.1245,0.0,0.0,0.0,0.0
947.0,22.0,44.0,33.0,17.0,0.0,nan,1.4,-7.6,-1.44,-9.27,-105.97,95.45,-13.38,2.57,6.16,0.4,-0.62,0.5,-0.45,1.0,6.66,93.44,0.0955795,0.0,42.502075000000005,nan,-71.88523833333333,nan,-2.0,0.0,4230.1245,0.0,0.0,0.0,0.0
966.0,25.0,34.0,33.0,22.0,0.0,nan,1.36,-7.45,-1.28,-9.18,-106.06,95.33,-8.55,4.18,6.16,0.4,-0.62,0.5,-0.45,1.0,6.66,93.44,0.0955795,0.0,42.502075000000005,nan,-71.88523833333333,nan,-2.0,0.0,4230.1245,0.0,0.0,0.0,0.0
989.0,32.0,34.0,32.0,8.0,0.0,nan,1.35,-7.7,-1.13,-9.11,-106.04,95.17,-4.28,5.86,5.88,0.4,-0.62,0.5,-0.45,1.0,6.66,93.44,0.0955795,0.0,42.502075000000005,nan,-71.88523833333333,nan,-2.0,0.0,4230.1245,0.0,0.0,0.0,0.0
1009.0,34.0,29.0,35.0,11.0,1.0,nan,1.32,-7.71,-1.04,-9.04,-105.93,94.98,0.2,7.54,5.95,0.4,-0.62,0.5,-0.45,1.0,6.66,93.44,0.0955795,0.0,42.502075000000005,nan,-71.88523833333333,nan,-2.0,0.0,4230.1245,0.0,0.0,0.0,0.0
1031.0,36.0,28.0,31.0,35.0,1.0,nan,1.25,-7.4,-0.92,-9.0,-105.71,94.76,5.03,9.08,5.25,0.4,-0.62,0.5,-0.45,1.0,6.66,93.44,0.0955795,0.0,42.502075000000005,nan,-71.88523833333333,nan,-2.0,0.0,4230.1245,0.0,0.0,0.0,0.0
1051.0,19.0,32.0,34.0,24.0,0.0,nan,1.31,-7.66,-0.88,-8.97,-105.41,94.51,8.67,10.34,4.83,0.4,-0.61,0.5,-0.46,1.0,6.66,93.44,0.0955795,0.0,42.502075000000005,nan,-71.88523833333333,nan,-2.0,0.0,4230.1245,0.0,0.0,0.0,0.0
1074.0,30.0,43.0,27.0,38.0,1.0,nan,1.35,-7.48,-0.88,-8.94,-104.58,93.98,16.44,11.95,4.34,0.4,-0.61,0.5,-0.46,1.0,6.66,93.44,0.0955795,0.0,42.502075000000005,nan,-71.88523833333333,nan,-2.0,0.0,4230.1245,7153.1143,0.0,0.0,0.0
1100.0,32.0,44.0,30.0,21.0,1.0,nan,1.37,-7.52,-0.86,-8.93,-104.07,93.71,19.52,12.3,4.62,0.41,-0.61,0.5,-0.46,1.0,6.66,93.44,0.0955795,0.0,42.502075000000005,nan,-71.88523833333333,nan,-2.0,0.0,4230.1245,0.0,0.0,0.0,0.0
1123.0,15.0,32.0,16.0,14.0,0.0,nan,1.39,-7.64,-0.91,-8.9,-103.5,93.43,22.81,12.37,5.25,0.41,-0.6,0.5,-0.47,1.0,6.66,93.44,0.0955795,0.0,42.502075000000005,nan,-71.88523833333333,nan,-2.0,0.0,4230.1245,0.0,0.0,0.0,0.0
1142.0,36.0,34.0,30.0,31.0,0.0,nan,1.17,-7.5,-0.93,-8.84,-102.86,93.15,26.73,12.23,5.95,0.41,-0.6,0.5,-0.47,1.0,6.66,93.39,0.0955756,0.0,42.502075000000005,nan,-71.88523833333333,nan,-2.0,0.0,4230.1245,0.0,0.0,0.0,0.0
1167.0,23.0,48.0,43.0,21.0,0.0,nan,1.2,-7.58,-1.0,-8.77,-102.19,92.88,28.83,11.88,6.02,0.41,-0.6,0.5,-0.47,1.0,6.66,93.39,0.0955756,0.0,42.502075000000005,nan,-71.88523833333333,nan,-2.0,0.0,4230.1245,0.0,0.0,0.0,0.0
1186.0,22.0,37.0,19.0,20.0,0.0,nan,1.16,-7.63,-1.1,-8.68,-101.52,92.62,29.74,11.18,6.79,0.42,-0.59,0.5,-0.48,1.0,6.66,93.39,0.0955756,0.0,42.502075000000005,nan,-71.88523833333333,nan,-2.0,0.0,4230.1245,0.0,0.0,0.0,0.0
1209.0,22.0,36.0,45.0,33.0,2.0,nan,1.13,-7.5,-1.17,-8.58,-100.87,92.39,29.18,10.2,7.14,0.42,-0.59,0.5,-0.48,1.0,6.66,93.39,0.0955756,0.0,42.502075000000005,nan,-71.88523833333333,nan,-2.0,0.0,4230.1245,0.0,0.0,0.0,0.0
1229.0,29.0,33.0,25.0,18.0,0.0,nan,1.11,-7.8,-1.14,-8.46,-100.28,92.18,27.01,8.94,7.42,0.42,-0.58,0.5,-0.48,1.0,6.66,93.39,0.0955756,0.0,42.502075000000005,nan,-71.88523833333333,nan,-2.0,0.0,4230.1245,0.0,0.0,0.0,0.0
1251.0,34.0,33.0,29.0,23.0,1.0,nan,1.05,-7.77,-1.18,-8.18,-99.22,91.85,24.14,6.0,8.05,0.43,-0.58,0.5,-0.49,1.0,6.66,93.39,0.0955756,0.0,42.502075000000005,nan,-71.88523833333333,nan,-2.0,0.0,4230.1245,0.0,0.0,0.0,0.0
1277.0,29.0,37.0,35.0,17.0,0.0,nan,0.97,-7.81,-1.23,-8.02,-98.74,91.74,23.02,4.32,8.4,0.43,-0.58,0.49,-0.49,1.0,6.66,93.39,0.0955756,0.0,42.502075000000005,nan,-71.88523833333333,nan,-2.0,0.0,4230.1245,0.0,0.0,0.0,0.0
1300.0,31.0,45.0,24.0,11.0,0.0,nan,1.09,-7.77,-1.23,-7.85,-98.29,91.67,22.18,2.29,8.54,0.43,-0.57,0.49,-0.49,1.0,6.66,93.39,0.0955756,0.0,42.502075000000005,nan,-71.88523833333333,nan,-2.0,0.0,4230.1245,0.0,0.0,0.0,0.0
1319.0,28.0,33.0,26.0,33.0,1.0,nan,1.0,-7.67,-1.25,-7.66,-97.87,91.64,21.27,0.33,9.24,0.43,-0.57,0.49,-0.49,1.0,6.66,93.39,0.0955756,0.0,42.502075000000005,nan,-71.88523833333333,nan,-2.0,0.0,4230.1245,0.0,0.0,0.0,0.0
1342.0,26.0,36.0,33.0,19.0,0.0,nan,1.01,-7.86,-1.28,-7.46,-97.47,91.65,20.5,-1.63,9.8,0.44,-0.57,0.49,-0.49,1.0,6.66,93.39,0.0955756,0.0,42.502075000000005,nan,-71.88523833333333,nan,-2.0,0.0,4230.1245,0.0,0.0,0.0,0.0
1362.0,37.0,38.0,32.0,36.0,1.0,nan,0.92,-7.75,-1.32,-7.24,-97.12,91.69,19.24,-3.66,10.5,0.44,-0.57,0.49,-0.49,1.0,6.66,93.39,0.0955756,0.0,42.502075000000005,nan,-71.88523833333333,nan,-2.0,0.0,4230.1245,0.0,0.0,0.0,0.0
1385.0,20.0,35.0,32.0,14.0,0.0,nan,0.89,-7.7,-1.31,-7.0,-96.8,91.78,17.35,-5.62,10.92,0.44,-0.56,0.49,-0.49,1.0,6.66,93.39,0.0955756,0.0,42.502075000000005,nan,-71.88523833333333,nan,-2.0,0.0,4230.1245,0.0,0.0,0.0,0.0
1404.0,29.0,35.0,21.0,17.0,0.0,nan,0.78,-7.61,-1.34,-6.75,-96.57,91.91,14.2,-7.58,11.06,0.45,-0.56,0.49,-0.49,1.0,6.66,93.39,0.0955756,0.0,42.502075000000005,nan,-71.88523833333333,nan,-2.0,0.0,4230.1245,0.0,0.0,0.0,0.0
1428.0,28.0,24.0,33.0,36.0,1.0,nan,0.79,-7.71,-1.34,-6.5,-96.41,92.08,10.56,-9.19,11.06,0.45,-0.56,0.49,-0.49,1.0,6.66,93.39,0.0955756,0.0,42.502075000000005,nan,-71.88523833333333,nan,-2.0,0.0,4230.1245,0.0,0.0,0.0,0.0
1447.0,23.0,35.0,28.0,17.0,0.0,nan,0.77,-7.83,-1.33,-6.24,-96.31,92.27,7.62,-10.8,11.27,0.45,-0.56,0.49,-0.49,1.0,6.66,93.39,0.0955756,0.0,42.502075000000005,nan,-71.88523833333333,nan,-2.0,0.0,4230.1245,0.0,0.0,0.0,0.0
1469.0,25.0,32.0,31.0,20.0,0.0,nan,0.82,-8.0,-1.29,-5.69,-96.21,92.73,5.03,-13.18,12.88,0.46,-0.56,0.49,-0.49,1.0,6.66,93.39,0.0955756,0.0,42.502075000000005,nan,-71.88523833333333,nan,-2.0,0.0,4230.1245,0.0,0.0,0.0,0.0
1496.0,28.0,41.0,29.0,19.0,1.0,nan,0.77,-7.73,-1.29,-5.39,-96.17,92.98,4.61,-13.88,13.65,0.46,-0.56,0.49,-0.48,1.0,6.66,93.39,0.0955756,0.0,42.502075000000005,nan,-71.88523833333333,nan,-2.0,0.0,4230.1245,0.0,0.0,0.0,0.0
1518.0,25.0,30.0,23.0,30.0,0.0,nan,0.76,-8.05,-1.27,-5.08,-96.16,93.24,3.0,-14.37,14.0,0.46,-0.56,0.49,-0.48,1.0,6.66,93.39,0.0955756,0.0,42.502075000000005,nan,-71.88523833333333,nan,-2.0,0.0,4230.1245,0.0,0.0,0.0,0.0
1538.0,32.0,43.0,19.0,30.0,0.0,nan,0.65,-7.83,-1.26,-4.77,-96.2,93.5,0.76,-14.51,13.86,0.46,-0.56,0.49,-0.48,1.0,6.66,93.39,0.0955756,0.0,42.502075000000005,nan,-71.88523833333333,nan,-2.0,0.0,4230.1245,0.0,0.0,0.0,0.0
1560.0,33.0,35.0,34.0,29.0,0.0,nan,0.65,-7.84,-1.26,-4.48,-96.25,93.76,-0.29,-14.37,13.02,0.47,-0.56,0.49,-0.48,1.0,6.66,93.39,0.0955756,0.0,42.502075000000005,nan,-71.88523833333333,nan,-2.0,0.0,4230.1245,0.0,0.0,0.0,0.0
1580.0,29.0,36.0,24.0,30.0,0.0,nan,0.68,-7.86,-1.2,-4.2,-96.32,94.01,-1.2,-13.88,12.32,0.47,-0.56,0.49,-0.47,1.0,6.66,93.39,0.0955756,0.0,42.502075000000005,nan,-71.88523833333333,nan,-2.0,0.0,4230.1245,0.0,0.0,0.0,0.0
1603.0,31.0,44.0,26.0,21.0,0.0,nan,0.71,-7.97,-1.19,-3.95,-96.41,94.25,-2.74,-13.25,11.83,0.47,-0.56,0.49,-0.47,1.0,6.66,93.39,0.0955597,0.0,42.502075000000005,nan,-71.88523833333333,nan,-2.0,0.0,4230.1245,0.0,0.0,0.0,0.0
1624.0,37.0,35.0,32.0,18.0,0.0,nan,0.7,-7.95,-1.18,-3.7,-96.51,94.47,-2.88,-12.27,11.62,0.47,-0.56,0.49,-0.47,1.0,6.66,93.39,0.0955597,0.0,42.502075000000005,nan,-71.88523833333333,nan,-2.0,0.0,4230.1245,0.0,0.0,0.0,0.0
1647.0,40.0,29.0,23.0,12.0,0.0,nan,0.71,-8.13,-1.14,-3.46,-96.59,94.67,-2.6,-11.29,11.48,0.47,-0.56,0.49,-0.47,1.0,6.66,93.39,0.0955597,0.0,42.502075000000005,nan,-71.88523833333333,nan,-2.0,0.0,4230.1245,0.0,0.0,0.0,0.0
1666.0,23.0,34.0,27.0,9.0,0.0,nan,0.65,-8.0,-1.12,-3.21,-96.65,94.84,-2.18,-10.03,11.83,0.48,-0.56,0.49,-0.47,1.0,6.66,93.39,0.0955597,0.0,42.502075000000005,nan,-71.88523833333333,nan,-2.0,0.0,4230.1245,0.0,0.0,0.0,0.0
1690.0,36.0,29.0,29.0,19.0,0.0,nan,0.54,-8.13,-1.01,-2.73,-96.76,95.11,-1.97,-7.37,11.83,0.48,-0.56,0.49,-0.46,1.0,6.66,93.39,0.0955597,0.0,42.502075000000005,nan,-71.88523833333333,nan,-2.0,0.0,4230.1245,0.0,0.0,0.0,0.0
1716.0,17.0,49.0,36.0,24.0,1.0,nan,0.54,-8.13,-0.98,-2.49,-96.79,95.2,-1.2,-5.9,11.83,0.48,-0.56,0.49,-0.46,1.0,6.66,93.39,0.0955597,0.0,42.502075000000005,nan,-71.88523833333333,nan,-2.0,0.0,4230.1245,0.0,0.0,0.0,0.0
1739.0,24.0,33.0,36.0,31.0,1.0,nan,0.42,-8.05,-0.91,-2.25,-96.79,95.26,-0.01,-4.22,11.76,0.48,-0.56,0.49,-0.46,1.0,6.66,93.39,0.0955597,0.0,42.502075000000005,nan,-71.88523833333333,nan,-2.0,0.0,4230.1245,0.0,0.0,0.0,0.0
1758.0,25.0,44.0,21.0,26.0,1.0,nan,0.44,-8.17,-0.86,-2.02,-96.76,95.28,1.32,-2.68,11.48,0.48,-0.56,0.49,-0.46,1.0,6.66,93.39,0.0955597,0.0,42.502075000000005,nan,-71.88523833333333,nan,-2.0,0.0,4230.1245,0.0,0.0,0.0,0.0
1781.0,31.0,31.0,34.0,36.0,1.0,nan,0.37,-7.88,-0.84,-1.8,-96.68,95.28,3.28,-1.21,11.27,0.48,-0.56,0.5,-0.46,1.0,6.66,93.39,0.0955597,0.0,42.502075000000005,nan,-71.88523833333333,nan,-2.0,0.0,4230.1245,0.0,0.0,0.0,0.0
1800.0,28.0,34.0,27.0,28.0,0.0,nan,0.4,-7.92,-0.79,-1.59,-96.57,95.25,4.96,0.12,11.06,0.48,-0.56,0.5,-0.46,1.0,6.66,93.39,0.0955597,0.0,42.502075000000005,nan,-71.88523833333333,nan,-2.0,0.0,4230.1245,0.0,0.0,0.0,0.0
1823.0,28.0,37.0,36.0,22.0,1.0,nan,0.38,-7.97,-0.79,-1.39,-96.44,95.2,6.29,1.45,11.06,0.49,-0.56,0.5,-0.46,1.0,6.66,93.39,0.0955597,0.0,42.502075000000005,nan,-71.88523833333333,nan,-2.0,0.0,4230.1245,0.0,0.0,0.0,0.0
1842.0,36.0,46.0,25.0,32.0,0.0,nan,0.3,-7.75,-0.75,-1.18,-96.26,95.12,8.46,2.5,11.06,0.49,-0.55,0.5,-0.46,1.0,6.66,93.39,0.0955597,0.0,42.502075000000005,nan,-71.88523833333333,nan,-2.0,0.0,4230.1245,0.0,0.0,0.0,0.0
1865.0,31.0,31.0,22.0,22.0,0.0,nan,0.29,-7.88,-0.73,-0.98,-96.04,95.03,10.28,3.48,10.99,0.49,-0.55,0.5,-0.46,1.0,6.66,93.39,0.0955597,0.0,42.502075000000005,nan,-71.88523833333333,nan,-2.0,0.0,4230.1245,0.0,0.0,0.0,0.0
1884.0,35.0,26.0,36.0,11.0,0.0,nan,0.26,-7.65,-0.7,-0.78,-95.8,94.92,11.68,4.39,10.85,0.49,-0.55,0.5,-0.46,1.0,6.66,93.39,0.0955597,0.0,42.502075000000005,nan,-71.88523833333333,nan,-2.0,0.0,4230.1245,0.0,0.0,0.0,0.0
1907.0,25.0,45.0,24.0,12.0,0.0,nan,0.22,-7.91,-0.72,-0.39,-95.27,94.67,13.01,5.65,10.78,0.49,-0.54,0.5,-0.46,1.0,6.66,93.39,0.0955597,0.0,42.502075000000005,nan,-71.88523833333333,nan,-2.0,0.0,4230.1245,0.0,0.0,0.0,0.0
1934.0,27.0,45.0,35.0,25.0,0.0,nan,0.14,-8.11,-0.75,-0.19,-95.0,94.53,13.43,6.14,10.92,0.5,-0.54,0.5,-0.46,1.0,6.66,93.39,0.0955597,0.0,42.502075000000005,nan,-71.88523833333333,nan,-2.0,0.0,4230.1245,0.0,0.0,0.0,0.0
1956.0,22.0,38.0,29.0,8.0,0.0,nan,0.12,-8.26,-0.76,0.01,-94.74,94.38,13.36,6.42,10.85,0.5,-0.54,0.5,-0.46,1.0,6.66,93.39,0.0955597,0.0,42.502075000000005,nan,-71.88523833333333,nan,-2.0,0.0,4230.1245,0.0,0.0,0.0,0.0
1976.0,33.0,37.0,36.0,24.0,1.0,nan,0.01,-8.07,-0.75,0.2,-94.49,94.23,12.8,6.63,10.15,0.5,-0.54,0.5,-0.46,1.0,6.66,93.39,0.0955597,0.0,42.502075000000005,nan,-71.88523833333333,nan,-2.0,0.0,4230.1245,0.0,0.0,0.0,0.0
1998.0,23.0,36.0,26.0,20.0,1.0,nan,0.05,-8.21,-0.73,0.38,-94.26,94.08,11.89,6.77,9.59,0.5,-0.53,0.5,-0.46,1.0,6.66,93.39,0.0955597,0.0,42.502075000000005,nan,-71.88523833333333,nan,-2.0,0.0,4230.1245,0.0,0.0,0.0,0.0
2017.0,34.0,33.0,34.0,25.0,0.0,nan,0.07,-8.11,-0.69,0.53,-94.05,93.93,10.91,6.77,8.89,0.5,-0.53,0.5,-0.46,1.0,6.66,93.39,0.0955597,0.0,42.502075000000005,nan,-71.88523833333333,nan,-2.0,0.0,4230.1245,0.0,0.0,0.0,0.0
2040.0,27.0,49.0,37.0,30.0,0.0,nan,0.01,-8.11,-0.74,0.69,-93.84,93.79,10.91,6.63,8.54,0.5,-0.53,0.5,-0.46,1.0,6.66,93.39,0.0955597,0.0,42.502075000000005,nan,-71.88523833333333,nan,-2.0,0.0,4230.1245,0.0,0.0,0.0,0.0
2060.0,42.0,42.0,31.0,26.0,3.0,nan,0.08,-8.14,-0.71,0.82,-93.66,93.65,9.93,6.28,7.7,0.5,-0.53,0.5,-0.46,1.0,6.66,93.41,0.0955687,0.0,42.502075000000005,nan,-71.88523833333333,nan,-2.0,0.0,4230.1245,0.0,0.0,0.0,0.0
2085.0,28.0,37.0,23.0,18.0,0.0,nan,0.04,-8.15,-0.65,1.07,-93.35,93.41,8.11,5.51,6.65,0.5,-0.53,0.5,-0.47,1.0,6.66,93.41,0.0955687,0.0,42.502075000000005,nan,-71.88523833333333,nan,-2.0,0.0,4230.1245,0.0,0.0,0.0,0.0
2111.0,36.0,39.0,37.0,24.0,1.0,nan,-0.05,-7.93,-0.6,1.18,-93.21,93.3,7.41,5.02,5.95,0.5,-0.52,0.5,-0.47,1.0,6.66,93.41,0.0955687,0.0,42.502075000000005,nan,-71.88523833333333,nan,-2.0,0.0,4230.1245,0.0,0.0,0.0,0.0
2134.0,29.0,30.0,31.0,28.0,0.0,nan,-0.01,-7.89,-0.59,1.26,-93.12,93.2,5.52,4.53,4.9,0.51,-0.52,0.5,-0.47,1.0,6.66,93.41,0.0955687,0.0,42.502075000000005,nan,-71.88523833333333,nan,-2.0,0.0,4230.1245,0.0,0.0,0.0,0.0
2155.0,20.0,30.0,23.0,12.0,0.0,nan,-0.07,-8.07,-0.58,1.33,-93.03,93.12,5.1,3.97,4.06,0.51,-0.52,0.5,-0.47,1.0,6.66,93.41,0.0955687,0.0,42.502075000000005,nan,-71.88523833333333,nan,-2.0,0.0,4230.1245,7153.1143,0.0,0.0,0.0
2176.0,41.0,52.0,45.0,25.0,1.0,nan,-0.13,-7.82,-0.51,1.38,-92.95,93.05,4.4,3.48,2.87,0.51,-0.52,0.5,-0.47,1.0,6.66,93.41,0.0955687,0.0,42.502075000000005,nan,-71.88523833333333,nan,-2.0,0.0,4230.1245,0.0,0.0,0.0,0.0
2195.0,40.0,30.0,28.0,6.0,0.0,nan,-0.02,-8.07,-0.51,1.4,-92.88,92.99,3.56,2.85,1.89,0.51,-0.52,0.5,-0.47,1.0,6.66,93.41,0.0955687,0.0,42.502075000000005,nan,-71.88523833333333,nan,-2.0,0.0,4230.1245,0.0,0.0,0.0,0.0
2218.0,22.0,37.0,32.0,19.0,0.0,nan,-0.0,-7.99,-0.46,1.42,-92.83,92.94,2.93,2.29,1.68,0.51,-0.52,0.51,-0.47,1.0,6.66,93.41,0.0955687,0.0,42.502075000000005,nan,-71.88523833333333,nan,-2.0,0.0,4230.1245,0.0,0.0,0.0,0.0
2237.0,31.0,39.0,37.0,34.0,0.0,nan,-0.03,-7.85,-0.43,1.44,-92.79,92.9,2.16,1.8,1.61,0.51,-0.52,0.51,-0.47,1.0,6.66,93.41,0.0955687,0.0,42.502075000000005,nan,-71.88523833333333,nan,-2.0,0.0,4230.1245,0.0,0.0,0.0,0.0
2260.0,31.0,46.0,26.0,32.0,0.0,nan,-0.04,-7.91,-0.39,1.45,-92.74,92.87,2.37,1.31,1.33,0.51,-0.52,0.51,-0.47,1.0,6.66,93.41,0.0955687,0.0,42.502075000000005,nan,-71.88523833333333,nan,-2.0,0.0,4230.1245,0.0,0.0,0.0,0.0
2280.0,19.0,29.0,25.0,16.0,0.0,nan,-0.11,-7.8,-0.35,1.46,-92.7,92.86,2.37,0.89,1.05,0.51,-0.52,0.51,-0.47,1.0,6.66,93.41,0.0955687,0.0,42.502075000000005,nan,-71.88523833333333,nan,-2.0,0.0,4230.1245,0.0,0.0,0.0,0.0
2302.0,24.0,39.0,34.0,25.0,1.0,nan,-0.17,-8.06,-0.33,1.45,-92.61,92.84,2.09,0.19,-0.63,0.51,-0.52,0.5,-0.47,1.0,6.66,93.41,0.0955687,0.0,42.502075000000005,nan,-71.88523833333333,nan,-2.0,0.0,4230.1245,0.0,0.0,0.0,0.0
2329.0,28.0,33.0,28.0,20.0,1.0,nan,-0.15,-8.03,-0.35,1.42,-92.56,92.84,2.37,-0.09,-1.4,0.51,-0.52,0.5,-0.47,1.0,6.66,93.41,0.0955687,0.0,42.502075000000005,nan,-71.88523833333333,nan,-2.0,0.0,4230.1245,0.0,0.0,0.0,0.0
2352.0,31.0,28.0,29.0,15.0,0.0,nan,-0.14,-7.99,-0.3,1.37,-92.5,92.85,2.86,-0.37,-2.1,0.51,-0.52,0.5,-0.47,1.0,6.66,93.41,0.0955687,0.0,42.502075000000005,nan,-71.88523833333333,nan,-2.0,0.0,4230.1245,0.0,0.0,0.0,0.0
2371.0,34.0,48.0,31.0,20.0,0.0,nan,-0.17,-7.65,-0.32,1.32,-92.43,92.87,3.35,-0.51,-2.66,0.51,-0.52,0.5,-0.47,1.0,6.66,93.41,0.0955687,0.0,42.502075000000005,nan,-71.88523833333333,nan,-2.0,0.0,4230.1245,0.0,0.0,0.0,0.0
2394.0,32.0,39.0,25.0,21.0,0.0,nan,-0.05,-7.87,-0.27,1.24,-92.36,92.89,3.28,-0.86,-3.15,0.51,-0.52,0.5,-0.47,1.0,6.66,93.41,0.0955687,0.0,42.502075000000005,nan,-71.88523833333333,nan,-2.0,0.0,4230.1245,0.0,0.0,0.0,0.0
2414.0,25.0,36.0,36.0,22.0,1.0,nan,-0.12,-7.65,-0.28,1.18,-92.29,92.91,3.14,-1.0,-2.87,0.51,-0.52,0.5,-0.47,1.0,6.66,93.41,0.0955687,0.0,42.502075000000005,nan,-71.88523833333333,nan,-2.0,0.0,4230.1245,0.0,0.0,0.0,0.0
2436.0,31.0,35.0,28.0,20.0,0.0,nan,-0.07,-7.81,-0.24,1.12,-92.23,92.93,2.93,-1.07,-2.73,0.51,-0.52,0.5,-0.47,1.0,6.66,93.41,0.0955687,0.0,42.502075000000005,nan,-71.88523833333333,nan,-2.0,0.0,4230.1245,0.0,0.0,0.0,0.0
2456.0,24.0,36.0,26.0,30.0,0.0,nan,-0.06,-8.12,-0.26,1.08,-92.16,92.95,3.28,-1.07,-2.03,0.51,-0.52,0.5,-0.47,1.0,6.66,93.41,0.0955687,0.0,42.502075000000005,nan,-71.88523833333333,nan,-2.0,0.0,4230.1245,0.0,0.0,0.0,0.0
2479.0,36.0,34.0,32.0,23.0,0.0,nan,-0.11,-8.08,-0.22,1.05,-92.06,92.98,4.26,-1.07,-1.26,0.51,-0.52,0.5,-0.47,1.0,6.66,93.41,0.0955687,0.0,42.502075000000005,nan,-71.88523833333333,nan,-2.0,0.0,4230.1245,0.0,0.0,0.0,0.0
2498.0,22.0,45.0,42.0,19.0,0.0,nan,-0.22,-8.03,-0.25,1.04,-91.97,93.0,4.82,-1.07,-0.77,0.51,-0.52,0.5,-0.47,1.0,6.66,93.41,0.0955687,0.0,42.502075000000005,nan,-71.88523833333333,nan,-2.0,0.0,4230.1245,0.0,0.0,0.0,0.0
2521.0,25.0,36.0,28.0,24.0,1.0,nan,-0.22,-7.57,-0.24,1.01,-91.76,93.03,4.75,-0.58,-1.05,0.51,-0.52,0.5,-0.47,1.0,6.66,93.39,0.0955677,0.0,42.502075000000005,nan,-71.88523833333333,nan,-2.0,0.0,4230.1245,0.0,0.0,0.0,0.0
2553.0,35.0,49.0,31.0,26.0,0.0,nan,-0.12,-7.69,-0.2,0.98,-91.68,93.04,3.91,-0.65,-1.54,0.51,-0.52,0.5,-0.47,1.0,6.66,93.39,0.0955677,0.0,42.502075000000005,nan,-71.88523833333333,nan,-2.0,0.0,4230.1245,0.0,0.0,0.0,0.0
2572.0,31.0,32.0,25.0,22.0,1.0,nan,-0.1,-7.87,-0.25,0.96,-91.61,93.05,3.56,-0.58,-0.84,0.51,-0.52,0.5,-0.48,1.0,6.66,93.39,0.0955677,0.0,42.502075000000005,nan,-71.88523833333333,nan,-2.0,0.0,4230.1245,0.0,0.0,0.0,0.0
2595.0,24.0,31.0,25.0,21.0,0.0,nan,-0.02,-8.01,-0.23,0.95,-91.52,93.07,4.26,-0.72,0.07,0.51,-0.52,0.5,-0.48,1.0,6.66,93.39,0.0955677,0.0,42.502075000000005,nan,-71.88523833333333,nan,-2.0,0.0,4230.1245,0.0,0.0,0.0,0.0
2614.0,29.0,40.0,26.0,30.0,0.0,nan,-0.17,-7.77,-0.37,0.98,-91.45,93.08,4.33,-0.72,1.19,0.51,-0.52,0.5,-0.48,1.0,6.66,93.39,0.0955677,0.0,42.502075000000005,nan,-71.88523833333333,nan,-2.0,0.0,4230.1245,0.0,0.0,0.0,0.0
2637.0,27.0,26.0,21.0,15.0,0.0,nan,-0.1,-8.12,-0.35,1.01,-91.38,93.1,3.7,-1.07,1.4,0.51,-0.52,0.5,-0.48,1.0,6.66,93.39,0.0955677,0.0,42.502075000000005,nan,-71.88523833333333,nan,-2.0,0.0,4230.1245,0.0,0.0,0.0,0.0
2656.0,19.0,34.0,21.0,23.0,0.0,nan,-0.35,-7.83,-0.44,1.06,-91.36,93.13,2.02,-1.28,1.82,0.51,-0.52,0.5,-0.48,1.0,6.66,93.39,0.0955677,0.0,42.502075000000005,nan,-71.88523833333333,nan,-2.0,0.0,4230.1245,0.0,0.0,0.0,0.0
2679.0,25.0,48.0,36.0,40.0,1.0,nan,-0.25,-7.93,-0.42,1.08,-91.36,93.16,0.83,-1.7,0.77,0.51,-0.52,0.5,-0.48,1.0,6.66,93.39,0.0955677,0.0,42.502075000000005,nan,-71.88523833333333,nan,-2.0,0.0,4230.1245,0.0,0.0,0.0,0.0
2700.0,33.0,18.0,20.0,17.0,0.0,nan,-0.28,-8.4,-0.45,1.11,-91.38,93.2,-0.22,-2.05,0.84,0.51,-0.52,0.5,-0.47,1.0,6.66,93.39,0.0955677,0.0,42.502075000000005,nan,-71.88523833333333,nan,-2.0,0.0,4230.1245,0.0,0.0,0.0,0.0
2721.0,25.0,27.0,33.0,27.0,0.0,nan,-0.17,-8.28,-0.49,1.17,-91.41,93.29,0.69,-2.61,1.47,0.51,-0.52,0.5,-0.47,1.0,6.66,93.39,0.0955677,0.0,42.502075000000005,nan,-71.88523833333333,nan,-2.0,0.0,4230.1245,0.0,0.0,0.0,0.0
2747.0,29.0,40.0,41.0,38.0,5.0,nan,-0.15,-7.94,-0.47,1.21,-91.42,93.35,0.2,-2.75,2.31,0.51,-0.52,0.5,-0.47,1.0,6.66,93.39,0.0955677,0.0,42.502075000000005,nan,-71.88523833333333,nan,-2.0,0.0,4230.1245,0.0,0.0,0.0,0.0
2770.0,28.0,31.0,20.0,20.0,0.0,nan,-0.16,-8.1,-0.5,1.28,-91.47,93.41,-1.27,-3.03,3.15,0.51,-0.52,0.5,-0.47,1.0,6.66,93.39,0.0955677,0.0,42.502075000000005,nan,-71.88523833333333,nan,-2.0,0.0,4230.1245,0.0,0.0,0.0,0.0
2790.0,34.0,32.0,33.0,18.0,0.0,nan,-0.21,-8.41,-0.53,1.36,-91.55,93.47,-3.09,-3.31,3.92,0.51,-0.52,0.5,-0.47,1.0,6.66,93.39,0.0955677,0.0,42.502075000000005,nan,-71.88523833333333,nan,-2.0,0.0,4230.1245,0.0,0.0,0.0,0.0
2813.0,31.0,33.0,29.0,18.0,1.0,nan,-0.22,-8.53,-0.47,1.45,-91.64,93.54,-3.65,-3.45,4.27,0.51,-0.52,0.5,-0.47,1.0,6.66,93.39,0.0955677,0.0,42.502075000000005,nan,-71.88523833333333,nan,-2.0,0.0,4230.1245,0.0,0.0,0.0,0.0
2832.0,37.0,33.0,32.0,35.0,2.0,nan,-0.33,-8.4,-0.54,1.55,-91.72,93.61,-3.51,-3.66,4.69,0.51,-0.52,0.5,-0.47,1.0,6.66,93.39,0.0955677,0.0,42.502075000000005,nan,-71.88523833333333,nan,-2.0,0.0,4230.1245,0.0,0.0,0.0,0.0
2855.0,29.0,35.0,30.0,20.0,1.0,nan,-0.32,-7.89,-0.46,1.63,-91.8,93.68,-3.16,-3.8,3.64,0.51,-0.52,0.5,-0.47,1.0,6.66,93.39,0.0955677,0.0,42.502075000000005,nan,-71.88523833333333,nan,-2.0,0.0,4230.1245,0.0,0.0,0.0,0.0
2874.0,23.0,37.0,16.0,10.0,1.0,nan,-0.27,-8.03,-0.47,1.7,-91.88,93.75,-3.23,-3.73,2.87,0.51,-0.52,0.5,-0.47,1.0,6.66,93.39,0.0955677,0.0,42.502075000000005,nan,-71.88523833333333,nan,-2.0,0.0,4230.1245,0.0,0.0,0.0,0.0
2897.0,40.0,36.0,33.0,35.0,1.0,nan,-0.22,-8.06,-0.51,1.74,-91.95,93.82,-2.74,-3.66,2.31,0.51,-0.52,0.5,-0.47,1.0,6.66,93.39,0.0955677,0.0,42.502075000000005,nan,-71.88523833333333,nan,-2.0,0.0,4230.1245,0.0,0.0,0.0,0.0
2916.0,28.0,36.0,33.0,20.0,1.0,nan,-0.21,-8.23,-0.59,1.79,-92.01,93.89,-2.18,-3.66,2.24,0.52,-0.52,0.5,-0.47,1.0,6.66,93.39,0.0955677,0.0,42.502075000000005,nan,-71.88523833333333,nan,-2.0,0.0,4230.1245,0.0,0.0,0.0,0.0
2939.0,22.0,42.0,30.0,24.0,1.0,nan,-0.2,-7.75,-0.58,1.87,-92.17,94.03,-3.65,-3.38,2.52,0.52,-0.52,0.5,-0.46,1.0,6.66,93.39,0.0955677,0.0,42.502075000000005,nan,-71.88523833333333,nan,-2.0,0.0,4230.1245,0.0,0.0,0.0,0.0
2966.0,21.0,31.0,22.0,18.0,0.0,nan,-0.12,-7.84,-0.52,1.91,-92.28,94.09,-5.05,-3.1,2.17,0.52,-0.52,0.5,-0.46,1.0,6.66,93.39,0.0955677,0.0,42.502075000000005,nan,-71.88523833333333,nan,-2.0,0.0,4230.1245,0.0,0.0,0.0,0.0
2988.0,30.0,35.0,26.0,17.0,1.0,nan,-0.22,-7.8,-0.53,1.95,-92.41,94.14,-5.82,-2.68,2.1,0.52,-0.52,0.5,-0.46,1.0,6.69,93.36,0.0955597,0.0,42.502075000000005,nan,-71.88523833333333,nan,-2.0,0.0,4230.1245,0.0,0.0,0.0,0.0
3010.0,35.0,46.0,22.0,36.0,1.0,nan,-0.1,-8.12,-0.48,1.98,-92.53,94.18,-5.61,-2.26,1.82,0.51,-0.52,0.5,-0.46,1.0,6.69,93.36,0.0955597,0.0,42.502075000000005,nan,-71.88523833333333,nan,-2.0,0.0,4230.1245,0.0,0.0,0.0,0.0
3033.0,32.0,36.0,31.0,36.0,1.0,nan,-0.18,-7.99,-0.47,2.01,-92.64,94.21,-5.12,-1.56,2.1,0.51,-0.52,0.5,-0.46,1.0,6.69,93.36,0.0955597,0.0,42.502075000000005,nan,-71.88523833333333,nan,-2.0,0.0,4230.1245,0.0,0.0,0.0,0.0
3052.0,25.0,36.0,23.0,18.0,1.0,nan,-0.15,-8.2,-0.42,2.04,-92.72,94.23,-4.07,-1.0,1.75,0.51,-0.52,0.5,-0.46,1.0,6.69,93.36,0.0955597,0.0,42.502075000000005,nan,-71.88523833333333,nan,-2.0,0.0,4230.1245,0.0,0.0,0.0,0.0
3075.0,21.0,29.0,18.0,16.0,0.0,nan,-0.2,-8.07,-0.45,2.07,-92.79,94.23,-3.16,-0.3,1.68,0.51,-0.52,0.5,-0.46,1.0,6.69,93.36,0.0955597,0.0,42.502075000000005,nan,-71.88523833333333,nan,-2.0,0.0,4230.1245,0.0,0.0,0.0,0.0
3095.0,31.0,29.0,34.0,24.0,6.0,nan,-0.16,-8.14,-0.4,2.09,-92.85,94.22,-2.67,0.54,1.47,0.51,-0.52,0.5,-0.46,1.0,6.69,93.36,0.0955597,0.0,42.502075000000005,nan,-71.88523833333333,nan,-2.0,0.0,4230.1245,0.0,0.0,0.0,0.0
3117.0,39.0,32.0,24.0,22.0,1.0,nan,-0.18,-8.09,-0.4,2.1,-92.93,94.15,-1.62,2.08,0.42,0.51,-0.52,0.5,-0.46,1.0,6.69,93.36,0.0955597,0.0,42.502075000000005,nan,-71.88523833333333,nan,-2.0,0.0,4230.1245,0.0,0.0,0.0,0.0
3143.0,32.0,35.0,35.0,17.0,0.0,nan,-0.2,-7.83,-0.38,2.1,-92.95,94.09,-1.06,2.85,0.28,0.51,-0.52,0.5,-0.46,1.0,6.69,93.36,0.0955597,0.0,42.502075000000005,nan,-71.88523833333333,nan,-2.0,0.0,4230.1245,0.0,0.0,0.0,0.0
3166.0,29.0,42.0,29.0,22.0,1.0,nan,-0.12,-8.07,-0.34,2.09,-92.95,94.02,-0.01,3.62,0.35,0.51,-0.52,0.5,-0.46,1.0,6.69,93.36,0.0955597,0.0,42.502075000000005,nan,-71.88523833333333,nan,-2.0,0.0,4230.1245,0.0,0.0,0.0,0.0
3186.0,27.0,44.0,35.0,30.0,0.0,nan,-0.17,-7.8,-0.37,2.09,-92.91,93.93,1.74,4.39,0.84,0.51,-0.52,0.5,-0.46,1.0,6.69,93.36,0.0955597,0.0,42.502075000000005,nan,-71.88523833333333,nan,-2.0,0.0,4230.1245,0.0,0.0,0.0,0.0
3208.0,31.0,35.0,33.0,12.0,0.0,nan,-0.15,-7.92,-0.38,2.1,-92.86,93.83,3.0,4.95,1.05,0.51,-0.52,0.5,-0.46,1.0,6.69,93.36,0.0955597,0.0,42.502075000000005,nan,-71.88523833333333,nan,-2.0,0.0,4230.1245,0.0,0.0,0.0,0.0
3228.0,37.0,40.0,30.0,23.0,1.0,nan,-0.25,-7.83,-0.37,2.11,-92.8,93.72,2.79,5.44,1.26,0.51,-0.52,0.5,-0.46,1.0,6.69,93.36,0.0955597,0.0,42.502075000000005,nan,-71.88523833333333,nan,-2.0,0.0,4230.1245,7153.1143,0.0,0.0,0.0
3251.0,20.0,29.0,22.0,35.0,1.0,nan,-0.24,-8.32,-0.38,2.13,-92.75,93.6,2.79,5.86,1.26,0.51,-0.52,0.5,-0.46,1.0,6.69,93.36,0.0955597,0.0,42.502075000000005,nan,-71.88523833333333,nan,-2.0,0.0,4230.1245,0.0,0.0,0.0,0.0
3270.0,29.0,35.0,36.0,24.0,1.0,nan,-0.35,-7.81,-0.41,2.15,-92.68,93.48,3.84,6.14,1.12,0.51,-0.52,0.51,-0.46,1.0,6.69,93.36,0.0955597,0.0,42.502075000000005,nan,-71.88523833333333,nan,-2.0,0.0,4230.1245,0.0,0.0,0.0,0.0
3293.0,28.0,33.0,26.0,31.0,0.0,nan,-0.26,-8.02,-0.37,2.15,-92.59,93.35,4.68,6.42,0.42,0.51,-0.52,0.51,-0.46,1.0,6.69,93.36,0.0955597,0.0,42.502075000000005,nan,-71.88523833333333,nan,-2.0,0.0,4230.1245,0.0,0.0,0.0,0.0
3312.0,20.0,28.0,20.0,22.0,1.0,nan,-0.29,-7.89,-0.41,2.15,-92.5,93.22,4.89,6.42,0.42,0.51,-0.52,0.51,-0.47,1.0,6.69,93.36,0.0955597,0.0,42.502075000000005,nan,-71.88523833333333,nan,-2.0,0.0,4230.1245,0.0,0.0,0.0,0.0
3338.0,28.0,31.0,43.0,25.0,3.0,nan,-0.33,-7.85,-0.45,2.14,-92.3,92.97,5.94,6.14,-0.21,0.51,-0.51,0.51,-0.47,1.0,6.69,93.36,0.0955597,0.0,42.502075000000005,nan,-71.88523833333333,nan,-2.0,0.0,4230.1245,0.0,0.0,0.0,0.0
3362.0,36.0,35.0,31.0,20.0,1.0,nan,-0.23,-8.15,-0.47,2.12,-92.18,92.86,6.92,5.79,-0.35,0.51,-0.51,0.51,-0.47,1.0,6.69,93.36,0.0955597,0.0,42.502075000000005,nan,-71.88523833333333,nan,-2.0,0.0,4230.1245,0.0,0.0,0.0,0.0
3384.0,32.0,27.0,28.0,14.0,1.0,nan,-0.36,-7.78,-0.49,2.11,-92.08,92.75,5.8,5.44,-0.42,0.51,-0.51,0.51,-0.47,1.0,6.69,93.36,0.0955597,0.0,42.502075000000005,nan,-71.88523833333333,nan,-2.0,0.0,4230.1245,0.0,0.0,0.0,0.0
3404.0,32.0,40.0,26.0,30.0,1.0,nan,-0.28,-7.97,-0.49,2.09,-92.01,92.65,4.19,4.88,-1.19,0.51,-0.51,0.51,-0.47,1.0,6.69,93.36,0.0955597,0.0,42.502075000000005,nan,-71.88523833333333,nan,-2.0,0.0,4230.1245,0.0,0.0,0.0,0.0
3427.0,29.0,37.0,19.0,15.0,0.0,nan,-0.29,-8.18,-0.53,2.06,-91.97,92.56,3.28,4.32,-0.91,0.51,-0.51,0.51,-0.47,1.0,6.69,93.36,0.0955597,0.0,42.502075000000005,nan,-71.88523833333333,nan,-2.0,0.0,4230.1245,0.0,0.0,0.0,0.0
3446.0,25.0,25.0,20.0,25.0,1.0,nan,-0.29,-7.91,-0.49,2.04,-91.94,92.49,2.37,3.55,-1.12,0.51,-0.51,0.51,-0.47,1.0,6.66,93.37,0.0955568,0.0,42.502075000000005,nan,-71.88523833333333,nan,-2.0,0.0,4230.1245,0.0,0.0,0.0,0.0
3471.0,30.0,44.0,21.0,14.0,0.0,nan,-0.28,-8.51,-0.51,2.02,-91.93,92.43,1.04,2.99,-0.63,0.51,-0.51,0.51,-0.47,1.0,6.66,93.37,0.0955568,0.0,42.502075000000005,nan,-71.88523833333333,nan,-2.0,0.0,4230.1245,0.0,0.0,0.0,0.0
3491.0,36.0,35.0,36.0,21.0,1.0,nan,-0.29,-7.81,-0.47,2.01,-91.95,92.38,0.06,2.36,-0.63,0.51,-0.51,0.51,-0.47,1.0,6.66,93.37,0.0955568,0.0,42.502075000000005,nan,-71.88523833333333,nan,-2.0,0.0,4230.1245,0.0,0.0,0.0,0.0
3513.0,32.0,26.0,30.0,17.0,0.0,nan,-0.35,-7.95,-0.44,2.0,-92.07,92.33,-2.81,1.17,-0.28,0.51,-0.51,0.51,-0.47,1.0,6.66,93.37,0.0955568,0.0,42.502075000000005,nan,-71.88523833333333,nan,-2.0,0.0,4230.1245,0.0,0.0,0.0,0.0
3540.0,23.0,47.0,32.0,33.0,1.0,nan,-0.35,-7.95,-0.44,2.0,-92.07,92.33,0.0,0.0,0.0,0.51,-0.51,0.51,-0.47,1.0,6.66,93.37,0.0955568,0.0,42.502075000000005,nan,-71.88523833333333,nan,-2.0,0.0,4230.1245,0.0,0.0,0.0,0.0
3557.0,21.0,35.0,22.0,31.0,0.0,nan,-0.28,-8.18,-0.43,1.99,-92.27,92.32,-4.91,-0.09,-0.14,0.51,-0.51,0.51,-0.47,1.0,6.66,93.37,0.0955568,0.0,42.502075000000005,nan,-71.88523833333333,nan,-2.0,0.0,4230.1245,0.0,0.0,0.0,0.0
3582.0,17.0,35.0,34.0,21.0,1.0,nan,-0.3,-7.93,-0.38,1.99,-92.37,92.33,-5.19,-0.58,-0.21,0.51,-0.51,0.51,-0.47,1.0,6.66,93.37,0.0955568,0.0,42.502075000000005,nan,-71.88523833333333,nan,-2.0,0.0,4230.1245,0.0,0.0,0.0,0.0
3605.0,23.0,38.0,37.0,29.0,0.0,nan,-0.29,-8.02,-0.41,1.99,-92.49,92.35,-5.4,-1.0,-0.07,0.51,-0.51,0.51,-0.47,1.0,6.66,93.37,0.0955568,0.0,42.502075000000005,nan,-71.88523833333333,nan,-2.0,0.0,4230.1245,0.0,0.0,0.0,0.0
3624.0,28.0,38.0,27.0,20.0,1.0,nan,-0.24,-7.87,-0.35,1.99,-92.59,92.38,-5.33,-1.42,0.0,0.51,-0.51,0.51,-0.47,1.0,6.66,93.37,0.0955568,0.0,42.502075000000005,nan,-71.88523833333333,nan,-2.0,0.0,4230.1245,0.0,0.0,0.0,0.0
3647.0,26.0,44.0,23.0,24.0,0.0,nan,-0.31,-8.07,-0.39,2.0,-92.71,92.41,-5.75,-1.77,0.21,0.51,-0.51,0.51,-0.47,1.0,6.66,93.37,0.0955568,0.0,42.502075000000005,nan,-71.88523833333333,nan,-2.0,0.0,4230.1245,0.0,0.0,0.0,0.0
3666.0,27.0,30.0,28.0,21.0,0.0,nan,-0.32,-7.83,-0.33,2.0,-92.83,92.45,-6.1,-2.12,-0.21,0.51,-0.51,0.51,-0.47,1.0,6.66,93.37,0.0955568,0.0,42.502075000000005,nan,-71.88523833333333,nan,-2.0,0.0,4230.1245,0.0,0.0,0.0,0.0
3690.0,24.0,35.0,32.0,18.0,0.0,nan,-0.28,-7.91,-0.35,1.99,-92.93,92.5,-5.4,-2.33,-0.42,0.51,-0.52,0.51,-0.47,1.0,6.66,93.37,0.0955568,0.0,42.502075000000005,nan,-71.88523833333333,nan,-2.0,0.0,4230.1245,0.0,0.0,0.0,0.0
3709.0,27.0,29.0,29.0,19.0,0.0,nan,-0.27,-7.73,-0.31,1.99,-93.01,92.55,-4.56,-2.54,-0.42,0.51,-0.52,0.51,-0.47,1.0,6.66,93.37,0.0955568,0.0,42.502075000000005,nan,-71.88523833333333,nan,-2.0,0.0,4230.1245,0.0,0.0,0.0,0.0
3732.0,36.0,46.0,31.0,18.0,0.0,nan,-0.29,-7.7,-0.29,1.98,-93.09,92.61,-4.56,-2.68,-0.77,0.51,-0.52,0.51,-0.47,1.0,6.66,93.37,0.0955568,0.0,42.502075000000005,nan,-71.88523833333333,nan,-2.0,0.0,4230.1245,0.0,0.0,0.0,0.0
3751.0,20.0,35.0,22.0,19.0,0.0,nan,-0.21,-8.15,-0.3,1.97,-93.17,92.66,-4.21,-2.68,-0.28,0.51,-0.52,0.51,-0.47,1.0,6.66,93.37,0.0955568,0.0,42.502075000000005,nan,-71.88523833333333,nan,-2.0,0.0,4230.1245,0.0,0.0,0.0,0.0
3774.0,20.0,47.0,37.0,10.0,0.0,nan,-0.26,-8.0,-0.31,1.99,-93.19,92.76,-0.43,-2.4,0.7,0.51,-0.52,0.51,-0.46,1.0,6.66,93.37,0.0955568,0.0,42.502075000000005,nan,-71.88523833333333,nan,-2.0,0.0,4230.1245,0.0,0.0,0.0,0.0
3800.0,24.0,22.0,25.0,28.0,0.0,nan,-0.25,-8.05,-0.32,2.0,-93.17,92.8,0.69,-2.05,0.7,0.51,-0.52,0.51,-0.46,1.0,6.66,93.37,0.0955568,0.0,42.502075000000005,nan,-71.88523833333333,nan,-2.0,0.0,4230.1245,0.0,0.0,0.0,0.0
3823.0,30.0,47.0,26.0,24.0,0.0,nan,-0.34,-7.99,-0.37,2.02,-93.14,92.83,1.25,-1.77,0.42,0.51,-0.52,0.51,-0.46,1.0,6.66,93.37,0.0955568,0.0,42.502075000000005,nan,-71.88523833333333,nan,-2.0,0.0,4230.1245,0.0,0.0,0.0,0.0
3842.0,18.0,42.0,24.0,35.0,1.0,nan,-0.32,-7.86,-0.38,2.01,-93.09,92.86,2.09,-1.49,-0.49,0.51,-0.52,0.51,-0.46,1.0,6.66,93.37,0.0955568,0.0,42.502075000000005,nan,-71.88523833333333,nan,-2.0,0.0,4230.1245,0.0,0.0,0.0,0.0
3865.0,37.0,36.0,23.0,20.0,0.0,nan,-0.23,-7.74,-0.41,1.99,-93.02,92.89,3.56,-1.14,-1.12,0.51,-0.52,0.51,-0.47,1.0,6.66,93.37,0.0955568,0.0,42.502075000000005,nan,-71.88523833333333,nan,-2.0,0.0,4230.1245,0.0,0.0,0.0,0.0
3884.0,21.0,33.0,25.0,25.0,1.0,nan,-0.08,-7.51,-0.35,1.95,-92.92,92.9,4.61,-0.72,-1.12,0.51,-0.52,0.51,-0.47,1.0,6.66,93.37,0.0955568,0.0,42.502075000000005,nan,-71.88523833333333,nan,-2.0,0.0,4230.1245,0.0,0.0,0.0,0.0
3907.0,25.0,34.0,31.0,29.0,0.0,nan,0.01,-7.33,-0.39,1.92,-92.86,92.91,3.21,-0.51,-0.49,0.51,-0.52,0.51,-0.47,1.0,6.67,93.37,0.0955518,0.0,42.502075000000005,nan,-71.88523833333333,nan,-2.0,0.0,4230.1245,0.0,0.0,0.0,0.0
3929.0,23.0,36.0,31.0,20.0,0.0,nan,0.06,-7.88,-0.39,1.92,-92.82,92.92,1.88,-0.09,1.12,0.51,-0.52,0.51,-0.47,1.0,6.67,93.37,0.0955518,0.0,42.502075000000005,nan,-71.88523833333333,nan,-2.0,0.0,4230.1245,0.0,0.0,0.0,0.0
3951.0,25.0,33.0,25.0,20.0,1.0,nan,-0.32,-8.33,-0.42,2.02,-92.79,92.9,0.69,0.47,2.52,0.51,-0.52,0.51,-0.47,1.0,6.67,93.37,0.0955518,0.0,42.502075000000005,nan,-71.88523833333333,nan,-2.0,0.0,4230.1245,0.0,0.0,0.0,0.0
3980.0,32.0,17.0,34.0,31.0,1.0,nan,-0.41,-8.35,-0.44,2.06,-92.78,92.88,0.83,0.89,1.82,0.51,-0.52,0.51,-0.47,1.0,6.67,93.37,0.0955518,0.0,42.502075000000005,nan,-71.88523833333333,nan,-2.0,0.0,4230.1245,0.0,0.0,0.0,0.0
4000.0,26.0,34.0,33.0,33.0,1.0,nan,-0.37,-8.23,-0.41,2.07,-92.75,92.85,1.6,1.1,0.56,0.51,-0.52,0.51,-0.47,1.0,6.67,93.37,0.0955518,0.0,42.502075000000005,nan,-71.88523833333333,nan,-2.0,0.0,4230.1245,0.0,0.0,0.0,0.0
4019.0,34.0,44.0,34.0,33.0,2.0,nan,-0.33,-7.94,-0.43,2.06,-92.71,92.83,2.16,1.31,-0.63,0.51,-0.52,0.51,-0.47,1.0,6.67,93.37,0.0955518,0.0,42.502075000000005,nan,-71.88523833333333,nan,-2.0,0.0,4230.1245,0.0,0.0,0.0,0.0
4042.0,16.0,38.0,30.0,23.0,0.0,nan,-0.13,-8.01,-0.35,2.03,-92.66,92.8,2.44,1.31,-1.12,0.51,-0.52,0.51,-0.47,1.0,6.67,93.37,0.0955518,0.0,42.502075000000005,nan,-71.88523833333333,nan,-2.0,0.0,4230.1245,0.0,0.0,0.0,0.0
4062.0,33.0,39.0,37.0,20.0,0.0,nan,-0.14,-7.7,-0.33,1.99,-92.6,92.78,2.79,1.38,-1.12,0.51,-0.52,0.51,-0.47,1.0,6.67,93.37,0.0955518,0.0,42.502075000000005,nan,-71.88523833333333,nan,-2.0,0.0,4230.1245,0.0,0.0,0.0,0.0
4085.0,33.0,38.0,39.0,13.0,0.0,nan,-0.05,-8.11,-0.4,1.97,-92.53,92.75,3.77,1.45,-0.49,0.51,-0.51,0.51,-0.47,1.0,6.67,93.37,0.0955518,0.0,42.502075000000005,nan,-71.88523833333333,nan,-2.0,0.0,4230.1245,0.0,0.0,0.0,0.0
4104.0,32.0,40.0,30.0,21.0,0.0,nan,-0.14,-7.64,-0.32,1.95,-92.45,92.72,4.12,1.52,-0.14,0.51,-0.51,0.51,-0.47,1.0,6.67,93.37,0.0955518,0.0,42.502075000000005,nan,-71.88523833333333,nan,-2.0,0.0,4230.1245,7153.1143,0.0,0.0,0.0
4127.0,12.0,33.0,30.0,24.0,1.0,nan,-0.2,-8.16,-0.37,1.95,-92.38,92.69,3.21,1.38,-0.07,0.51,-0.51,0.51,-0.47,1.0,6.67,93.37,0.0955518,0.0,42.502075000000005,nan,-71.88523833333333,nan,-2.0,0.0,4230.1245,0.0,0.0,0.0,0.0
4146.0,33.0,48.0,29.0,32.0,1.0,nan,-0.28,-7.99,-0.35,1.94,-92.34,92.66,2.23,1.38,-0.35,0.51,-0.51,0.51,-0.47,1.0,6.67,93.37,0.0955518,0.0,42.502075000000005,nan,-71.88523833333333,nan,-2.0,0.0,4230.1245,0.0,0.0,0.0,0.0
4169.0,27.0,39.0,36.0,22.0,1.0,nan,-0.35,-8.5,-0.35,1.9,-92.19,92.62,4.61,0.89,-1.26,0.51,-0.51,0.51,-0.47,1.0,6.67,93.37,0.0955518,0.0,42.502075000000005,nan,-71.88523833333333,nan,-2.0,0.0,4230.1245,0.0,0.0,0.0,0.0
4196.0,32.0,29.0,28.0,28.0,0.0,nan,-0.33,-8.25,-0.39,1.86,-92.09,92.61,5.52,0.75,-2.24,0.51,-0.51,0.51,-0.47,1.0,6.67,93.37,0.0955518,0.0,42.502075000000005,nan,-71.88523833333333,nan,-2.0,0.0,4230.1245,0.0,0.0,0.0,0.0
4219.0,23.0,36.0,30.0,17.0,0.0,nan,-0.31,-8.23,-0.35,1.8,-91.98,92.6,5.66,0.54,-3.01,0.51,-0.51,0.5,-0.47,1.0,6.67,93.37,0.0955518,0.0,42.502075000000005,nan,-71.88523833333333,nan,-2.0,0.0,4230.1245,0.0,0.0,0.0,0.0
4238.0,24.0,43.0,32.0,13.0,2.0,nan,-0.26,-7.97,-0.36,1.73,-91.87,92.6,5.66,0.19,-3.78,0.51,-0.51,0.5,-0.47,1.0,6.67,93.37,0.0955518,0.0,42.502075000000005,nan,-71.88523833333333,nan,-2.0,0.0,4230.1245,0.0,0.0,0.0,0.0
4261.0,32.0,30.0,25.0,22.0,1.0,nan,-0.21,-8.08,-0.39,1.65,-91.77,92.6,5.8,-0.16,-3.92,0.51,-0.51,0.5,-0.47,1.0,6.67,93.37,0.0955518,0.0,42.502075000000005,nan,-71.88523833333333,nan,-2.0,0.0,4230.1245,0.0,0.0,0.0,0.0
4280.0,28.0,42.0,31.0,22.0,3.0,nan,-0.21,-7.8,-0.43,1.57,-91.68,92.61,5.1,-0.44,-3.85,0.51,-0.51,0.5,-0.47,1.0,6.67,93.37,0.0955518,0.0,42.502075000000005,nan,-71.88523833333333,nan,-2.0,0.0,4230.1245,0.0,0.0,0.0,0.0
4303.0,35.0,30.0,36.0,22.0,0.0,nan,-0.12,-8.09,-0.41,1.49,-91.61,92.63,4.05,-0.86,-3.57,0.51,-0.51,0.5,-0.47,1.0,6.67,93.37,0.0955518,0.0,42.502075000000005,nan,-71.88523833333333,nan,-2.0,0.0,4230.1245,0.0,0.0,0.0,0.0
4322.0,21.0,30.0,28.0,19.0,0.0,nan,-0.21,-8.05,-0.47,1.44,-91.56,92.66,3.28,-1.21,-2.59,0.51,-0.51,0.5,-0.48,1.0,6.67,93.37,0.0955518,0.0,42.502075000000005,nan,-71.88523833333333,nan,-2.0,0.0,4230.1245,0.0,0.0,0.0,0.0
4345.0,27.0,42.0,32.0,19.0,0.0,nan,-0.19,-7.88,-0.41,1.39,-91.53,92.69,2.23,-1.56,-2.45,0.51,-0.51,0.5,-0.48,1.0,6.67,93.37,0.0955518,0.0,42.502075000000005,nan,-71.88523833333333,nan,-2.0,0.0,4230.1245,0.0,0.0,0.0,0.0
4365.0,19.0,33.0,28.0,15.0,0.0,nan,-0.29,-7.9,-0.41,1.33,-91.58,92.77,-1.83,-2.12,-1.68,0.51,-0.51,0.5,-0.47,1.0,6.67,93.38,0.0955539,0.0,42.502075000000005,nan,-71.88523833333333,nan,-2.0,0.0,4230.1245,0.0,0.0,0.0,0.0
4397.0,24.0,33.0,37.0,16.0,0.0,nan,-0.29,-8.13,-0.38,1.3,-91.65,92.81,-3.02,-2.33,-1.75,0.51,-0.51,0.5,-0.47,1.0,6.67,93.38,0.0955539,0.0,42.502075000000005,nan,-71.88523833333333,nan,-2.0,0.0,4230.1245,0.0,0.0,0.0,0.0
4416.0,33.0,34.0,33.0,21.0,1.0,nan,-0.24,-8.05,-0.38,1.28,-91.73,92.86,-3.58,-2.47,-1.47,0.51,-0.51,0.5,-0.47,1.0,6.67,93.38,0.0955539,0.0,42.502075000000005,nan,-71.88523833333333,nan,-2.0,0.0,4230.1245,0.0,0.0,0.0,0.0
4439.0,34.0,44.0,35.0,22.0,1.0,nan,-0.22,-7.68,-0.33,1.26,-91.82,92.92,-4.14,-2.61,-1.19,0.51,-0.52,0.5,-0.47,1.0,6.67,93.38,0.0955539,0.0,42.502075000000005,nan,-71.88523833333333,nan,-2.0,0.0,4230.1245,0.0,0.0,0.0,0.0
4458.0,29.0,45.0,35.0,26.0,1.0,nan,-0.22,-7.62,-0.32,1.25,-91.93,92.97,-4.84,-2.61,-1.05,0.51,-0.52,0.5,-0.47,1.0,6.67,93.38,0.0955539,0.0,42.502075000000005,nan,-71.88523833333333,nan,-2.0,0.0,4230.1245,0.0,0.0,0.0,0.0
4481.0,32.0,36.0,30.0,12.0,1.0,nan,-0.14,-7.66,-0.29,1.23,-92.03,93.02,-5.12,-2.68,-0.77,0.51,-0.52,0.5,-0.47,1.0,6.67,93.38,0.0955539,0.0,42.502075000000005,nan,-71.88523833333333,nan,-2.0,0.0,4230.1245,0.0,0.0,0.0,0.0
4501.0,33.0,42.0,20.0,24.0,0.0,nan,-0.17,-7.79,-0.3,1.24,-92.13,93.08,-5.05,-2.75,0.14,0.51,-0.52,0.5,-0.47,1.0,6.67,93.38,0.0955539,0.0,42.502075000000005,nan,-71.88523833333333,nan,-2.0,0.0,4230.1245,0.0,0.0,0.0,0.0
4523.0,23.0,32.0,31.0,19.0,0.0,nan,-0.15,-7.79,-0.25,1.25,-92.23,93.13,-5.05,-2.61,0.56,0.51,-0.52,0.5,-0.47,1.0,6.67,93.38,0.0955539,0.0,42.502075000000005,nan,-71.88523833333333,nan,-2.0,0.0,4230.1245,0.0,0.0,0.0,0.0
4543.0,36.0,27.0,20.0,12.0,0.0,nan,-0.19,-7.98,-0.26,1.28,-92.31,93.18,-4.21,-2.54,1.26,0.51,-0.52,0.5,-0.47,1.0,6.67,93.38,0.0955539,0.0,42.502075000000005,nan,-71.88523833333333,nan,-2.0,0.0,4230.1245,0.0,0.0,0.0,0.0
4565.0,35.0,30.0,26.0,24.0,0.0,nan,-0.26,-7.76,-0.23,1.31,-92.36,93.23,-3.23,-2.54,1.4,0.51,-0.52,0.5,-0.47,1.0,6.67,93.38,0.0955539,0.0,42.502075000000005,nan,-71.88523833333333,nan,-2.0,0.0,4230.1245,0.0,0.0,0.0,0.0
4585.0,28.0,27.0,23.0,25.0,0.0,nan,-0.28,-7.86,-0.22,1.34,-92.41,93.28,-2.81,-2.33,0.77,0.51,-0.52,0.5,-0.47,1.0,6.67,93.38,0.0955539,0.0,42.502075000000005,nan,-71.88523833333333,nan,-2.0,0.0,4230.1245,0.0,0.0,0.0,0.0
4609.0,30.0,42.0,29.0,25.0,0.0,nan,-0.25,-7.78,-0.24,1.36,-92.43,93.36,-0.15,-1.84,0.0,0.51,-0.52,0.5,-0.47,1.0,6.67,93.38,0.0955539,0.0,42.502075000000005,nan,-71.88523833333333,nan,-2.0,0.0,4230.1245,0.0,0.0,0.0,0.0
4634.0,28.0,52.0,37.0,35.0,1.0,nan,-0.13,-7.88,-0.21,1.34,-92.39,93.39,1.11,-1.56,-0.56,0.51,-0.52,0.5,-0.47,1.0,6.67,93.38,0.0955539,0.0,42.502075000000005,nan,-71.88523833333333,nan,-2.0,0.0,4230.1245,0.0,0.0,0.0,0.0
4657.0,35.0,34.0,19.0,11.0,1.0,nan,-0.11,-8.08,-0.27,1.34,-92.35,93.41,1.88,-1.14,-0.07,0.51,-0.52,0.5,-0.47,1.0,6.67,93.38,0.0955539,0.0,42.502075000000005,nan,-71.88523833333333,nan,-2.0,0.0,4230.1245,0.0,0.0,0.0,0.0
4676.0,28.0,34.0,25.0,35.0,1.0,nan,-0.11,-7.97,-0.26,1.33,-92.3,93.43,2.44,-0.86,0.14,0.51,-0.52,0.5,-0.47,1.0,6.67,93.38,0.0955539,0.0,42.502075000000005,nan,-71.88523833333333,nan,-2.0,0.0,4230.1245,0.0,0.0,0.0,0.0
4699.0,37.0,35.0,30.0,19.0,0.0,nan,-0.15,-8.26,-0.3,1.34,-92.24,93.43,2.93,-0.3,0.35,0.51,-0.52,0.5,-0.47,1.0,6.67,93.38,0.0955539,0.0,42.502075000000005,nan,-71.88523833333333,nan,-2.0,0.0,4230.1245,0.0,0.0,0.0,0.0
4718.0,16.0,43.0,29.0,23.0,0.0,nan,-0.13,-8.27,-0.28,1.34,-92.17,93.43,3.35,0.05,0.49,0.51,-0.52,0.5,-0.47,1.0,6.67,93.38,0.0955539,0.0,42.502075000000005,nan,-71.88523833333333,nan,-2.0,0.0,4230.1245,0.0,0.0,0.0,0.0
4740.0,36.0,44.0,36.0,28.0,0.0,nan,-0.24,-8.29,-0.31,1.35,-92.09,93.42,3.77,0.54,0.35,0.51,-0.52,0.5,-0.47,1.0,6.67,93.38,0.0955539,0.0,42.502075000000005,nan,-71.88523833333333,nan,-2.0,0.0,4230.1245,0.0,0.0,0.0,0.0
4760.0,35.0,32.0,33.0,26.0,0.0,nan,-0.24,-8.53,-0.25,1.35,-92.01,93.4,3.91,0.89,-0.21,0.51,-0.52,0.5,-0.47,1.0,6.67,93.38,0.0955539,0.0,42.502075000000005,nan,-71.88523833333333,nan,-2.0,0.0,4230.1245,0.0,0.0,0.0,0.0
4783.0,27.0,35.0,39.0,32.0,1.0,nan,-0.26,-8.0,-0.26,1.34,-91.93,93.38,4.05,1.45,-0.91,0.51,-0.52,0.5,-0.47,1.0,6.67,93.38,0.0955539,0.0,42.502075000000005,nan,-71.88523833333333,nan,-2.0,0.0,4230.1245,0.0,0.0,0.0,0.0
4803.0,24.0,30.0,37.0,26.0,0.0,nan,-0.18,-8.08,-0.23,1.3,-91.85,93.34,3.98,1.66,-1.54,0.51,-0.52,0.5,-0.47,1.0,6.67,93.38,0.0955539,0.0,42.502075000000005,nan,-71.88523833333333,nan,-2.0,0.0,4230.1245,0.0,0.0,0.0,0.0
4826.0,27.0,39.0,30.0,33.0,1.0,nan,-0.08,-7.91,-0.17,1.22,-91.7,93.26,3.49,2.29,-1.82,0.51,-0.52,0.5,-0.47,1.0,6.7,93.36,0.095542,0.0,42.502075000000005,nan,-71.88523833333333,nan,-2.0,0.0,4230.1245,0.0,0.0,0.0,0.0
4858.0,23.0,27.0,26.0,22.0,0.0,nan,-0.05,-8.2,-0.19,1.19,-91.62,93.21,3.98,2.43,-0.91,0.51,-0.52,0.5,-0.47,1.0,6.7,93.36,0.095542,0.0,42.502075000000005,nan,-71.88523833333333,nan,-2.0,0.0,4230.1245,0.0,0.0,0.0,0.0
4877.0,26.0,42.0,30.0,28.0,1.0,nan,-0.16,-7.43,-0.13,1.18,-91.52,93.16,4.75,2.57,-0.63,0.51,-0.52,0.5,-0.47,1.0,6.7,93.36,0.095542,0.0,42.502075000000005,nan,-71.88523833333333,nan,-2.0,0.0,4230.1245,0.0,0.0,0.0,0.0
4900.0,24.0,22.0,8.0,7.0,1.0,nan,-0.18,-8.21,-0.22,1.17,-91.43,93.1,4.19,2.78,-0.42,0.51,-0.51,0.5,-0.47,1.0,6.7,93.36,0.095542,0.0,42.502075000000005,nan,-71.88523833333333,nan,-2.0,0.0,4230.1245,0.0,0.0,0.0,0.0
4919.0,31.0,39.0,50.0,29.0,1.0,nan,-0.29,-6.47,-0.18,1.14,-91.35,93.05,4.47,2.57,-2.03,0.51,-0.51,0.5,-0.48,1.0,6.7,93.36,0.095542,0.0,42.502075000000005,nan,-71.88523833333333,nan,-2.0,0.0,4230.1245,0.0,0.0,0.0,0.0
4942.0,33.0,40.0,35.0,11.0,0.0,nan,-0.37,-6.63,-0.09,1.08,-91.31,93.01,1.88,2.43,-3.92,0.51,-0.51,0.5,-0.48,1.0,6.7,93.36,0.095542,0.0,42.502075000000005,nan,-71.88523833333333,nan,-2.0,0.0,4230.1245,0.0,0.0,0.0,0.0
4961.0,35.0,42.0,33.0,28.0,3.0,nan,-0.12,-5.55,0.04,0.94,-91.25,92.97,1.95,2.22,-7.0,0.51,-0.51,0.5,-0.48,1.0,6.7,93.36,0.095542,0.0,42.502075000000005,nan,-71.88523833333333,nan,-2.0,0.0,4230.1245,0.0,0.0,0.0,0.0
4984.0,24.0,40.0,24.0,32.0,1.0,nan,0.04,-6.75,-0.05,0.64,-91.2,92.91,1.74,1.31,-6.93,0.51,-0.52,0.5,-0.48,1.0,6.7,93.36,0.095542,0.0,42.502075000000005,nan,-71.88523833333333,nan,-2.0,0.0,4230.1245,7153.1143,0.0,0.0,0.0
5010.0,30.0,42.0,31.0,22.0,1.0,nan,0.19,-8.05,-0.19,0.55,-91.14,92.9,3.14,0.96,-3.78,0.51,-0.52,0.49,-0.48,1.0,6.7,93.36,0.095542,0.0,42.502075000000005,nan,-71.88523833333333,nan,-2.0,0.0,4230.1245,0.0,0.0,0.0,0.0
5033.0,27.0,45.0,37.0,26.0,1.0,nan,0.09,-6.8,0.02,0.48,-91.01,92.89,6.08,0.4,-2.59,0.51,-0.51,0.49,-0.48,1.0,6.7,93.36,0.095542,0.0,42.502075000000005,nan,-71.88523833333333,nan,-2.0,0.0,4230.1245,0.0,0.0,0.0,0.0
5052.0,10.0,6.0,4.0,4.0,0.0,nan,-0.02,-10.76,-0.29,0.5,-90.9,92.89,5.87,-0.16,1.33,0.51,-0.51,0.49,-0.48,1.0,6.7,93.36,0.095542,0.0,42.502075000000005,nan,-71.88523833333333,nan,-2.0,0.0,4230.1245,0.0,0.0,0.0,0.0
5075.0,53.0,35.0,46.0,35.0,16.0,nan,-0.61,-6.28,-0.12,0.54,-90.77,92.9,6.15,-0.58,-0.84,0.51,-0.51,0.49,-0.48,1.0,6.7,93.36,0.095542,0.0,42.502075000000005,nan,-71.88523833333333,nan,-2.0,0.0,4230.1245,0.0,0.0,0.0,0.0
5095.0,18.0,30.0,16.0,4.0,0.0,nan,-0.55,-10.09,-0.38,0.53,-90.72,92.92,3.56,-1.07,-1.75,0.51,-0.51,0.49,-0.48,1.0,6.7,93.36,0.095542,0.0,42.502075000000005,nan,-71.88523833333333,nan,-2.0,0.0,4230.1245,0.0,0.0,0.0,0.0
5118.0,49.0,34.0,36.0,24.0,4.0,nan,-0.46,-5.5,-0.12,0.45,-90.68,92.96,1.88,-1.49,-5.81,0.51,-0.51,0.49,-0.48,1.0,6.7,93.36,0.095542,0.0,42.502075000000005,nan,-71.88523833333333,nan,-2.0,0.0,4230.1245,0.0,0.0,0.0,0.0
5137.0,23.0,33.0,30.0,20.0,0.0,nan,-0.28,-8.23,-0.27,0.33,-90.75,93.0,-2.95,-2.12,-6.93,0.51,-0.51,0.49,-0.48,1.0,6.7,93.36,0.095542,0.0,42.502075000000005,nan,-71.88523833333333,nan,-2.0,0.0,4230.1245,0.0,0.0,0.0,0.0
5161.0,35.0,44.0,35.0,36.0,3.0,nan,-0.15,-5.55,-0.11,0.2,-90.85,93.05,-4.49,-2.61,-7.42,0.51,-0.52,0.49,-0.48,1.0,6.7,93.36,0.095542,0.0,42.502075000000005,nan,-71.88523833333333,nan,-2.0,0.0,4230.1245,0.0,0.0,0.0,0.0
5179.0,23.0,29.0,27.0,13.0,2.0,nan,0.4,-8.7,-0.17,0.08,-90.93,93.12,-3.79,-3.17,-4.27,0.51,-0.52,0.49,-0.48,1.0,6.7,93.36,0.095542,0.0,42.502075000000005,nan,-71.88523833333333,nan,-2.0,0.0,4230.1245,0.0,0.0,0.0,0.0
5202.0,33.0,45.0,36.0,23.0,0.0,nan,0.25,-9.37,-0.19,0.11,-90.98,93.26,-0.08,-3.73,2.17,0.51,-0.52,0.49,-0.48,1.0,6.7,93.36,0.095542,0.0,42.502075000000005,nan,-71.88523833333333,nan,-2.0,0.0,4230.1245,0.0,0.0,0.0,0.0
5228.0,25.0,17.0,24.0,9.0,0.0,nan,-0.45,-6.67,-0.14,0.25,-90.94,93.33,2.02,-3.8,4.97,0.51,-0.52,0.49,-0.48,1.0,6.7,93.36,0.095542,0.0,42.502075000000005,nan,-71.88523833333333,nan,-2.0,0.0,4230.1245,0.0,0.0,0.0,0.0
5251.0,35.0,30.0,47.0,24.0,1.0,nan,-0.54,-6.92,-0.18,0.33,-90.93,93.41,0.9,-3.66,1.89,0.51,-0.52,0.49,-0.48,1.0,6.7,93.36,0.095542,0.0,42.502075000000005,nan,-71.88523833333333,nan,-2.0,0.0,4230.1245,0.0,0.0,0.0,0.0
5270.0,35.0,40.0,39.0,18.0,0.0,nan,-0.53,-6.45,-0.17,0.36,-90.94,93.48,-0.57,-3.66,-1.05,0.51,-0.52,0.49,-0.48,1.0,6.7,93.36,0.095542,0.0,42.502075000000005,nan,-71.88523833333333,nan,-2.0,0.0,4230.1245,0.0,0.0,0.0,0.0
5293.0,33.0,37.0,48.0,25.0,1.0,nan,-0.24,-6.06,-0.09,0.3,-91.02,93.55,-3.79,-3.66,-3.92,0.51,-0.52,0.49,-0.48,1.0,6.69,93.34,0.0955381,0.0,42.502075000000005,nan,-71.88523833333333,nan,-2.0,0.0,4230.1245,0.0,0.0,0.0,0.0
5315.0,43.0,41.0,35.0,22.0,4.0,nan,0.02,-6.62,-0.12,0.2,-91.12,93.62,-5.19,-3.31,-4.76,0.51,-0.52,0.49,-0.48,1.0,6.69,93.34,0.0955381,0.0,42.502075000000005,nan,-71.88523833333333,nan,-2.0,0.0,4230.1245,0.0,0.0,0.0,0.0
5338.0,31.0,34.0,23.0,21.0,0.0,nan,0.34,-7.53,-0.13,0.13,-91.21,93.69,-4.7,-3.17,-2.03,0.51,-0.52,0.49,-0.48,1.0,6.69,93.34,0.0955381,0.0,42.502075000000005,nan,-71.88523833333333,nan,-2.0,0.0,4230.1245,0.0,0.0,0.0,0.0
5357.0,33.0,31.0,16.0,26.0,0.0,nan,0.35,-7.53,-0.13,0.16,-91.25,93.74,-1.76,-2.82,2.59,0.51,-0.52,0.49,-0.48,1.0,6.69,93.34,0.0955381,0.0,42.502075000000005,nan,-71.88523833333333,nan,-2.0,0.0,4230.1245,0.0,0.0,0.0,0.0
5380.0,6.0,14.0,16.0,3.0,0.0,nan,-0.18,-7.28,-0.22,0.51,-91.17,93.81,3.77,-1.56,9.73,0.51,-0.52,0.49,-0.48,1.0,6.69,93.34,0.0955381,0.0,42.502075000000005,nan,-71.88523833333333,nan,-2.0,0.0,4230.1245,0.0,0.0,0.0,0.0
5406.0,53.0,42.0,39.0,23.0,1.0,nan,-0.64,-7.19,-0.22,0.73,-91.14,93.83,1.53,-1.0,8.54,0.51,-0.52,0.49,-0.47,1.0,6.69,93.34,0.0955381,0.0,42.502075000000005,nan,-71.88523833333333,nan,-2.0,0.0,4230.1245,0.0,0.0,0.0,0.0
5429.0,29.0,26.0,25.0,20.0,0.0,nan,-0.48,-6.17,-0.13,0.83,-91.12,93.84,1.11,-0.44,3.01,0.51,-0.52,0.49,-0.47,1.0,6.69,93.34,0.0955381,0.0,42.502075000000005,nan,-71.88523833333333,nan,-2.0,0.0,4230.1245,0.0,0.0,0.0,0.0
5448.0,28.0,47.0,34.0,33.0,1.0,nan,-0.51,-7.6,-0.28,0.87,-91.18,93.83,-2.39,0.05,0.77,0.51,-0.52,0.49,-0.47,1.0,6.69,93.34,0.0955381,0.0,42.502075000000005,nan,-71.88523833333333,nan,-2.0,0.0,4230.1245,0.0,0.0,0.0,0.0
5471.0,55.0,39.0,34.0,34.0,3.0,nan,0.0,-7.16,-0.17,0.82,-91.22,93.82,-2.11,0.68,-1.89,0.51,-0.52,0.49,-0.47,1.0,6.69,93.34,0.0955381,0.0,42.502075000000005,nan,-71.88523833333333,nan,-2.0,0.0,4230.1245,0.0,0.0,0.0,0.0
5490.0,32.0,27.0,32.0,12.0,0.0,nan,0.28,-8.86,-0.35,0.84,-91.24,93.8,-0.29,1.03,1.89,0.51,-0.52,0.49,-0.47,1.0,6.69,93.34,0.0955381,0.0,42.502075000000005,nan,-71.88523833333333,nan,-2.0,0.0,4230.1245,0.0,0.0,0.0,0.0
5513.0,45.0,32.0,27.0,25.0,1.0,nan,0.22,-7.04,-0.18,0.9,-91.17,93.77,3.63,1.31,4.69,0.51,-0.52,0.49,-0.47,1.0,6.69,93.34,0.0955381,0.0,42.502075000000005,nan,-71.88523833333333,nan,-2.0,0.0,4230.1245,0.0,0.0,0.0,0.0
5532.0,21.0,24.0,20.0,5.0,0.0,nan,0.08,-8.85,-0.33,1.05,-91.08,93.73,4.75,1.73,8.12,0.52,-0.52,0.49,-0.47,1.0,6.69,93.34,0.0955381,0.0,42.502075000000005,nan,-71.88523833333333,nan,-2.0,0.0,4230.1245,0.0,0.0,0.0,0.0
5555.0,28.0,34.0,32.0,34.0,1.0,nan,-0.28,-7.4,-0.32,1.24,-91.02,93.69,3.77,2.22,9.1,0.52,-0.52,0.49,-0.47,1.0,6.69,93.34,0.0955381,0.0,42.502075000000005,nan,-71.88523833333333,nan,-2.0,0.0,4230.1245,0.0,0.0,0.0,0.0
5574.0,28.0,32.0,30.0,18.0,1.0,nan,-0.37,-8.03,-0.39,1.41,-90.97,93.63,3.49,2.78,7.56,0.52,-0.51,0.49,-0.47,1.0,6.69,93.34,0.0955381,0.0,42.502075000000005,nan,-71.88523833333333,nan,-2.0,0.0,4230.1245,0.0,0.0,0.0,0.0
5597.0,36.0,36.0,27.0,24.0,1.0,nan,-0.37,-8.05,-0.34,1.54,-90.95,93.56,1.88,3.13,6.3,0.52,-0.51,0.5,-0.47,1.0,6.69,93.34,0.0955381,0.0,42.502075000000005,nan,-71.88523833333333,nan,-2.0,0.0,4230.1245,0.0,0.0,0.0,0.0
5616.0,49.0,29.0,48.0,15.0,0.0,nan,-0.12,-7.89,-0.34,1.63,-90.96,93.49,0.55,3.62,4.83,0.52,-0.51,0.5,-0.47,1.0,6.69,93.34,0.0955381,0.0,42.502075000000005,nan,-71.88523833333333,nan,-2.0,0.0,4230.1245,0.0,0.0,0.0,0.0
5639.0,23.0,35.0,25.0,18.0,0.0,nan,0.19,-8.43,-0.31,1.86,-91.0,93.32,-0.08,4.04,8.05,0.52,-0.51,0.5,-0.47,1.0,6.69,93.34,0.0955381,0.0,42.502075000000005,nan,-71.88523833333333,nan,-2.0,0.0,4230.1245,0.0,0.0,0.0,0.0
5665.0,30.0,35.0,33.0,14.0,0.0,nan,0.03,-8.09,-0.35,2.05,-91.02,93.23,-0.57,4.25,10.57,0.52,-0.51,0.5,-0.47,1.0,6.69,93.34,0.0955381,0.0,42.502075000000005,nan,-71.88523833333333,nan,-2.0,0.0,4230.1245,0.0,0.0,0.0,0.0
5689.0,37.0,40.0,32.0,19.0,0.0,nan,-0.14,-7.74,-0.3,2.26,-91.05,93.14,-0.71,4.39,10.92,0.52,-0.51,0.5,-0.47,1.0,6.69,93.34,0.0955381,0.0,42.502075000000005,nan,-71.88523833333333,nan,-2.0,0.0,4230.1245,0.0,0.0,0.0,0.0
5710.0,29.0,37.0,29.0,21.0,0.0,nan,-0.24,-7.65,-0.31,2.46,-91.11,93.05,-1.9,4.39,10.15,0.52,-0.51,0.5,-0.47,1.0,6.69,93.34,0.0955381,0.0,42.502075000000005,nan,-71.88523833333333,nan,-2.0,0.0,4230.1245,0.0,0.0,0.0,0.0
5731.0,32.0,28.0,30.0,22.0,1.0,nan,-0.31,-7.52,-0.28,2.62,-91.19,92.95,-3.3,4.53,8.19,0.52,-0.51,0.5,-0.47,1.0,6.69,93.34,0.0955381,0.0,42.502075000000005,nan,-71.88523833333333,nan,-2.0,0.0,4230.1245,0.0,0.0,0.0,0.0
5751.0,25.0,24.0,23.0,18.0,0.0,nan,-0.14,-8.57,-0.27,2.74,-91.28,92.86,-4.07,4.53,7.0,0.52,-0.51,0.5,-0.47,1.0,6.7,93.37,0.0955489,0.0,42.502075000000005,nan,-71.88523833333333,nan,-2.0,0.0,4230.1245,0.0,0.0,0.0,0.0
5776.0,37.0,43.0,30.0,23.0,1.0,nan,-0.06,-8.46,-0.23,2.86,-91.36,92.77,-3.65,4.46,7.07,0.52,-0.51,0.51,-0.47,1.0,6.7,93.37,0.0955489,0.0,42.502075000000005,nan,-71.88523833333333,nan,-2.0,0.0,4230.1245,0.0,0.0,0.0,0.0
5795.0,24.0,43.0,26.0,19.0,0.0,nan,-0.09,-8.76,-0.27,2.99,-91.43,92.67,-2.95,4.46,7.98,0.52,-0.51,0.51,-0.47,1.0,6.7,93.37,0.0955489,0.0,42.502075000000005,nan,-71.88523833333333,nan,-2.0,0.0,4230.1245,0.0,0.0,0.0,0.0
5818.0,27.0,33.0,31.0,12.0,1.0,nan,-0.26,-7.97,-0.22,3.26,-91.52,92.49,-2.11,4.53,7.63,0.52,-0.5,0.51,-0.47,1.0,6.7,93.37,0.0955489,0.0,42.502075000000005,nan,-71.88523833333333,nan,-2.0,0.0,4230.1245,0.0,0.0,0.0,0.0
5844.0,29.0,26.0,33.0,17.0,0.0,nan,-0.17,-7.44,-0.13,3.35,-91.58,92.4,-3.16,4.32,5.6,0.52,-0.5,0.51,-0.47,1.0,6.7,93.37,0.0955489,0.0,42.502075000000005,nan,-71.88523833333333,nan,-2.0,0.0,4230.1245,7153.1143,0.0,0.0,0.0
5867.0,34.0,34.0,30.0,26.0,0.0,nan,-0.07,-7.86,-0.18,3.41,-91.67,92.31,-4.21,4.25,4.76,0.52,-0.5,0.51,-0.47,1.0,6.7,93.37,0.0955489,0.0,42.502075000000005,nan,-71.88523833333333,nan,-2.0,0.0,4230.1245,0.0,0.0,0.0,0.0
5886.0,30.0,44.0,31.0,34.0,0.0,nan,0.05,-8.14,-0.1,3.47,-91.74,92.23,-4.14,4.11,4.76,0.52,-0.5,0.51,-0.47,1.0,6.7,93.37,0.0955489,0.0,42.502075000000005,nan,-71.88523833333333,nan,-2.0,0.0,4230.1245,0.0,0.0,0.0,0.0
5909.0,41.0,34.0,30.0,30.0,0.0,nan,0.1,-8.53,-0.1,3.54,-91.8,92.14,-3.23,4.04,5.81,0.52,-0.5,0.51,-0.47,1.0,6.7,93.37,0.0955489,0.0,42.502075000000005,nan,-71.88523833333333,nan,-2.0,0.0,4230.1245,0.0,0.0,0.0,0.0
5928.0,17.0,32.0,24.0,30.0,1.0,nan,-0.04,-8.59,-0.1,3.65,-91.84,92.06,-1.97,3.9,7.07,0.52,-0.5,0.51,-0.47,1.0,6.7,93.37,0.0955489,0.0,42.502075000000005,nan,-71.88523833333333,nan,-2.0,0.0,4230.1245,0.0,0.0,0.0,0.0
5951.0,22.0,33.0,24.0,19.0,0.0,nan,-0.21,-8.1,-0.11,3.76,-91.85,91.98,-1.06,3.76,6.65,0.52,-0.5,0.52,-0.47,1.0,6.7,93.37,0.0955489,0.0,42.502075000000005,nan,-71.88523833333333,nan,-2.0,0.0,4230.1245,0.0,0.0,0.0,0.0
5971.0,28.0,31.0,34.0,18.0,0.0,nan,-0.31,-8.08,-0.1,3.84,-91.86,91.91,-0.92,3.55,4.83,0.52,-0.5,0.52,-0.47,1.0,6.7,93.37,0.0955489,0.0,42.502075000000005,nan,-71.88523833333333,nan,-2.0,0.0,4230.1245,0.0,0.0,0.0,0.0
5993.0,31.0,38.0,32.0,28.0,0.0,nan,-0.28,-7.79,-0.08,3.87,-91.88,91.84,-1.34,3.27,2.52,0.52,-0.5,0.52,-0.47,1.0,6.7,93.37,0.0955489,0.0,42.502075000000005,nan,-71.88523833333333,nan,-2.0,0.0,4230.1245,0.0,0.0,0.0,0.0
