time,p1,p2,p3,p4,p5,termite,ax,ay,az,rx,ry,rz,roll,pitch,yaw,q1,q2,q3,q4,calibration,temperature,humidity,pressure,flag_rm,lat,lacoord,lon,locoord,capacitive,o_lat,o_lon,used_lat,used_lon,altitude,flag_lm
0.0,188.0,193.0,235.0,160.0,141.0,nan,-0.87,-7.93,-0.06,6.61,-90.52,93.0,-0.06,0.08,0.14,0.54,-0.49,0.52,-0.45,1.0,25.4,29.99,0.1010408,0.0,42.35943999999999,nan,-71.1020487037037,nan,0.0,0.0,7106.123,1.0,1.0,5.0,0.0
15.0,189.0,181.0,236.0,155.0,164.0,nan,-0.87,-7.93,-0.07,6.61,-90.52,93.0,0.01,0.08,0.14,0.54,-0.49,0.52,-0.45,1.0,25.4,29.99,0.1010408,0.0,42.35943999999999,nan,-71.1020487037037,nan,0.0,0.0,7106.123,0.0,0.0,0.0,0.0
37.0,233.0,254.0,289.0,152.0,163.0,nan,-0.88,-7.94,-0.07,6.61,-90.52,93.0,0.01,0.08,0.14,0.54,-0.49,0.52,-0.45,1.0,25.4,29.99,0.1010408,0.0,42.35943999999999,nan,-71.1020487037037,nan,0.0,0.0,7106.123,0.0,0.0,0.0,0.0
64.0,235.0,211.0,204.0,251.0,156.0,nan,-0.88,-7.94,-0.07,6.61,-90.52,93.0,0.0,0.0,0.0,0.54,-0.49,0.52,-0.45,1.0,25.4,29.99,0.1010408,0.0,42.35943999999999,nan,-71.1020487037037,nan,0.0,0.0,7106.123,0.0,0.0,0.0,0.0
81.0,220.0,196.0,191.0,241.0,176.0,nan,-0.87,-7.93,-0.06,6.61,-90.52,92.99,0.08,0.01,0.14,0.54,-0.49,0.52,-0.45,1.0,25.4,29.99,0.1010408,0.0,42.35943999999999,nan,-71.1020487037037,nan,0.0,0.0,7106.123,0.0,0.0,0.0,0.0
106.0,191.0,209.0,231.0,288.0,257.0,nan,-0.87,-7.93,-0.06,6.61,-90.52,92.99,-0.06,0.01,0.21,0.54,-0.49,0.52,-0.45,1.0,25.4,29.99,0.1010408,0.0,42.35943999999999,nan,-71.1020487037037,nan,0.0,0.0,7106.123,0.0,0.0,0.0,0.0
129.0,272.0,218.0,184.0,275.0,239.0,nan,-0.86,-7.93,-0.07,6.61,-90.52,92.99,-0.06,0.08,0.14,0.54,-0.49,0.52,-0.45,1.0,25.4,29.99,0.1010408,0.0,42.35943999999999,nan,-71.1020487037037,nan,0.0,0.0,7106.123,0.0,0.0,0.0,0.0
149.0,273.0,155.0,257.0,288.0,281.0,nan,-0.88,-7.93,-0.06,6.61,-90.52,92.99,-0.06,0.08,0.21,0.54,-0.49,0.52,-0.45,1.0,25.4,29.99,0.1010408,0.0,42.35943999999999,nan,-71.1020487037037,nan,0.0,0.0,7106.123,0.0,0.0,0.0,0.0
171.0,227.0,172.0,219.0,226.0,216.0,nan,-0.86,-7.93,-0.06,6.61,-90.52,92.99,0.01,0.01,0.14,0.54,-0.49,0.52,-0.45,1.0,25.4,29.99,0.1010408,0.0,42.35943999999999,nan,-71.1020487037037,nan,0.0,0.0,7106.123,0.0,0.0,0.0,0.0
191.0,268.0,211.0,202.0,163.0,246.0,nan,-0.89,-7.93,-0.06,6.62,-90.52,92.99,-0.06,0.15,0.21,0.54,-0.49,0.52,-0.45,1.0,25.4,29.99,0.1010408,0.0,42.35943999999999,nan,-71.1020487037037,nan,0.0,0.0,7106.123,0.0,0.0,0.0,0.0
214.0,243.0,246.0,259.0,245.0,204.0,nan,-0.87,-7.94,-0.06,6.61,-90.52,92.99,-0.06,0.08,0.14,0.54,-0.49,0.52,-0.45,1.0,25.4,29.99,0.1010408,0.0,42.35943999999999,nan,-71.1020487037037,nan,0.0,0.0,7106.123,0.0,0.0,0.0,0.0
233.0,288.0,199.0,173.0,167.0,169.0,nan,-0.87,-7.93,-0.06,6.61,-90.52,92.98,0.01,0.08,0.14,0.54,-0.49,0.52,-0.45,1.0,25.4,30.03,0.1010438,0.0,42.359441626016256,nan,-71.1020474074074,nan,0.0,0.0,7106.123,0.0,0.0,5.0,0.0
258.0,242.0,209.0,272.0,184.0,166.0,nan,-0.87,-7.92,-0.07,6.61,-90.52,92.98,-0.06,0.08,0.14,0.54,-0.49,0.52,-0.45,1.0,25.4,30.03,0.1010438,0.0,42.359441626016256,nan,-71.1020474074074,nan,0.0,0.0,7106.123,0.0,0.0,0.0,0.0
285.0,186.0,230.0,207.0,130.0,144.0,nan,-0.88,-7.93,-0.07,6.61,-90.52,92.98,-0.13,0.08,0.21,0.54,-0.49,0.52,-0.45,1.0,25.4,30.03,0.1010438,0.0,42.359441626016256,nan,-71.1020474074074,nan,0.0,0.0,7106.123,0.0,0.0,0.0,0.0
308.0,234.0,215.0,248.0,169.0,187.0,nan,-0.87,-7.94,-0.06,6.61,-90.52,92.98,-0.06,0.08,0.21,0.54,-0.49,0.52,-0.45,1.0,25.4,30.03,0.1010438,0.0,42.359441626016256,nan,-71.1020474074074,nan,0.0,0.0,7106.123,0.0,0.0,0.0,0.0
327.0,215.0,208.0,262.0,218.0,236.0,nan,-0.87,-7.93,-0.06,6.62,-90.52,92.98,0.08,0.08,0.28,0.54,-0.49,0.52,-0.45,1.0,25.4,30.03,0.1010438,0.0,42.359441626016256,nan,-71.1020474074074,nan,0.0,0.0,7106.123,0.0,0.0,0.0,0.0
350.0,182.0,248.0,169.0,207.0,186.0,nan,-0.87,-7.93,-0.06,6.62,-90.52,92.97,-0.06,0.15,0.14,0.54,-0.49,0.52,-0.45,1.0,25.4,30.03,0.1010438,0.0,42.359441626016256,nan,-71.1020474074074,nan,0.0,0.0,7106.123,0.0,0.0,0.0,0.0
370.0,210.0,245.0,200.0,214.0,183.0,nan,-0.88,-7.93,-0.05,6.61,-90.52,92.97,-0.06,0.08,0.14,0.54,-0.49,0.52,-0.45,1.0,25.4,30.03,0.1010438,0.0,42.359441626016256,nan,-71.1020474074074,nan,0.0,0.0,7106.123,0.0,0.0,0.0,0.0
392.0,206.0,211.0,169.0,210.0,220.0,nan,-0.86,-7.94,-0.06,6.61,-90.52,92.97,-0.06,0.08,0.21,0.54,-0.49,0.52,-0.45,1.0,25.4,30.03,0.1010438,0.0,42.359441626016256,nan,-71.1020474074074,nan,0.0,0.0,7106.123,0.0,0.0,0.0,0.0
412.0,252.0,210.0,231.0,241.0,174.0,nan,-0.88,-7.93,-0.06,6.61,-90.52,92.97,-0.06,0.08,0.14,0.54,-0.49,0.52,-0.45,1.0,25.4,30.03,0.1010438,0.0,42.359441626016256,nan,-71.1020474074074,nan,0.0,0.0,7106.123,0.0,0.0,0.0,0.0
435.0,224.0,264.0,243.0,239.0,164.0,nan,-0.88,-7.94,-0.06,6.61,-90.52,92.96,0.01,0.08,0.14,0.54,-0.49,0.52,-0.45,1.0,25.4,30.03,0.1010438,0.0,42.3594424390244,nan,-71.10204611111111,nan,0.0,0.0,7106.123,0.0,0.0,5.0,0.0
461.0,251.0,260.0,226.0,242.0,183.0,nan,-0.88,-7.94,-0.06,6.61,-90.52,92.96,0.0,0.0,0.0,0.54,-0.49,0.52,-0.45,1.0,25.4,30.03,0.1010438,0.0,42.3594424390244,nan,-71.10204611111111,nan,0.0,0.0,7106.123,0.0,0.0,0.0,0.0
478.0,168.0,169.0,257.0,226.0,216.0,nan,-0.88,-7.93,-0.06,6.61,-90.52,92.96,-0.06,0.15,0.21,0.54,-0.49,0.52,-0.45,1.0,25.4,30.03,0.1010438,0.0,42.3594424390244,nan,-71.10204611111111,nan,0.0,0.0,7106.123,0.0,0.0,0.0,0.0
504.0,237.0,222.0,121.0,265.0,295.0,nan,-0.87,-7.94,-0.06,6.62,-90.52,92.96,0.01,0.08,0.28,0.54,-0.49,0.52,-0.45,1.0,25.4,30.03,0.1010438,0.0,42.3594424390244,nan,-71.10204611111111,nan,0.0,0.0,7106.123,0.0,0.0,0.0,0.0
526.0,218.0,213.0,186.0,262.0,248.0,nan,-0.87,-7.94,-0.05,6.61,-90.52,92.96,0.01,0.01,0.14,0.54,-0.49,0.52,-0.45,1.0,25.4,30.03,0.1010438,0.0,42.3594424390244,nan,-71.10204611111111,nan,0.0,0.0,7106.123,0.0,0.0,0.0,0.0
545.0,191.0,243.0,207.0,212.0,178.0,nan,-0.88,-7.92,-0.06,6.62,-90.52,92.96,0.01,0.01,0.21,0.54,-0.49,0.52,-0.45,1.0,25.4,30.03,0.1010438,0.0,42.3594424390244,nan,-71.10204611111111,nan,0.0,0.0,7106.123,0.0,0.0,0.0,0.0
568.0,228.0,256.0,225.0,251.0,159.0,nan,-0.87,-7.93,-0.07,6.62,-90.52,92.96,-0.13,0.08,0.21,0.54,-0.49,0.52,-0.45,1.0,25.4,30.03,0.1010438,0.0,42.3594424390244,nan,-71.10204611111111,nan,0.0,0.0,7106.123,0.0,0.0,0.0,0.0
588.0,198.0,210.0,247.0,258.0,204.0,nan,-0.87,-7.93,-0.06,6.62,-90.52,92.95,0.01,0.15,0.21,0.54,-0.49,0.52,-0.45,1.0,25.4,30.03,0.1010438,0.0,42.3594424390244,nan,-71.10204611111111,nan,0.0,0.0,7106.123,0.0,0.0,0.0,0.0
611.0,230.0,205.0,311.0,261.0,153.0,nan,-0.86,-7.93,-0.06,6.62,-90.52,92.95,0.01,0.08,0.14,0.54,-0.49,0.52,-0.45,1.0,25.4,30.03,0.1010438,0.0,42.3594424390244,nan,-71.10204611111111,nan,0.0,0.0,7106.123,0.0,0.0,0.0,0.0
630.0,215.0,195.0,164.0,200.0,174.0,nan,-0.88,-7.93,-0.06,6.62,-90.52,92.95,0.01,0.08,0.14,0.54,-0.49,0.52,-0.45,1.0,25.4,30.03,0.1010438,0.0,42.3594424390244,nan,-71.10204611111111,nan,0.0,0.0,7106.123,0.0,0.0,0.0,0.0
653.0,216.0,240.0,240.0,204.0,169.0,nan,-0.88,-7.93,-0.06,6.62,-90.52,92.95,0.01,0.08,0.14,0.54,-0.49,0.52,-0.45,1.0,25.4,30.03,0.1010438,0.0,42.35944325203251,nan,-71.1020448148148,nan,0.0,0.0,7106.123,0.0,0.0,5.0,0.0
680.0,211.0,245.0,248.0,296.0,200.0,nan,-0.88,-7.93,-0.06,6.62,-90.52,92.95,0.0,0.0,0.0,0.54,-0.49,0.52,-0.45,1.0,25.4,30.03,0.1010438,0.0,42.35944406504065,nan,-71.10204351851851,nan,0.0,0.0,7106.123,0.0,0.0,5.0,0.0
697.0,247.0,282.0,234.0,257.0,207.0,nan,-0.86,-7.93,-0.05,6.61,-90.52,92.94,-0.06,0.15,0.14,0.54,-0.49,0.52,-0.45,1.0,25.41,30.02,0.1010408,0.0,42.35944406504065,nan,-71.10204351851851,nan,0.0,0.0,7106.123,0.0,0.0,0.0,0.0
728.0,234.0,301.0,231.0,142.0,195.0,nan,-0.87,-7.93,-0.06,6.61,-90.52,92.94,-0.06,0.08,0.21,0.54,-0.49,0.52,-0.45,1.0,25.41,30.02,0.1010408,0.0,42.35944487804878,nan,-71.10204222222224,nan,0.0,0.0,7106.123,0.0,0.0,5.0,0.0
747.0,235.0,211.0,149.0,221.0,176.0,nan,-0.86,-7.94,-0.06,6.61,-90.52,92.94,0.01,0.15,0.21,0.54,-0.49,0.52,-0.45,1.0,25.41,30.02,0.1010408,0.0,42.35944569105691,nan,-71.10204092592592,nan,0.0,0.0,7106.123,0.0,0.0,5.0,0.0
770.0,207.0,197.0,217.0,310.0,233.0,nan,-0.88,-7.92,-0.07,6.62,-90.52,92.94,0.01,0.08,0.21,0.54,-0.49,0.52,-0.45,1.0,25.41,30.02,0.1010408,0.0,42.359446504065026,nan,-71.10203962962964,nan,0.0,0.0,7106.123,0.0,0.0,5.0,0.0
789.0,275.0,267.0,229.0,321.0,256.0,nan,-0.87,-7.93,-0.07,6.61,-90.52,92.93,-0.06,0.08,0.14,0.54,-0.49,0.52,-0.45,1.0,25.41,30.02,0.1010408,0.0,42.35944731707316,nan,-71.10203833333333,nan,0.0,0.0,7106.123,0.0,0.0,5.0,0.0
812.0,233.0,224.0,243.0,331.0,201.0,nan,-0.86,-7.94,-0.05,6.62,-90.51,92.93,0.01,0.01,0.21,0.54,-0.49,0.52,-0.45,1.0,25.41,30.02,0.1010408,0.0,42.359448130081304,nan,-71.10203703703705,nan,0.0,0.0,7106.123,0.0,0.0,5.0,0.0
839.0,201.0,233.0,264.0,242.0,226.0,nan,-0.86,-7.94,-0.05,6.62,-90.51,92.93,0.0,0.0,0.0,0.54,-0.49,0.52,-0.45,1.0,25.41,30.02,0.1010408,0.0,42.359448943089426,nan,-71.10203574074073,nan,0.0,0.0,7106.123,0.0,0.0,5.0,0.0
856.0,200.0,276.0,280.0,309.0,209.0,nan,-0.86,-7.93,-0.06,6.62,-90.51,92.93,0.01,0.08,0.21,0.54,-0.49,0.52,-0.45,1.0,25.41,30.02,0.1010408,0.0,42.359448943089426,nan,-71.10203574074073,nan,0.0,0.0,7106.123,0.0,0.0,0.0,0.0
881.0,249.0,346.0,305.0,292.0,244.0,nan,-0.88,-7.92,-0.05,6.62,-90.51,92.93,-0.06,0.08,0.14,0.54,-0.49,0.52,-0.45,1.0,25.41,30.02,0.1010408,0.0,42.35944975609757,nan,-71.10203444444446,nan,0.0,0.0,7106.123,0.0,0.0,5.0,0.0
904.0,239.0,267.0,242.0,282.0,256.0,nan,-0.87,-7.93,-0.06,6.62,-90.51,92.93,0.01,0.08,0.21,0.54,-0.49,0.52,-0.45,1.0,25.41,30.02,0.1010408,0.0,42.35945056910568,nan,-71.10203314814814,nan,0.0,0.0,7106.123,0.0,0.0,5.0,0.0
923.0,249.0,209.0,201.0,284.0,271.0,nan,-0.86,-7.93,-0.06,6.62,-90.51,92.93,-0.06,0.01,0.14,0.54,-0.49,0.52,-0.45,1.0,25.41,30.02,0.1010408,0.0,42.35945138211382,nan,-71.10203185185186,nan,0.0,0.0,7106.123,0.0,0.0,5.0,0.0
946.0,250.0,213.0,287.0,306.0,214.0,nan,-0.88,-7.93,-0.06,6.62,-90.51,92.92,0.01,0.08,0.28,0.54,-0.49,0.52,-0.45,1.0,25.41,30.02,0.1010408,0.0,42.359452195121946,nan,-71.10203055555557,nan,0.0,0.0,7106.123,0.0,0.0,5.0,0.0
965.0,252.0,285.0,228.0,246.0,258.0,nan,-0.87,-7.93,-0.06,6.62,-90.51,92.92,0.01,0.08,0.14,0.54,-0.49,0.52,-0.45,1.0,25.41,30.02,0.1010408,0.0,42.35945300813008,nan,-71.10202925925927,nan,0.0,0.0,7106.123,0.0,0.0,5.0,0.0
988.0,228.0,249.0,195.0,221.0,200.0,nan,-0.88,-7.92,-0.06,6.62,-90.51,92.92,-0.06,0.08,0.21,0.54,-0.49,0.52,-0.45,1.0,25.41,30.02,0.1010408,0.0,42.35945300813008,nan,-71.10202925925927,nan,0.0,0.0,7106.123,0.0,0.0,0.0,0.0
1008.0,264.0,296.0,219.0,241.0,175.0,nan,-0.86,-7.94,-0.07,6.62,-90.51,92.92,0.01,0.08,0.14,0.54,-0.49,0.52,-0.45,1.0,25.41,30.02,0.1010408,0.0,42.35945382113822,nan,-71.10202796296298,nan,0.0,0.0,7106.123,0.0,0.0,5.0,0.0
1031.0,224.0,241.0,242.0,214.0,171.0,nan,-0.87,-7.94,-0.07,6.62,-90.51,92.92,-0.06,0.08,0.21,0.54,-0.49,0.52,-0.45,1.0,25.41,30.02,0.1010408,0.0,42.35945463414633,nan,-71.10202395833335,nan,0.0,0.0,7106.1216,0.0,1.0,5.0,0.0
1057.0,265.0,231.0,232.0,276.0,185.0,nan,-0.87,-7.93,-0.07,6.62,-90.52,92.92,-0.06,0.08,0.21,0.54,-0.49,0.52,-0.45,1.0,25.41,30.02,0.1010408,0.0,42.359455447154474,nan,-71.10202125000002,nan,0.0,0.0,7106.1216,0.0,0.0,5.0,0.0
1080.0,146.0,192.0,187.0,264.0,208.0,nan,-0.86,-7.93,-0.05,6.62,-90.51,92.91,0.01,0.08,0.21,0.54,-0.49,0.52,-0.45,1.0,25.41,30.02,0.1010408,0.0,42.359456260162595,nan,-71.10201854166667,nan,0.0,0.0,7106.1216,0.0,0.0,5.0,0.0
1099.0,253.0,217.0,151.0,285.0,317.0,nan,-0.87,-7.93,-0.06,6.62,-90.51,92.91,-0.06,0.08,0.14,0.54,-0.49,0.52,-0.45,1.0,25.41,30.02,0.1010408,0.0,42.35945707317074,nan,-71.10201583333334,nan,0.0,0.0,7106.1216,0.0,0.0,5.0,0.0
1122.0,239.0,204.0,218.0,271.0,292.0,nan,-0.87,-7.93,-0.06,6.62,-90.52,92.91,-0.06,0.08,0.21,0.54,-0.49,0.52,-0.45,1.0,25.41,30.02,0.1010408,0.0,42.35945788617886,nan,-71.10201312500001,nan,0.0,0.0,7106.1216,0.0,0.0,5.0,0.0
1142.0,254.0,173.0,237.0,233.0,260.0,nan,-0.87,-7.92,-0.07,6.62,-90.51,92.91,0.01,0.08,0.14,0.54,-0.49,0.52,-0.45,1.0,25.41,30.02,0.1010408,0.0,42.35945788617886,nan,-71.10201312500001,nan,0.0,0.0,7106.1216,0.0,0.0,0.0,0.0
1164.0,255.0,180.0,124.0,197.0,280.0,nan,-0.87,-7.92,-0.07,6.62,-90.51,92.91,0.01,-0.06,0.21,0.54,-0.49,0.52,-0.45,1.0,25.41,30.04,0.1010336,0.0,42.359458699187,nan,-71.10201041666669,nan,0.0,0.0,7106.1216,0.0,0.0,5.0,0.0
1186.0,233.0,187.0,170.0,281.0,274.0,nan,-0.86,-7.93,-0.05,6.62,-90.51,92.91,0.01,0.08,0.21,0.54,-0.49,0.52,-0.45,1.0,25.41,30.04,0.1010336,0.0,42.359459512195116,nan,-71.10200770833333,nan,0.0,0.0,7106.1216,0.0,0.0,5.0,0.0
1209.0,243.0,218.0,175.0,297.0,293.0,nan,-0.87,-7.93,-0.05,6.62,-90.51,92.91,0.01,0.08,0.14,0.54,-0.49,0.52,-0.45,1.0,25.41,30.04,0.1010336,0.0,42.35946032520325,nan,-71.102005,nan,0.0,0.0,7106.1216,0.0,0.0,5.0,0.0
1236.0,276.0,253.0,306.0,295.0,256.0,nan,-0.87,-7.93,-0.05,6.62,-90.51,92.91,0.0,0.0,0.0,0.54,-0.49,0.52,-0.45,1.0,25.41,30.04,0.1010336,0.0,42.35946113821139,nan,-71.10200229166666,nan,0.0,0.0,7106.1216,0.0,0.0,5.0,0.0
1253.0,235.0,235.0,170.0,171.0,184.0,nan,-0.85,-7.93,-0.08,6.62,-90.51,92.9,0.01,0.08,0.14,0.54,-0.49,0.52,-0.45,1.0,25.41,30.04,0.1010336,0.0,42.359461951219515,nan,-71.10199958333334,nan,0.0,0.0,7106.1216,0.0,0.0,5.0,0.0
1278.0,176.0,207.0,141.0,195.0,168.0,nan,-0.87,-7.93,-0.06,6.62,-90.51,92.9,-0.06,0.08,0.14,0.54,-0.49,0.52,-0.45,1.0,25.41,30.04,0.1010336,0.0,42.35946276422765,nan,-71.10199687500001,nan,0.0,0.0,7106.1216,0.0,0.0,5.0,0.0
1301.0,211.0,175.0,184.0,206.0,216.0,nan,-0.87,-7.92,-0.05,6.62,-90.51,92.9,0.01,0.08,0.14,0.54,-0.49,0.52,-0.45,1.0,25.41,30.04,0.1010336,0.0,42.35946276422765,nan,-71.10199687500001,nan,0.0,0.0,7106.1216,0.0,0.0,0.0,0.0
1320.0,269.0,226.0,225.0,240.0,189.0,nan,-0.86,-7.93,-0.06,6.62,-90.51,92.9,0.01,0.08,0.21,0.54,-0.49,0.52,-0.45,1.0,25.41,30.04,0.1010336,0.0,42.359463577235765,nan,-71.10199416666669,nan,0.0,0.0,7106.1216,0.0,0.0,5.0,0.0
1343.0,236.0,175.0,171.0,294.0,202.0,nan,-0.86,-7.94,-0.06,6.62,-90.51,92.9,-0.06,0.08,0.21,0.54,-0.49,0.52,-0.45,1.0,25.41,30.04,0.1010336,0.0,42.35946439024391,nan,-71.10199145833333,nan,0.0,0.0,7106.1216,0.0,0.0,5.0,0.0
1363.0,217.0,233.0,178.0,267.0,254.0,nan,-0.87,-7.94,-0.05,6.62,-90.51,92.9,0.01,0.01,0.14,0.54,-0.49,0.52,-0.45,1.0,25.41,30.04,0.1010336,0.0,42.35946520325203,nan,-71.10198875,nan,0.0,0.0,7106.1216,0.0,0.0,5.0,0.0
1386.0,188.0,161.0,191.0,309.0,238.0,nan,-0.87,-7.92,-0.06,6.62,-90.51,92.89,-0.06,0.22,0.28,0.54,-0.49,0.52,-0.45,1.0,25.41,30.04,0.1010336,0.0,42.35946601626017,nan,-71.10198604166668,nan,0.0,0.0,7106.1216,0.0,0.0,5.0,0.0
1406.0,273.0,261.0,233.0,262.0,232.0,nan,-0.86,-7.93,-0.08,6.62,-90.51,92.89,-0.06,0.08,0.07,0.54,-0.49,0.52,-0.45,1.0,25.41,30.04,0.1010336,0.0,42.35946682926831,nan,-71.10198333333332,nan,0.0,0.0,7106.1216,0.0,0.0,5.0,0.0
1428.0,207.0,280.0,224.0,217.0,203.0,nan,-0.87,-7.94,-0.05,6.61,-90.51,92.89,-0.06,0.08,0.14,0.54,-0.49,0.52,-0.45,1.0,25.41,30.04,0.1010336,0.0,42.35946682926831,nan,-71.10198333333332,nan,0.0,0.0,7106.1216,0.0,0.0,0.0,0.0
1455.0,236.0,269.0,177.0,213.0,193.0,nan,-0.88,-7.93,-0.06,6.62,-90.51,92.89,0.01,0.15,0.21,0.54,-0.49,0.52,-0.45,1.0,25.41,30.04,0.1010336,0.0,42.35946764227642,nan,-71.101980625,nan,0.0,0.0,7106.1216,0.0,0.0,5.0,0.0
1477.0,216.0,274.0,214.0,322.0,173.0,nan,-0.87,-7.93,-0.07,6.61,-90.51,92.89,-0.06,0.01,0.14,0.54,-0.49,0.52,-0.45,1.0,25.41,30.04,0.1010336,0.0,42.359468455284556,nan,-71.10197791666667,nan,0.0,0.0,7106.1216,0.0,0.0,5.0,0.0
1497.0,219.0,309.0,292.0,256.0,154.0,nan,-0.88,-7.93,-0.06,6.62,-90.51,92.88,-0.06,0.08,0.21,0.54,-0.49,0.52,-0.45,1.0,25.41,30.04,0.1010336,0.0,42.359469268292685,nan,-71.10197520833334,nan,0.0,0.0,7106.1216,0.0,0.0,5.0,0.0
1520.0,282.0,295.0,150.0,249.0,169.0,nan,-0.85,-7.94,-0.06,6.62,-90.51,92.88,0.01,0.08,0.21,0.54,-0.49,0.52,-0.45,1.0,25.41,30.04,0.1010336,0.0,42.35947008130082,nan,-71.1019725,nan,0.0,0.0,7106.1216,0.0,0.0,5.0,0.0
1539.0,228.0,176.0,151.0,273.0,175.0,nan,-0.87,-7.93,-0.06,6.61,-90.51,92.88,0.01,0.08,0.14,0.54,-0.49,0.52,-0.45,1.0,25.41,30.04,0.1010336,0.0,42.359470894308934,nan,-71.10196979166668,nan,0.0,0.0,7106.1216,0.0,0.0,5.0,0.0
1562.0,191.0,193.0,198.0,235.0,180.0,nan,-0.87,-7.93,-0.06,6.62,-90.51,92.88,0.01,0.01,0.28,0.54,-0.49,0.52,-0.45,1.0,25.41,30.04,0.1010336,0.0,42.35947170731708,nan,-71.10196708333332,nan,0.0,0.0,7106.1216,0.0,0.0,5.0,0.0
1582.0,186.0,253.0,154.0,226.0,160.0,nan,-0.87,-7.93,-0.07,6.61,-90.51,92.88,-0.06,0.08,0.07,0.54,-0.49,0.52,-0.45,1.0,25.41,30.04,0.1010336,0.0,42.35947170731708,nan,-71.10196708333332,nan,0.0,0.0,7106.1216,0.0,0.0,0.0,0.0
1605.0,229.0,204.0,93.0,152.0,182.0,nan,-0.87,-7.92,-0.06,6.62,-90.51,92.88,-0.06,0.08,0.28,0.54,-0.49,0.52,-0.45,1.0,25.41,30.04,0.1010336,0.0,42.35947333333334,nan,-71.10196437500002,nan,0.0,0.0,7106.1216,0.0,0.0,5.0,0.0
1624.0,245.0,264.0,207.0,308.0,227.0,nan,-0.88,-7.93,-0.06,6.62,-90.51,92.88,-0.06,0.08,0.21,0.54,-0.49,0.52,-0.45,1.0,25.4,30.01,0.1010357,0.0,42.35947333333334,nan,-71.10196166666667,nan,0.0,0.0,7106.1177,1.0,1.0,5.0,0.0
1656.0,311.0,215.0,289.0,350.0,224.0,nan,-0.86,-7.93,-0.06,6.62,-90.51,92.88,0.01,0.01,0.14,0.54,-0.49,0.52,-0.45,1.0,25.4,30.01,0.1010357,0.0,42.359473675213685,nan,-71.10196177489178,nan,0.0,0.0,7106.1177,0.0,0.0,5.0,0.0
1675.0,287.0,222.0,272.0,310.0,248.0,nan,-0.89,-7.92,-0.05,6.62,-90.51,92.88,-0.06,0.01,0.21,0.54,-0.49,0.52,-0.45,1.0,25.4,30.01,0.1010357,0.0,42.35947384615385,nan,-71.10196182900432,nan,0.0,0.0,7106.1177,0.0,0.0,5.0,0.0
1698.0,226.0,235.0,199.0,222.0,261.0,nan,-0.86,-7.93,-0.06,6.62,-90.51,92.87,0.01,0.08,0.21,0.54,-0.49,0.52,-0.45,1.0,25.4,30.01,0.1010357,0.0,42.359474017094016,nan,-71.10196188311689,nan,0.0,0.0,7106.1177,0.0,0.0,5.0,0.0
1718.0,248.0,237.0,227.0,283.0,273.0,nan,-0.88,-7.93,-0.06,6.62,-90.51,92.87,0.01,0.01,0.14,0.54,-0.49,0.52,-0.45,1.0,25.4,30.01,0.1010357,0.0,42.35947418803419,nan,-71.10196193722945,nan,0.0,0.0,7106.1177,0.0,0.0,5.0,0.0
1741.0,265.0,187.0,196.0,254.0,268.0,nan,-0.87,-7.94,-0.06,6.62,-90.51,92.87,-0.06,0.08,0.21,0.54,-0.49,0.52,-0.45,1.0,25.4,30.01,0.1010357,0.0,42.35947418803419,nan,-71.10196193722945,nan,0.0,0.0,7106.1177,0.0,0.0,0.0,0.0
1760.0,287.0,216.0,218.0,278.0,276.0,nan,-0.88,-7.92,-0.07,6.62,-90.51,92.87,0.01,0.01,0.07,0.54,-0.49,0.52,-0.45,1.0,25.4,30.01,0.1010357,0.0,42.35947435897436,nan,-71.101961991342,nan,0.0,0.0,7106.1177,0.0,0.0,5.1,0.0
1783.0,279.0,280.0,185.0,221.0,249.0,nan,-0.86,-7.93,-0.06,6.62,-90.51,92.87,0.01,0.08,0.21,0.54,-0.49,0.52,-0.45,1.0,25.4,30.01,0.1010357,0.0,42.35947452991453,nan,-71.10196204545456,nan,0.0,0.0,7106.1177,0.0,0.0,5.1,0.0
1803.0,307.0,260.0,206.0,183.0,288.0,nan,-0.86,-7.93,-0.06,6.61,-90.5,92.87,0.01,0.01,0.07,0.54,-0.49,0.52,-0.45,1.0,25.4,30.01,0.1010357,0.0,42.35947470085471,nan,-71.1019620995671,nan,0.0,0.0,7106.1177,0.0,0.0,5.1,0.0
1825.0,226.0,240.0,194.0,166.0,247.0,nan,-0.86,-7.93,-0.06,6.61,-90.51,92.87,-0.06,0.08,0.14,0.54,-0.49,0.52,-0.45,1.0,25.4,30.01,0.1010357,0.0,42.35947487179488,nan,-71.10196215367966,nan,0.0,0.0,7106.1177,0.0,0.0,5.1,0.0
1852.0,276.0,209.0,144.0,160.0,194.0,nan,-0.88,-7.92,-0.05,6.62,-90.51,92.87,0.01,0.08,0.21,0.54,-0.49,0.52,-0.45,1.0,25.4,30.01,0.1010357,0.0,42.359475042735035,nan,-71.10196220779218,nan,0.0,0.0,7106.1177,0.0,0.0,5.1,0.0
1874.0,245.0,201.0,219.0,187.0,194.0,nan,-0.86,-7.93,-0.04,6.62,-90.5,92.87,0.01,0.01,0.21,0.54,-0.49,0.52,-0.45,1.0,25.4,30.01,0.1010357,0.0,42.35947521367522,nan,-71.10196226190476,nan,0.0,0.0,7106.1177,0.0,0.0,5.1,0.0
1894.0,206.0,251.0,278.0,229.0,187.0,nan,-0.87,-7.93,-0.07,6.62,-90.5,92.86,0.01,0.08,0.21,0.54,-0.49,0.52,-0.45,1.0,25.4,30.01,0.1010357,0.0,42.35947521367522,nan,-71.10196226190476,nan,0.0,0.0,7106.1177,0.0,0.0,0.0,0.0
1917.0,201.0,254.0,254.0,247.0,152.0,nan,-0.87,-7.93,-0.06,6.62,-90.5,92.86,-0.06,0.08,0.14,0.54,-0.49,0.52,-0.45,1.0,25.4,30.01,0.1010357,0.0,42.359475384615386,nan,-71.10196231601732,nan,0.0,0.0,7106.1177,0.0,0.0,5.1,0.0
1937.0,211.0,271.0,211.0,254.0,180.0,nan,-0.88,-7.93,-0.07,6.61,-90.5,92.86,0.01,0.15,0.14,0.54,-0.49,0.52,-0.45,1.0,25.4,30.01,0.1010357,0.0,42.359475555555555,nan,-71.10196237012987,nan,0.0,0.0,7106.1177,0.0,0.0,5.1,0.0
1959.0,252.0,190.0,179.0,179.0,179.0,nan,-0.87,-7.93,-0.06,6.62,-90.5,92.86,-0.06,0.08,0.21,0.54,-0.49,0.52,-0.45,1.0,25.4,30.01,0.1010357,0.0,42.35947572649574,nan,-71.10196242424243,nan,0.0,0.0,7106.1177,0.0,0.0,5.1,0.0
1979.0,223.0,179.0,179.0,193.0,178.0,nan,-0.88,-7.93,-0.05,6.62,-90.5,92.86,0.01,0.08,0.14,0.54,-0.49,0.52,-0.45,1.0,25.4,30.01,0.1010357,0.0,42.35947589743591,nan,-71.10196247835498,nan,0.0,0.0,7106.1177,0.0,0.0,5.1,0.0
2002.0,251.0,260.0,223.0,229.0,176.0,nan,-0.88,-7.93,-0.05,6.62,-90.5,92.86,-0.06,0.01,0.21,0.54,-0.49,0.52,-0.45,1.0,25.4,30.01,0.1010357,0.0,42.35947589743591,nan,-71.10196247835498,nan,0.0,0.0,7106.1177,0.0,0.0,0.0,0.0
2021.0,211.0,233.0,253.0,244.0,197.0,nan,-0.87,-7.94,-0.05,6.62,-90.5,92.85,-0.06,0.08,0.14,0.54,-0.49,0.52,-0.45,1.0,25.4,30.01,0.1010357,0.0,42.35947606837606,nan,-71.10196253246754,nan,0.0,0.0,7106.1177,0.0,0.0,5.1,0.0
2044.0,210.0,250.0,173.0,200.0,175.0,nan,-0.87,-7.93,-0.07,6.62,-90.5,92.85,0.01,0.08,0.14,0.54,-0.49,0.52,-0.45,1.0,25.4,30.01,0.1010357,0.0,42.359476239316244,nan,-71.10196258658009,nan,0.0,0.0,7106.1177,0.0,0.0,5.1,0.0
2070.0,275.0,205.0,150.0,231.0,222.0,nan,-0.87,-7.93,-0.07,6.62,-90.51,92.85,-0.06,0.08,0.21,0.54,-0.49,0.52,-0.45,1.0,25.4,30.01,0.1010357,0.0,42.35947641025641,nan,-71.10196264069265,nan,0.0,0.0,7106.1177,0.0,0.0,5.1,0.0
2093.0,268.0,223.0,165.0,239.0,190.0,nan,-0.87,-7.93,-0.06,6.62,-90.51,92.85,-0.06,0.01,0.21,0.54,-0.49,0.52,-0.45,1.0,25.41,30.03,0.1010357,0.0,42.35947658119658,nan,-71.1019626948052,nan,0.0,0.0,7106.1177,0.0,0.0,5.1,0.0
2115.0,314.0,266.0,311.0,204.0,191.0,nan,-0.87,-7.93,-0.04,6.62,-90.5,92.85,0.01,0.08,0.14,0.54,-0.49,0.52,-0.45,1.0,25.41,30.03,0.1010357,0.0,42.35947675213676,nan,-71.10196274891776,nan,0.0,0.0,7106.1177,0.0,0.0,5.1,0.0
2138.0,253.0,215.0,208.0,204.0,186.0,nan,-0.86,-7.94,-0.04,6.62,-90.5,92.85,0.01,-0.06,0.14,0.54,-0.49,0.52,-0.45,1.0,25.41,30.03,0.1010357,0.0,42.359476923076926,nan,-71.1019628030303,nan,0.0,0.0,7106.1177,0.0,0.0,5.1,0.0
2157.0,287.0,223.0,179.0,263.0,233.0,nan,-0.88,-7.92,-0.06,6.62,-90.5,92.85,0.01,0.01,0.14,0.54,-0.49,0.52,-0.45,1.0,25.41,30.03,0.1010357,0.0,42.359476923076926,nan,-71.1019628030303,nan,0.0,0.0,7106.1177,0.0,0.0,0.0,0.0
2180.0,231.0,193.0,186.0,286.0,185.0,nan,-0.87,-7.93,-0.07,6.62,-90.5,92.85,-0.06,0.01,0.28,0.54,-0.49,0.52,-0.45,1.0,25.41,30.03,0.1010357,0.0,42.359477094017095,nan,-71.10196285714287,nan,0.0,0.0,7106.1177,0.0,0.0,5.1,0.0
2200.0,170.0,233.0,259.0,253.0,154.0,nan,-0.87,-7.92,-0.07,6.62,-90.5,92.85,-0.06,0.08,0.21,0.54,-0.49,0.52,-0.45,1.0,25.41,30.03,0.1010357,0.0,42.35947726495728,nan,-71.10196291125541,nan,0.0,0.0,7106.1177,0.0,0.0,5.1,0.0
2223.0,175.0,183.0,290.0,303.0,129.0,nan,-0.87,-7.93,-0.06,6.62,-90.5,92.84,0.01,0.08,0.21,0.54,-0.49,0.52,-0.45,1.0,25.41,30.03,0.1010357,0.0,42.35947743589743,nan,-71.10196296536797,nan,0.0,0.0,7106.1177,0.0,0.0,5.1,0.0
2249.0,251.0,230.0,241.0,286.0,178.0,nan,-0.87,-7.92,-0.07,6.62,-90.5,92.84,-0.06,0.08,0.28,0.54,-0.49,0.52,-0.45,1.0,25.41,30.03,0.1010357,0.0,42.3594776068376,nan,-71.10196301948052,nan,0.0,0.0,7106.1177,0.0,0.0,5.1,0.0
2272.0,267.0,231.0,168.0,274.0,223.0,nan,-0.86,-7.93,-0.06,6.62,-90.5,92.84,-0.06,0.01,0.14,0.54,-0.49,0.52,-0.45,1.0,25.41,30.03,0.1010357,0.0,42.359477777777784,nan,-71.10196307359308,nan,0.0,0.0,7106.1177,0.0,0.0,5.1,0.0
2291.0,167.0,198.0,171.0,282.0,203.0,nan,-0.87,-7.93,-0.07,6.62,-90.51,92.84,-0.06,0.08,0.21,0.54,-0.49,0.52,-0.45,1.0,25.41,30.03,0.1010357,0.0,42.35947794871795,nan,-71.10196312770563,nan,0.0,0.0,7106.1177,0.0,0.0,5.1,0.0
2314.0,198.0,257.0,188.0,214.0,171.0,nan,-0.85,-7.93,-0.07,6.62,-90.5,92.84,0.01,0.01,0.21,0.54,-0.49,0.52,-0.45,1.0,25.41,30.03,0.1010357,0.0,42.35947794871795,nan,-71.10196312770563,nan,0.0,0.0,7106.1177,0.0,0.0,0.0,0.0
2333.0,219.0,201.0,238.0,252.0,141.0,nan,-0.88,-7.92,-0.07,6.62,-90.51,92.84,-0.06,0.08,0.21,0.54,-0.49,0.52,-0.45,1.0,25.41,30.03,0.1010357,0.0,42.35947811965812,nan,-71.10196318181819,nan,0.0,0.0,7106.1177,0.0,0.0,5.1,0.0
2356.0,205.0,272.0,223.0,210.0,179.0,nan,-0.86,-7.93,-0.07,6.62,-90.51,92.84,0.01,0.01,0.21,0.54,-0.49,0.52,-0.45,1.0,25.41,30.03,0.1010357,0.0,42.359478290598304,nan,-71.10196323593074,nan,0.0,0.0,7106.1177,0.0,0.0,5.1,0.0
2376.0,222.0,249.0,288.0,205.0,199.0,nan,-0.87,-7.93,-0.07,6.62,-90.51,92.84,-0.06,0.01,0.21,0.54,-0.49,0.52,-0.45,1.0,25.41,30.03,0.1010357,0.0,42.35947846153846,nan,-71.10196329004327,nan,0.0,0.0,7106.1177,0.0,0.0,5.1,0.0
2399.0,167.0,198.0,108.0,187.0,196.0,nan,-0.88,-7.93,-0.06,6.63,-90.51,92.83,-0.06,0.08,0.28,0.54,-0.49,0.52,-0.45,1.0,25.41,30.03,0.1010357,0.0,42.35947863247863,nan,-71.10196334415585,nan,0.0,0.0,7106.1177,0.0,0.0,5.1,0.0
2418.0,223.0,202.0,212.0,268.0,232.0,nan,-0.88,-7.93,-0.06,6.63,-90.51,92.83,-0.06,0.08,0.21,0.54,-0.49,0.52,-0.45,1.0,25.41,30.03,0.1010357,0.0,42.35947863247863,nan,-71.10196334415585,nan,0.0,0.0,7106.1177,0.0,0.0,0.0,0.0
2441.0,303.0,148.0,235.0,267.0,207.0,nan,-0.88,-7.94,-0.06,6.63,-90.51,92.83,0.01,0.08,0.14,0.54,-0.49,0.52,-0.45,1.0,25.41,30.03,0.1010357,0.0,42.35947880341881,nan,-71.10196339826838,nan,0.0,0.0,7106.1177,0.0,0.0,5.1,0.0
2467.0,305.0,254.0,231.0,246.0,224.0,nan,-0.88,-7.93,-0.06,6.63,-90.51,92.83,0.01,0.08,0.21,0.54,-0.49,0.52,-0.45,1.0,25.41,30.03,0.1010357,0.0,42.35947897435898,nan,-71.10196345238096,nan,0.0,0.0,7106.1177,0.0,0.0,5.1,0.0
2490.0,304.0,209.0,185.0,236.0,229.0,nan,-0.86,-7.93,-0.06,6.62,-90.51,92.82,0.01,0.08,0.07,0.54,-0.49,0.52,-0.45,1.0,25.41,30.03,0.1010357,0.0,42.35947914529915,nan,-71.10196350649349,nan,0.0,0.0,7106.1177,0.0,0.0,5.1,0.0
2510.0,247.0,217.0,194.0,300.0,269.0,nan,-0.87,-7.93,-0.07,6.62,-90.51,92.82,0.01,0.08,0.21,0.54,-0.49,0.52,-0.45,1.0,25.41,30.03,0.1010357,0.0,42.35947931623932,nan,-71.10196356060607,nan,0.0,0.0,7106.1177,0.0,0.0,5.1,0.0
2533.0,236.0,177.0,178.0,322.0,189.0,nan,-0.86,-7.93,-0.07,6.62,-90.51,92.82,-0.06,0.01,0.14,0.54,-0.49,0.52,-0.45,1.0,25.41,30.03,0.1010357,0.0,42.35947948717949,nan,-71.1019636147186,nan,0.0,0.0,7106.1177,0.0,0.0,5.1,0.0
2552.0,215.0,173.0,231.0,188.0,217.0,nan,-0.89,-7.93,-0.06,6.62,-90.51,92.82,0.01,0.15,0.21,0.54,-0.49,0.52,-0.45,1.0,25.44,30.02,0.1010378,0.0,42.35947965811965,nan,-71.10196366883117,nan,0.0,0.0,7106.1177,0.0,0.0,5.1,0.0
2577.0,281.0,279.0,268.0,182.0,211.0,nan,-0.86,-7.93,-0.06,6.62,-90.5,92.82,0.01,0.08,0.21,0.54,-0.49,0.52,-0.45,1.0,25.44,30.02,0.1010378,0.0,42.35948,nan,-71.10196372294371,nan,0.0,0.0,7106.1177,0.0,0.0,5.1,0.0
2597.0,310.0,237.0,145.0,196.0,204.0,nan,-0.88,-7.93,-0.06,6.62,-90.51,92.82,-0.06,0.01,0.14,0.54,-0.49,0.52,-0.45,1.0,25.44,30.02,0.1010378,0.0,42.35948,nan,-71.10196372294371,nan,0.0,0.0,7106.1177,0.0,0.0,0.0,0.0
2620.0,255.0,201.0,101.0,245.0,179.0,nan,-0.88,-7.93,-0.06,6.62,-90.51,92.81,-0.06,0.15,0.14,0.54,-0.49,0.52,-0.45,1.0,25.44,30.02,0.1010378,0.0,42.35948,nan,-71.10196377705628,nan,0.0,0.0,7106.1177,1.0,0.0,5.1,0.0
2646.0,256.0,229.0,243.0,272.0,229.0,nan,-0.87,-7.93,-0.06,6.63,-90.5,92.81,0.01,0.08,0.28,0.54,-0.49,0.52,-0.45,1.0,25.44,30.02,0.1010378,0.0,42.35948014367817,nan,-71.10196383116882,nan,0.0,0.0,7106.1177,0.0,0.0,5.1,0.0
2669.0,239.0,204.0,297.0,304.0,214.0,nan,-0.86,-7.93,-0.06,6.63,-90.51,92.81,-0.06,0.01,0.14,0.54,-0.49,0.52,-0.45,1.0,25.44,30.02,0.1010378,0.0,42.35948021551725,nan,-71.10196388528139,nan,0.0,0.0,7106.1177,0.0,0.0,5.1,0.0
2688.0,213.0,230.0,260.0,322.0,212.0,nan,-0.88,-7.93,-0.07,6.63,-90.5,92.81,0.01,0.01,0.21,0.54,-0.49,0.52,-0.45,1.0,25.44,30.02,0.1010378,0.0,42.35948028735632,nan,-71.10196393939393,nan,0.0,0.0,7106.1177,0.0,0.0,5.1,0.0
2711.0,257.0,287.0,179.0,218.0,191.0,nan,-0.87,-7.93,-0.06,6.63,-90.51,92.81,-0.06,0.01,0.14,0.54,-0.49,0.52,-0.45,1.0,25.44,30.02,0.1010378,0.0,42.3594803591954,nan,-71.1019639935065,nan,0.0,0.0,7106.1177,0.0,0.0,5.1,0.0
2731.0,213.0,171.0,152.0,140.0,169.0,nan,-0.87,-7.92,-0.06,6.63,-90.5,92.81,0.01,0.01,0.21,0.54,-0.49,0.52,-0.45,1.0,25.44,30.02,0.1010378,0.0,42.35948043103449,nan,-71.10196404761906,nan,0.0,0.0,7106.1177,0.0,0.0,5.1,0.0
2754.0,213.0,265.0,307.0,250.0,201.0,nan,-0.86,-7.94,-0.06,6.63,-90.5,92.81,0.01,0.15,0.21,0.54,-0.49,0.52,-0.45,1.0,25.44,30.02,0.1010378,0.0,42.35948043103449,nan,-71.10196404761906,nan,0.0,0.0,7106.1177,0.0,0.0,0.0,0.0
2773.0,252.0,320.0,271.0,197.0,203.0,nan,-0.87,-7.92,-0.07,6.63,-90.51,92.8,-0.06,0.08,0.14,0.54,-0.49,0.52,-0.45,1.0,25.44,30.02,0.1010378,0.0,42.35948050287357,nan,-71.10196410173161,nan,0.0,0.0,7106.1177,0.0,0.0,5.1,0.0
2796.0,276.0,306.0,275.0,301.0,272.0,nan,-0.87,-7.93,-0.07,6.62,-90.5,92.8,0.01,0.01,0.14,0.54,-0.49,0.52,-0.45,1.0,25.44,30.02,0.1010378,0.0,42.35948057471264,nan,-71.10196415584417,nan,0.0,0.0,7106.1177,0.0,0.0,5.1,0.0
2815.0,279.0,296.0,304.0,298.0,215.0,nan,-0.86,-7.93,-0.06,6.62,-90.5,92.8,0.01,0.08,0.14,0.54,-0.49,0.52,-0.45,1.0,25.44,30.02,0.1010378,0.0,42.35948064655172,nan,-71.10196420995672,nan,0.0,0.0,7106.1177,0.0,0.0,5.1,0.0
2838.0,282.0,235.0,219.0,231.0,159.0,nan,-0.87,-7.94,-0.06,6.63,-90.5,92.8,0.01,0.08,0.21,0.54,-0.49,0.52,-0.45,1.0,25.44,30.02,0.1010378,0.0,42.35948071839081,nan,-71.10196426406928,nan,0.0,0.0,7106.1177,0.0,0.0,5.1,0.0
2865.0,237.0,260.0,182.0,233.0,186.0,nan,-0.87,-7.93,-0.07,6.63,-90.5,92.8,0.01,0.08,0.21,0.54,-0.49,0.52,-0.45,1.0,25.44,30.02,0.1010378,0.0,42.35948079022989,nan,-71.1019643181818,nan,0.0,0.0,7106.1177,0.0,0.0,5.1,0.0
2887.0,230.0,248.0,261.0,263.0,194.0,nan,-0.86,-7.93,-0.07,6.62,-90.5,92.8,-0.06,0.15,0.14,0.54,-0.49,0.52,-0.45,1.0,25.44,30.02,0.1010378,0.0,42.35948079022989,nan,-71.1019643181818,nan,0.0,0.0,7106.1177,0.0,0.0,0.0,0.0
2907.0,272.0,250.0,306.0,294.0,179.0,nan,-0.87,-7.93,-0.07,6.62,-90.5,92.79,0.01,0.08,0.21,0.54,-0.49,0.52,-0.45,1.0,25.44,30.02,0.1010378,0.0,42.35948086206897,nan,-71.10196437229436,nan,0.0,0.0,7106.1177,0.0,0.0,5.1,0.0
2930.0,235.0,280.0,203.0,196.0,173.0,nan,-0.87,-7.93,-0.05,6.62,-90.5,92.79,0.01,0.01,0.21,0.54,-0.49,0.52,-0.45,1.0,25.44,30.02,0.1010378,0.0,42.35948093390804,nan,-71.10196442640694,nan,0.0,0.0,7106.1177,0.0,0.0,5.1,0.0
2949.0,237.0,288.0,251.0,276.0,232.0,nan,-0.88,-7.92,-0.05,6.63,-90.5,92.79,0.01,0.08,0.21,0.54,-0.49,0.52,-0.45,1.0,25.44,30.02,0.1010378,0.0,42.35948100574713,nan,-71.10196448051947,nan,0.0,0.0,7106.1177,0.0,0.0,5.1,0.0
2975.0,251.0,221.0,270.0,303.0,170.0,nan,-0.87,-7.93,-0.06,6.63,-90.5,92.79,0.01,0.01,0.21,0.54,-0.49,0.52,-0.45,1.0,25.44,30.02,0.1010378,0.0,42.35948107758621,nan,-71.10196453463205,nan,0.0,0.0,7106.1177,0.0,0.0,5.1,0.0
2992.0,223.0,173.0,207.0,286.0,190.0,nan,-0.87,-7.93,-0.07,6.63,-90.5,92.79,-0.06,0.08,0.14,0.54,-0.49,0.52,-0.46,1.0,25.44,30.02,0.1010378,0.0,42.35948114942529,nan,-71.10196458874458,nan,0.0,0.0,7106.1177,0.0,0.0,5.1,0.0
3015.0,254.0,193.0,224.0,259.0,189.0,nan,-0.87,-7.93,-0.06,6.63,-90.5,92.79,0.01,0.08,0.07,0.54,-0.49,0.52,-0.46,1.0,25.44,30.06,0.1010521,0.0,42.35948122126436,nan,-71.10196464285715,nan,0.0,0.0,7106.1177,0.0,0.0,5.1,0.0
3046.0,255.0,220.0,287.0,305.0,190.0,nan,-0.87,-7.93,-0.05,6.63,-90.5,92.79,-0.06,0.08,0.28,0.54,-0.49,0.52,-0.46,1.0,25.44,30.06,0.1010521,0.0,42.35948129310345,nan,-71.10196469696969,nan,0.0,0.0,7106.1177,0.0,0.0,5.1,0.0
3069.0,234.0,196.0,238.0,253.0,208.0,nan,-0.86,-7.93,-0.07,6.63,-90.5,92.79,-0.06,0.01,0.14,0.54,-0.49,0.52,-0.46,1.0,25.44,30.06,0.1010521,0.0,42.35948129310345,nan,-71.10196469696969,nan,0.0,0.0,7106.1177,0.0,0.0,0.0,0.0
3089.0,251.0,186.0,147.0,203.0,203.0,nan,-0.86,-7.93,-0.06,6.63,-90.5,92.78,-0.06,0.08,0.21,0.54,-0.49,0.52,-0.46,1.0,25.44,30.06,0.1010521,0.0,42.35948136494253,nan,-71.10196475108226,nan,0.0,0.0,7106.1177,0.0,0.0,5.1,0.0
3109.0,234.0,261.0,255.0,284.0,286.0,nan,-0.86,-7.95,-0.05,6.62,-90.5,92.78,0.01,0.15,0.14,0.54,-0.49,0.52,-0.46,1.0,25.44,30.06,0.1010521,0.0,42.35948143678161,nan,-71.1019648051948,nan,0.0,0.0,7106.1177,0.0,0.0,5.1,0.0
3131.0,269.0,300.0,222.0,248.0,195.0,nan,-0.88,-7.92,-0.08,6.63,-90.5,92.78,0.01,0.08,0.21,0.54,-0.49,0.52,-0.46,1.0,25.44,30.06,0.1010521,0.0,42.35948150862069,nan,-71.10196485930737,nan,0.0,0.0,7106.1177,0.0,0.0,5.1,0.0
3153.0,278.0,245.0,179.0,221.0,239.0,nan,-0.86,-7.94,-0.07,6.62,-90.5,92.78,0.01,0.08,0.14,0.54,-0.49,0.52,-0.46,1.0,25.44,30.06,0.1010521,0.0,42.35948158045978,nan,-71.1019649134199,nan,0.0,0.0,7106.1177,0.0,0.0,5.1,0.0
3174.0,246.0,248.0,197.0,260.0,187.0,nan,-0.88,-7.93,-0.06,6.62,-90.5,92.78,-0.06,0.08,0.21,0.54,-0.49,0.52,-0.46,1.0,25.44,30.06,0.1010521,0.0,42.35948158045978,nan,-71.1019649134199,nan,0.0,0.0,7106.1177,0.0,0.0,0.0,0.0
3193.0,211.0,236.0,144.0,251.0,210.0,nan,-0.85,-7.93,-0.06,6.62,-90.5,92.78,0.01,0.01,0.21,0.54,-0.49,0.52,-0.46,1.0,25.44,30.06,0.1010521,0.0,42.35948165229885,nan,-71.10196496753248,nan,0.0,0.0,7106.1177,0.0,0.0,5.1,0.0
3216.0,236.0,180.0,187.0,247.0,220.0,nan,-0.87,-7.93,-0.06,6.62,-90.5,92.77,-0.06,0.08,0.21,0.54,-0.49,0.52,-0.46,1.0,25.44,30.06,0.1010521,0.0,42.35948172413793,nan,-71.10196502164501,nan,0.0,0.0,7106.1177,0.0,0.0,5.1,0.0
3244.0,221.0,203.0,98.0,232.0,226.0,nan,-0.87,-7.92,-0.05,6.62,-90.5,92.77,-0.06,0.15,0.07,0.54,-0.49,0.52,-0.46,1.0,25.44,30.06,0.1010521,0.0,42.35948179597701,nan,-71.10196507575759,nan,0.0,0.0,7106.1177,0.0,0.0,5.1,0.0
3265.0,213.0,199.0,218.0,287.0,228.0,nan,-0.87,-7.92,-0.06,6.62,-90.5,92.77,0.01,0.08,0.21,0.54,-0.49,0.52,-0.46,1.0,25.44,30.06,0.1010521,0.0,42.3594818678161,nan,-71.10196512987012,nan,0.0,0.0,7106.1177,0.0,0.0,5.1,0.0
3285.0,248.0,171.0,191.0,184.0,153.0,nan,-0.87,-7.94,-0.05,6.62,-90.5,92.77,0.01,0.08,0.14,0.54,-0.49,0.52,-0.46,1.0,25.44,30.06,0.1010521,0.0,42.35948193965518,nan,-71.1019651839827,nan,0.0,0.0,7106.1177,0.0,0.0,5.1,0.0
3307.0,227.0,264.0,210.0,225.0,166.0,nan,-0.87,-7.93,-0.05,6.62,-90.5,92.77,0.01,0.08,0.28,0.54,-0.49,0.52,-0.46,1.0,25.44,30.06,0.1010521,0.0,42.35948201149425,nan,-71.10196523809523,nan,0.0,0.0,7106.1177,0.0,0.0,5.1,0.0
3329.0,222.0,200.0,256.0,217.0,207.0,nan,-0.86,-7.94,-0.07,6.62,-90.5,92.77,0.01,-0.06,0.14,0.54,-0.49,0.52,-0.46,1.0,25.44,30.06,0.1010521,0.0,42.35948201149425,nan,-71.10196523809523,nan,0.0,0.0,7106.1177,0.0,0.0,0.0,0.0
3350.0,246.0,223.0,144.0,242.0,177.0,nan,-0.88,-7.93,-0.06,6.62,-90.5,92.77,0.01,-0.06,0.14,0.54,-0.49,0.52,-0.46,1.0,25.44,30.06,0.1010521,0.0,42.359482083333326,nan,-71.10196529220781,nan,0.0,0.0,7106.1177,0.0,0.0,5.1,0.0
3369.0,211.0,233.0,187.0,204.0,160.0,nan,-0.86,-7.94,-0.07,6.62,-90.5,92.77,0.01,0.15,0.21,0.54,-0.49,0.52,-0.46,1.0,25.44,30.06,0.1010521,0.0,42.35948215517242,nan,-71.10196534632034,nan,0.0,0.0,7106.1177,0.0,0.0,5.1,0.0
3392.0,192.0,199.0,172.0,195.0,204.0,nan,-0.88,-7.92,-0.06,6.62,-90.5,92.76,-0.06,0.15,0.07,0.54,-0.49,0.52,-0.46,1.0,25.44,30.06,0.1010521,0.0,42.3594822270115,nan,-71.10196540043289,nan,0.0,0.0,7106.1177,0.0,0.0,5.1,0.0
3413.0,247.0,214.0,134.0,228.0,208.0,nan,-0.87,-7.93,-0.06,6.62,-90.5,92.76,-0.13,0.08,0.21,0.54,-0.49,0.52,-0.46,1.0,25.44,30.06,0.1010521,0.0,42.359482298850565,nan,-71.10196545454545,nan,0.0,0.0,7106.1177,0.0,0.0,5.1,0.0
3435.0,287.0,181.0,186.0,247.0,218.0,nan,-0.87,-7.92,-0.08,6.62,-90.51,92.76,-0.06,0.08,0.21,0.54,-0.49,0.52,-0.46,1.0,25.44,30.06,0.1010521,0.0,42.35948237068966,nan,-71.101965508658,nan,0.0,0.0,7106.1177,0.0,0.0,5.1,0.0
3461.0,191.0,218.0,265.0,284.0,169.0,nan,-0.87,-7.94,-0.07,6.62,-90.51,92.76,0.01,0.01,0.14,0.54,-0.49,0.52,-0.46,1.0,25.44,30.06,0.1010521,0.0,42.35948244252874,nan,-71.10196556277056,nan,0.0,0.0,7106.1177,0.0,0.0,5.1,0.0
3484.0,223.0,244.0,173.0,209.0,118.0,nan,-0.88,-7.93,-0.06,6.62,-90.51,92.76,-0.06,0.01,0.21,0.54,-0.49,0.52,-0.46,1.0,25.4,30.01,0.101043,0.0,42.35948244252874,nan,-71.10196556277056,nan,0.0,0.0,7106.1177,0.0,0.0,0.0,0.0
3507.0,178.0,216.0,129.0,167.0,213.0,nan,-0.88,-7.93,-0.06,6.62,-90.51,92.75,-0.06,0.15,0.21,0.54,-0.49,0.52,-0.46,1.0,25.4,30.01,0.101043,0.0,42.35948251436782,nan,-71.1019656168831,nan,0.0,0.0,7106.1177,0.0,0.0,5.1,0.0
3529.0,200.0,224.0,159.0,194.0,135.0,nan,-0.87,-7.92,-0.05,6.62,-90.5,92.75,0.01,0.08,0.28,0.54,-0.49,0.52,-0.46,1.0,25.4,30.01,0.101043,0.0,42.3594825862069,nan,-71.10196567099567,nan,0.0,0.0,7106.1177,0.0,0.0,5.1,0.0
3548.0,248.0,237.0,204.0,147.0,194.0,nan,-0.86,-7.93,-0.06,6.62,-90.51,92.75,-0.06,0.08,0.21,0.54,-0.49,0.52,-0.46,1.0,25.4,30.01,0.101043,0.0,42.35948265804599,nan,-71.10196572510822,nan,0.0,0.0,7106.1177,0.0,0.0,5.1,0.0
3571.0,193.0,200.0,189.0,160.0,205.0,nan,-0.87,-7.93,-0.07,6.63,-90.51,92.75,-0.06,0.08,0.21,0.54,-0.49,0.52,-0.46,1.0,25.4,30.01,0.101043,0.0,42.35948272988506,nan,-71.10196577922078,nan,0.0,0.0,7106.1177,0.0,0.0,5.1,0.0
3591.0,285.0,245.0,241.0,224.0,298.0,nan,-0.87,-7.93,-0.07,6.63,-90.51,92.75,-0.13,0.15,0.21,0.54,-0.49,0.52,-0.46,1.0,25.4,30.01,0.101043,0.0,42.35948280172414,nan,-71.10196583333332,nan,0.0,0.0,7106.1177,0.0,0.0,5.1,0.0
3613.0,247.0,214.0,183.0,221.0,192.0,nan,-0.86,-7.93,-0.06,6.63,-90.51,92.74,-0.06,0.15,0.28,0.54,-0.49,0.52,-0.46,1.0,25.4,30.01,0.101043,0.0,42.359482873563216,nan,-71.10196588744589,nan,0.0,0.0,7106.1177,0.0,0.0,5.1,0.0
3640.0,284.0,247.0,226.0,194.0,191.0,nan,-0.87,-7.92,-0.06,6.62,-90.51,92.74,-0.06,0.08,0.07,0.54,-0.49,0.52,-0.46,1.0,25.4,30.01,0.101043,0.0,42.359482873563216,nan,-71.10196588744589,nan,0.0,0.0,7106.1177,0.0,0.0,0.0,0.0
3663.0,249.0,284.0,202.0,217.0,190.0,nan,-0.87,-7.92,-0.07,6.63,-90.51,92.74,-0.06,0.15,0.28,0.54,-0.49,0.52,-0.46,1.0,25.4,30.01,0.101043,0.0,42.35948294540231,nan,-71.10196594155843,nan,0.0,0.0,7106.1177,0.0,0.0,5.1,0.0
3682.0,211.0,231.0,164.0,211.0,149.0,nan,-0.86,-7.93,-0.08,6.63,-90.51,92.74,0.01,0.15,0.14,0.54,-0.49,0.52,-0.46,1.0,25.4,30.01,0.101043,0.0,42.35948301724138,nan,-71.101965995671,nan,0.0,0.0,7106.1177,0.0,0.0,5.1,0.0
3705.0,161.0,254.0,171.0,152.0,206.0,nan,-0.88,-7.92,-0.06,6.63,-90.51,92.73,-0.06,0.15,0.21,0.54,-0.49,0.52,-0.46,1.0,25.4,30.01,0.101043,0.0,42.359483089080456,nan,-71.10196604978354,nan,0.0,0.0,7106.1177,0.0,0.0,5.1,0.0
3725.0,265.0,264.0,160.0,205.0,267.0,nan,-0.86,-7.93,-0.06,6.62,-90.51,92.73,-0.06,0.15,0.14,0.54,-0.49,0.52,-0.46,1.0,25.4,30.01,0.101043,0.0,42.35948316091954,nan,-71.1019661038961,nan,0.0,0.0,7106.1177,0.0,0.0,5.1,0.0
3747.0,269.0,260.0,137.0,187.0,177.0,nan,-0.88,-7.92,-0.05,6.63,-90.51,92.73,-0.06,0.08,0.28,0.54,-0.49,0.52,-0.46,1.0,25.4,30.01,0.101043,0.0,42.35948323275863,nan,-71.10196615800868,nan,0.0,0.0,7106.1177,0.0,0.0,5.1,0.0
3767.0,284.0,286.0,185.0,228.0,204.0,nan,-0.86,-7.94,-0.06,6.63,-90.51,92.73,0.08,0.01,0.14,0.54,-0.49,0.52,-0.46,1.0,25.4,30.01,0.101043,0.0,42.35948323275863,nan,-71.10196615800868,nan,0.0,0.0,7106.1177,0.0,0.0,0.0,0.0
3789.0,241.0,225.0,92.0,223.0,168.0,nan,-0.88,-7.93,-0.05,6.63,-90.51,92.73,0.01,0.08,0.21,0.54,-0.49,0.52,-0.46,1.0,25.4,30.01,0.101043,0.0,42.35948330459771,nan,-71.10196621212121,nan,0.0,0.0,7106.1177,0.0,0.0,5.1,0.0
3809.0,242.0,232.0,219.0,240.0,150.0,nan,-0.87,-7.93,-0.06,6.63,-90.51,92.72,-0.06,0.08,0.21,0.54,-0.49,0.52,-0.46,1.0,25.4,30.01,0.101043,0.0,42.35948337643678,nan,-71.10196626623379,nan,0.0,0.0,7106.1177,0.0,0.0,5.1,0.0
3832.0,206.0,252.0,257.0,194.0,182.0,nan,-0.87,-7.93,-0.07,6.63,-90.51,92.72,-0.06,0.08,0.21,0.54,-0.49,0.52,-0.46,1.0,25.4,30.01,0.101043,0.0,42.35948344827586,nan,-71.10196632034632,nan,0.0,0.0,7106.1177,0.0,0.0,5.1,0.0
3858.0,232.0,229.0,147.0,214.0,162.0,nan,-0.87,-7.93,-0.09,6.63,-90.51,92.72,0.01,0.15,0.14,0.54,-0.49,0.52,-0.46,1.0,25.4,30.01,0.101043,0.0,42.35948352011495,nan,-71.10196637445887,nan,0.0,0.0,7106.1177,0.0,0.0,5.1,0.0
3881.0,192.0,188.0,226.0,258.0,191.0,nan,-0.87,-7.93,-0.07,6.63,-90.51,92.72,0.01,0.01,0.21,0.54,-0.49,0.52,-0.46,1.0,25.4,30.01,0.101043,0.0,42.35948359195403,nan,-71.10196642857142,nan,0.0,0.0,7106.1177,0.0,0.0,5.1,0.0
3901.0,232.0,232.0,266.0,262.0,250.0,nan,-0.86,-7.93,-0.04,6.62,-90.51,92.71,0.01,0.15,0.07,0.54,-0.49,0.52,-0.46,1.0,25.4,30.01,0.101043,0.0,42.3594836637931,nan,-71.10196648268398,nan,0.0,0.0,7106.1177,0.0,0.0,5.1,0.0
3923.0,274.0,305.0,229.0,317.0,190.0,nan,-0.88,-7.93,-0.05,6.63,-90.51,92.71,0.01,0.08,0.28,0.54,-0.49,0.52,-0.46,1.0,25.4,30.01,0.101043,0.0,42.3594836637931,nan,-71.10196648268398,nan,0.0,0.0,7106.1177,0.0,0.0,0.0,0.0
3943.0,210.0,217.0,273.0,258.0,225.0,nan,-0.86,-7.93,-0.07,6.62,-90.51,92.71,0.01,0.08,0.14,0.54,-0.49,0.52,-0.46,1.0,25.42,29.99,0.101041,0.0,42.359483735632175,nan,-71.10196653679654,nan,0.0,0.0,7106.1177,0.0,0.0,5.1,0.0
3968.0,256.0,315.0,260.0,322.0,228.0,nan,-0.88,-7.92,-0.07,6.63,-90.51,92.71,-0.06,0.15,0.28,0.54,-0.48,0.52,-0.46,1.0,25.42,29.99,0.101041,0.0,42.35948380747127,nan,-71.10196659090909,nan,0.0,0.0,7106.1177,0.0,0.0,5.1,0.0
3988.0,279.0,320.0,282.0,265.0,189.0,nan,-0.86,-7.93,-0.06,6.63,-90.51,92.71,0.01,0.01,0.14,0.54,-0.48,0.52,-0.46,1.0,25.42,29.99,0.101041,0.0,42.359483879310346,nan,-71.10196664502165,nan,0.0,0.0,7106.1177,0.0,0.0,5.1,0.0
4010.0,208.0,263.0,261.0,278.0,157.0,nan,-0.86,-7.94,-0.06,6.63,-90.51,92.7,0.01,0.08,0.21,0.54,-0.48,0.52,-0.46,1.0,25.42,29.99,0.101041,0.0,42.35948395114943,nan,-71.1019666991342,nan,0.0,0.0,7106.1177,0.0,0.0,5.1,0.0
4037.0,176.0,185.0,245.0,208.0,132.0,nan,-0.87,-7.93,-0.07,6.62,-90.51,92.7,-0.06,0.08,0.07,0.54,-0.48,0.52,-0.46,1.0,25.42,29.99,0.101041,0.0,42.3594840229885,nan,-71.10196675324676,nan,0.0,0.0,7106.1177,0.0,0.0,5.1,0.0
4060.0,221.0,178.0,177.0,214.0,181.0,nan,-0.88,-7.93,-0.06,6.63,-90.51,92.7,-0.06,0.15,0.21,0.54,-0.48,0.52,-0.46,1.0,25.42,29.99,0.101041,0.0,42.359484094827586,nan,-71.1019668073593,nan,0.0,0.0,7106.1177,0.0,0.0,5.1,0.0
4080.0,239.0,252.0,141.0,242.0,194.0,nan,-0.86,-7.93,-0.07,6.62,-90.51,92.7,0.01,0.08,0.14,0.54,-0.48,0.52,-0.46,1.0,25.42,29.99,0.101041,0.0,42.359484094827586,nan,-71.1019668073593,nan,0.0,0.0,7106.1177,0.0,0.0,0.0,0.0
4102.0,175.0,178.0,193.0,292.0,130.0,nan,-0.87,-7.93,-0.06,6.63,-90.51,92.7,0.01,0.01,0.28,0.54,-0.48,0.52,-0.46,1.0,25.42,29.99,0.101041,0.0,42.35948416666667,nan,-71.10196686147187,nan,0.0,0.0,7106.1177,0.0,0.0,5.1,0.0
4121.0,231.0,206.0,170.0,204.0,160.0,nan,-0.87,-7.94,-0.06,6.63,-90.51,92.7,0.08,0.08,0.14,0.54,-0.48,0.52,-0.46,1.0,25.42,29.99,0.101041,0.0,42.35948423850575,nan,-71.10196691558441,nan,0.0,0.0,7106.1177,0.0,0.0,5.1,0.0
4145.0,159.0,152.0,184.0,199.0,183.0,nan,-0.87,-7.92,-0.06,6.63,-90.51,92.69,-0.06,0.08,0.21,0.54,-0.48,0.52,-0.46,1.0,25.42,29.99,0.101041,0.0,42.35948431034484,nan,-71.10196696969697,nan,0.0,0.0,7106.1177,0.0,0.0,5.1,0.0
4164.0,199.0,122.0,206.0,217.0,168.0,nan,-0.86,-7.93,-0.07,6.62,-90.51,92.69,-0.06,0.01,0.14,0.54,-0.48,0.52,-0.46,1.0,25.42,29.99,0.101041,0.0,42.35948438218392,nan,-71.10196702380952,nan,0.0,0.0,7106.1177,0.0,0.0,5.1,0.0
4187.0,227.0,241.0,187.0,194.0,200.0,nan,-0.88,-7.93,-0.06,6.63,-90.51,92.69,0.01,0.08,0.21,0.54,-0.48,0.52,-0.46,1.0,25.42,29.99,0.101041,0.0,42.35948438218392,nan,-71.10196702380952,nan,0.0,0.0,7106.1177,0.0,0.0,0.0,0.0
4206.0,249.0,338.0,271.0,214.0,213.0,nan,-0.87,-7.93,-0.06,6.63,-90.51,92.69,-0.06,0.08,0.21,0.54,-0.48,0.52,-0.46,1.0,25.42,29.99,0.101041,0.0,42.35948445402299,nan,-71.10196707792208,nan,0.0,0.0,7106.1177,0.0,0.0,5.1,0.0
4229.0,207.0,230.0,230.0,159.0,204.0,nan,-0.86,-7.94,-0.08,6.63,-90.51,92.69,0.01,0.08,0.28,0.54,-0.48,0.52,-0.46,1.0,25.42,29.99,0.101041,0.0,42.359484525862065,nan,-71.10196713203463,nan,0.0,0.0,7106.1177,0.0,0.0,5.1,0.0
4256.0,218.0,168.0,173.0,288.0,266.0,nan,-0.86,-7.93,-0.06,6.63,-90.51,92.69,-0.06,0.08,0.14,0.54,-0.48,0.52,-0.46,1.0,25.42,29.99,0.101041,0.0,42.35948459770116,nan,-71.10196718614719,nan,0.0,0.0,7106.1177,0.0,0.0,5.1,0.0
4279.0,183.0,176.0,287.0,307.0,211.0,nan,-0.87,-7.93,-0.06,6.63,-90.51,92.68,0.01,0.08,0.21,0.54,-0.48,0.52,-0.46,1.0,25.42,29.99,0.101041,0.0,42.35948466954024,nan,-71.10196724025974,nan,0.0,0.0,7106.1177,0.0,0.0,5.1,0.0
4298.0,226.0,250.0,243.0,213.0,146.0,nan,-0.86,-7.93,-0.05,6.62,-90.51,92.68,0.01,0.08,0.07,0.54,-0.48,0.52,-0.46,1.0,25.42,29.99,0.101041,0.0,42.359484741379305,nan,-71.1019672943723,nan,0.0,0.0,7106.1177,0.0,0.0,5.1,0.0
4321.0,208.0,176.0,214.0,272.0,267.0,nan,-0.87,-7.94,-0.06,6.62,-90.51,92.68,-0.06,0.08,0.21,0.54,-0.48,0.52,-0.46,1.0,25.42,29.99,0.101041,0.0,42.35948481321839,nan,-71.10196734848485,nan,0.0,0.0,7106.1177,0.0,0.0,5.1,0.0
4341.0,223.0,213.0,180.0,302.0,238.0,nan,-0.86,-7.93,-0.07,6.62,-90.51,92.68,-0.06,0.08,0.07,0.54,-0.48,0.52,-0.46,1.0,25.42,29.99,0.101041,0.0,42.35948481321839,nan,-71.10196734848485,nan,0.0,0.0,7106.1177,0.0,0.0,0.0,0.0
4363.0,217.0,301.0,319.0,303.0,244.0,nan,-0.88,-7.92,-0.07,6.62,-90.51,92.68,0.01,0.15,0.28,0.54,-0.48,0.52,-0.46,1.0,25.42,29.99,0.101041,0.0,42.359484885057476,nan,-71.1019674025974,nan,0.0,0.0,7106.1177,0.0,0.0,5.1,0.0
4383.0,249.0,304.0,216.0,261.0,196.0,nan,-0.87,-7.94,-0.05,6.62,-90.51,92.67,0.01,0.08,0.07,0.54,-0.48,0.52,-0.46,1.0,25.42,29.99,0.101041,0.0,42.35948495689656,nan,-71.10196745670996,nan,0.0,0.0,7106.1177,0.0,0.0,5.1,0.0
4405.0,281.0,174.0,225.0,230.0,199.0,nan,-0.86,-7.93,-0.06,6.62,-90.51,92.67,-0.06,0.15,0.21,0.54,-0.48,0.52,-0.46,1.0,25.41,30.03,0.101046,0.0,42.35948502873564,nan,-71.1019675108225,nan,0.0,0.0,7106.1177,0.0,0.0,5.1,0.0
4438.0,260.0,253.0,264.0,174.0,179.0,nan,-0.87,-7.92,-0.07,6.62,-90.51,92.67,-0.06,0.08,0.14,0.54,-0.48,0.52,-0.46,1.0,25.41,30.03,0.101046,0.0,42.35948510057471,nan,-71.10196756493507,nan,0.0,0.0,7106.1177,0.0,0.0,5.1,0.0
4457.0,203.0,185.0,127.0,173.0,230.0,nan,-0.87,-7.93,-0.07,6.62,-90.51,92.67,0.01,0.08,0.21,0.54,-0.48,0.52,-0.46,1.0,25.41,30.03,0.101046,0.0,42.3594851724138,nan,-71.10196761904761,nan,0.0,0.0,7106.1177,0.0,0.0,5.1,0.0
4480.0,214.0,234.0,227.0,240.0,270.0,nan,-0.87,-7.93,-0.07,6.62,-90.51,92.66,0.01,0.08,0.14,0.54,-0.48,0.52,-0.46,1.0,25.41,30.03,0.101046,0.0,42.35948524425288,nan,-71.10196767316017,nan,0.0,0.0,7106.1177,0.0,0.0,5.1,0.0
4500.0,264.0,190.0,197.0,309.0,239.0,nan,-0.87,-7.94,-0.06,6.62,-90.51,92.66,0.01,0.08,0.21,0.54,-0.48,0.52,-0.46,1.0,25.41,30.03,0.101046,0.0,42.359485316091956,nan,-71.10196772727272,nan,0.0,0.0,7106.1177,0.0,0.0,5.1,0.0
4522.0,149.0,180.0,225.0,316.0,207.0,nan,-0.86,-7.93,-0.06,6.62,-90.51,92.66,-0.06,0.08,0.14,0.54,-0.48,0.52,-0.46,1.0,25.41,30.03,0.101046,0.0,42.359485316091956,nan,-71.10196772727272,nan,0.0,0.0,7106.1177,0.0,0.0,0.0,0.0
4542.0,204.0,219.0,151.0,203.0,170.0,nan,-0.87,-7.93,-0.06,6.62,-90.51,92.66,0.01,0.08,0.21,0.54,-0.48,0.52,-0.46,1.0,25.41,30.03,0.101046,0.0,42.359485387931024,nan,-71.10196778138528,nan,0.0,0.0,7106.1177,0.0,0.0,5.1,0.0
4565.0,207.0,234.0,151.0,187.0,182.0,nan,-0.85,-7.93,-0.07,6.62,-90.51,92.66,0.01,0.08,0.14,0.54,-0.48,0.52,-0.46,1.0,25.41,30.03,0.101046,0.0,42.35948545977012,nan,-71.10196783549783,nan,0.0,0.0,7106.1177,0.0,0.0,5.1,0.0
4584.0,223.0,216.0,180.0,193.0,258.0,nan,-0.88,-7.92,-0.06,6.62,-90.51,92.66,0.01,0.08,0.28,0.54,-0.48,0.52,-0.46,1.0,25.41,30.03,0.101046,0.0,42.359485531609195,nan,-71.10196788961039,nan,0.0,0.0,7106.1177,0.0,0.0,5.1,0.0
4607.0,260.0,217.0,150.0,286.0,219.0,nan,-0.87,-7.93,-0.07,6.62,-90.51,92.65,-0.06,0.15,0.28,0.54,-0.48,0.52,-0.46,1.0,25.41,30.03,0.101046,0.0,42.35948560344828,nan,-71.10196794372294,nan,0.0,0.0,7106.1177,0.0,0.0,5.1,0.0
4633.0,225.0,163.0,218.0,179.0,151.0,nan,-0.86,-7.94,-0.06,6.62,-90.51,92.65,-0.06,0.15,0.21,0.54,-0.48,0.52,-0.46,1.0,25.41,30.03,0.101046,0.0,42.35948567528736,nan,-71.1019679978355,nan,0.0,0.0,7106.1177,0.0,0.0,5.1,0.0
4656.0,229.0,265.0,199.0,262.0,154.0,nan,-0.88,-7.92,-0.07,6.62,-90.51,92.65,-0.06,0.08,0.14,0.54,-0.48,0.52,-0.46,1.0,25.41,30.03,0.101046,0.0,42.35948574712645,nan,-71.10196805194805,nan,0.0,0.0,7106.1177,0.0,0.0,5.1,0.0
4676.0,249.0,259.0,176.0,191.0,128.0,nan,-0.86,-7.94,-0.06,6.62,-90.51,92.65,-0.06,0.08,0.28,0.54,-0.48,0.52,-0.46,1.0,25.41,30.03,0.101046,0.0,42.35948574712645,nan,-71.10196805194805,nan,0.0,0.0,7106.1177,0.0,0.0,0.0,0.0
4699.0,239.0,250.0,210.0,226.0,222.0,nan,-0.87,-7.93,-0.07,6.62,-90.51,92.64,-0.06,0.15,0.07,0.54,-0.48,0.52,-0.46,1.0,25.41,30.03,0.101046,0.0,42.35948581896552,nan,-71.10196810606061,nan,0.0,0.0,7106.1177,0.0,0.0,5.1,0.0
4718.0,237.0,189.0,167.0,227.0,272.0,nan,-0.87,-7.93,-0.06,6.62,-90.51,92.64,0.01,0.08,0.35,0.54,-0.48,0.52,-0.46,1.0,25.41,30.03,0.101046,0.0,42.3594858908046,nan,-71.10196816017316,nan,0.0,0.0,7106.1177,0.0,0.0,5.1,0.0
4741.0,237.0,189.0,243.0,230.0,171.0,nan,-0.86,-7.93,-0.05,6.62,-90.51,92.64,-0.13,0.08,0.07,0.54,-0.48,0.52,-0.46,1.0,25.41,30.03,0.101046,0.0,42.359485962643674,nan,-71.10196821428572,nan,0.0,0.0,7106.1177,0.0,0.0,5.1,0.0
4761.0,250.0,230.0,223.0,199.0,158.0,nan,-0.88,-7.93,-0.07,6.62,-90.51,92.64,0.08,0.01,0.28,0.54,-0.48,0.52,-0.46,1.0,25.41,30.03,0.101046,0.0,42.35948603448277,nan,-71.10196826839828,nan,0.0,0.0,7106.1177,0.0,0.0,5.1,0.0
4783.0,312.0,339.0,277.0,289.0,192.0,nan,-0.85,-7.94,-0.08,6.62,-90.51,92.64,-0.06,0.01,0.07,0.54,-0.48,0.52,-0.46,1.0,25.41,30.03,0.101046,0.0,42.35948603448277,nan,-71.10196826839828,nan,0.0,0.0,7106.1177,0.0,0.0,0.0,0.0
4803.0,241.0,259.0,238.0,178.0,141.0,nan,-0.89,-7.92,-0.07,6.62,-90.51,92.64,-0.06,0.08,0.21,0.54,-0.48,0.52,-0.46,1.0,25.41,30.03,0.101046,0.0,42.35948610632184,nan,-71.10196832251083,nan,0.0,0.0,7106.1177,0.0,0.0,5.1,0.0
4826.0,205.0,211.0,165.0,255.0,157.0,nan,-0.88,-7.92,-0.05,6.62,-90.51,92.63,0.01,0.15,0.14,0.54,-0.48,0.52,-0.46,1.0,25.41,30.03,0.101046,0.0,42.359486178160914,nan,-71.10196837662339,nan,0.0,0.0,7106.1177,0.0,0.0,5.1,0.0
4852.0,215.0,264.0,227.0,268.0,153.0,nan,-0.86,-7.93,-0.06,6.62,-90.51,92.63,-0.06,0.01,0.21,0.54,-0.48,0.52,-0.46,1.0,25.41,30.03,0.101046,0.0,42.35948625000001,nan,-71.10196843073594,nan,0.0,0.0,7106.1177,0.0,0.0,5.1,0.0
4875.0,184.0,185.0,141.0,189.0,171.0,nan,-0.88,-7.92,-0.07,6.62,-90.51,92.63,0.01,0.15,0.21,0.54,-0.48,0.52,-0.46,1.0,25.42,30.03,0.1010317,0.0,42.359486321839086,nan,-71.10196848484848,nan,0.0,0.0,7106.1177,0.0,0.0,5.1,0.0
4896.0,266.0,195.0,197.0,240.0,186.0,nan,-0.86,-7.94,-0.06,6.62,-90.51,92.63,-0.06,0.01,0.21,0.54,-0.48,0.52,-0.46,1.0,25.42,30.03,0.1010317,0.0,42.35948639367817,nan,-71.10196853896102,nan,0.0,0.0,7106.1177,0.0,0.0,5.1,0.0
4920.0,277.0,193.0,175.0,251.0,256.0,nan,-0.86,-7.93,-0.06,6.62,-90.51,92.63,0.01,0.15,0.14,0.54,-0.48,0.52,-0.46,1.0,25.42,30.03,0.1010317,0.0,42.359486465517236,nan,-71.1019685930736,nan,0.0,0.0,7106.1177,0.0,0.0,5.1,0.0
4939.0,270.0,250.0,227.0,329.0,177.0,nan,-0.87,-7.93,-0.07,6.62,-90.51,92.62,0.01,0.15,0.28,0.54,-0.48,0.52,-0.46,1.0,25.42,30.03,0.1010317,0.0,42.359486465517236,nan,-71.1019685930736,nan,0.0,0.0,7106.1177,0.0,0.0,0.0,0.0
4962.0,249.0,230.0,233.0,226.0,203.0,nan,-0.86,-7.94,-0.05,6.62,-90.51,92.62,0.01,0.08,0.14,0.54,-0.48,0.52,-0.46,1.0,25.42,30.03,0.1010317,0.0,42.359486537356325,nan,-71.10196864718615,nan,0.0,0.0,7106.1177,0.0,0.0,5.1,0.0
4981.0,210.0,250.0,190.0,289.0,263.0,nan,-0.87,-7.92,-0.04,6.62,-90.51,92.62,-0.06,0.08,0.21,0.54,-0.48,0.52,-0.46,1.0,25.42,30.03,0.1010317,0.0,42.35948660919541,nan,-71.1019687012987,nan,0.0,0.0,7106.1177,0.0,0.0,5.1,0.0
5004.0,191.0,209.0,258.0,302.0,246.0,nan,-0.87,-7.93,-0.06,6.62,-90.51,92.62,0.01,0.08,0.21,0.54,-0.48,0.52,-0.46,1.0,25.42,30.03,0.1010317,0.0,42.35948668103449,nan,-71.10196875541126,nan,0.0,0.0,7106.1177,0.0,0.0,5.1,0.0
5031.0,197.0,257.0,215.0,259.0,170.0,nan,-0.87,-7.94,-0.06,6.62,-90.51,92.61,-0.06,0.08,0.21,0.54,-0.48,0.52,-0.46,1.0,25.42,30.03,0.1010317,0.0,42.359486752873565,nan,-71.10196880952381,nan,0.0,0.0,7106.1177,0.0,0.0,5.1,0.0
5054.0,274.0,285.0,175.0,243.0,251.0,nan,-0.86,-7.93,-0.06,6.62,-90.51,92.61,-0.06,0.01,0.21,0.54,-0.48,0.52,-0.46,1.0,25.42,30.03,0.1010317,0.0,42.35948682471266,nan,-71.10196886363637,nan,0.0,0.0,7106.1177,0.0,0.0,5.1,0.0
5073.0,225.0,310.0,231.0,211.0,197.0,nan,-0.86,-7.93,-0.06,6.62,-90.51,92.61,-0.06,0.15,0.21,0.54,-0.48,0.52,-0.46,1.0,25.42,30.03,0.1010317,0.0,42.35948689655173,nan,-71.10196891774892,nan,0.0,0.0,7106.1177,0.0,0.0,5.1,0.0
5096.0,226.0,296.0,305.0,219.0,225.0,nan,-0.87,-7.92,-0.05,6.62,-90.51,92.61,0.01,0.08,0.21,0.54,-0.48,0.52,-0.46,1.0,25.42,30.03,0.1010317,0.0,42.35948689655173,nan,-71.10196891774892,nan,0.0,0.0,7106.1177,0.0,0.0,0.0,0.0
5115.0,205.0,289.0,303.0,198.0,244.0,nan,-0.87,-7.93,-0.06,6.63,-90.51,92.61,0.01,0.08,0.28,0.54,-0.48,0.52,-0.46,1.0,25.42,30.03,0.1010317,0.0,42.359486968390804,nan,-71.10196897186148,nan,0.0,0.0,7106.1177,0.0,0.0,5.1,0.0
5138.0,193.0,253.0,181.0,192.0,261.0,nan,-0.88,-7.93,-0.07,6.63,-90.51,92.61,-0.06,0.08,0.14,0.54,-0.48,0.52,-0.46,1.0,25.42,30.03,0.1010317,0.0,42.35948704022989,nan,-71.10196902597403,nan,0.0,0.0,7106.1177,0.0,0.0,5.1,0.0
5158.0,240.0,287.0,174.0,250.0,279.0,nan,-0.87,-7.93,-0.06,6.63,-90.51,92.6,0.01,0.15,0.21,0.54,-0.48,0.52,-0.46,1.0,25.42,30.03,0.1010317,0.0,42.359487112068976,nan,-71.10196908008659,nan,0.0,0.0,7106.1177,0.0,0.0,5.1,0.0
5181.0,289.0,278.0,240.0,201.0,278.0,nan,-0.87,-7.93,-0.05,6.62,-90.51,92.6,0.01,-0.06,0.14,0.54,-0.48,0.52,-0.46,1.0,25.42,30.03,0.1010317,0.0,42.359487183908044,nan,-71.10196913419914,nan,0.0,0.0,7106.1177,0.0,0.0,5.1,0.0
5200.0,316.0,201.0,178.0,205.0,215.0,nan,-0.88,-7.93,-0.06,6.62,-90.51,92.6,0.01,0.08,0.14,0.54,-0.48,0.52,-0.46,1.0,25.42,30.03,0.1010317,0.0,42.359487183908044,nan,-71.10196913419914,nan,0.0,0.0,7106.1177,0.0,0.0,0.0,0.0
5223.0,237.0,145.0,257.0,211.0,174.0,nan,-0.89,-7.92,-0.06,6.63,-90.51,92.6,-0.06,0.08,0.21,0.54,-0.48,0.52,-0.46,1.0,25.42,30.03,0.1010317,0.0,42.359487255747126,nan,-71.1019691883117,nan,0.0,0.0,7106.1177,0.0,0.0,5.1,0.0
5250.0,189.0,209.0,251.0,293.0,236.0,nan,-0.87,-7.94,-0.07,6.62,-90.51,92.6,0.01,0.08,0.14,0.54,-0.48,0.52,-0.46,1.0,25.42,30.03,0.1010317,0.0,42.35948732758621,nan,-71.10196924242425,nan,0.0,0.0,7106.1177,0.0,0.0,5.1,0.0
5272.0,234.0,230.0,262.0,289.0,177.0,nan,-0.88,-7.92,-0.07,6.62,-90.51,92.6,-0.06,0.01,0.14,0.54,-0.48,0.52,-0.46,1.0,25.42,30.03,0.1010317,0.0,42.3594873994253,nan,-71.10196929653681,nan,0.0,0.0,7106.1177,0.0,0.0,5.1,0.0
5292.0,238.0,258.0,271.0,274.0,229.0,nan,-0.86,-7.93,-0.06,6.62,-90.51,92.6,-0.13,0.15,0.21,0.54,-0.48,0.52,-0.46,1.0,25.42,30.03,0.1010317,0.0,42.35948747126438,nan,-71.10196935064936,nan,0.0,0.0,7106.1177,0.0,0.0,5.1,0.0
5314.0,238.0,189.0,242.0,241.0,273.0,nan,-0.87,-7.93,-0.06,6.62,-90.51,92.59,-0.06,0.15,0.14,0.54,-0.48,0.52,-0.46,1.0,25.42,30.03,0.1010317,0.0,42.35948754310345,nan,-71.10196940476192,nan,0.0,0.0,7106.1177,0.0,0.0,5.1,0.0
5334.0,206.0,166.0,187.0,163.0,164.0,nan,-0.88,-7.94,-0.06,6.62,-90.51,92.59,-0.06,0.01,0.21,0.54,-0.48,0.52,-0.46,1.0,25.41,30.03,0.1010399,0.0,42.35948761494252,nan,-71.10196945887446,nan,0.0,0.0,7106.1177,0.0,0.0,5.1,0.0
5359.0,218.0,259.0,182.0,263.0,261.0,nan,-0.87,-7.93,-0.06,6.62,-90.51,92.59,0.01,0.15,0.14,0.54,-0.48,0.52,-0.46,1.0,25.41,30.03,0.1010399,0.0,42.35948768678162,nan,-71.101969512987,nan,0.0,0.0,7106.1177,0.0,0.0,5.1,0.0
5379.0,310.0,360.0,323.0,292.0,190.0,nan,-0.87,-7.93,-0.07,6.63,-90.51,92.59,-0.06,0.08,0.28,0.54,-0.48,0.52,-0.46,1.0,25.41,30.03,0.1010399,0.0,42.35948768678162,nan,-71.101969512987,nan,0.0,0.0,7106.1177,0.0,0.0,0.0,0.0
5402.0,244.0,298.0,232.0,218.0,201.0,nan,-0.87,-7.93,-0.06,6.63,-90.51,92.58,-0.06,0.15,0.21,0.54,-0.48,0.52,-0.46,1.0,25.41,30.03,0.1010399,0.0,42.359487758620695,nan,-71.10196956709957,nan,0.0,0.0,7106.1177,0.0,0.0,5.1,0.0
5428.0,233.0,187.0,202.0,232.0,174.0,nan,-0.86,-7.94,-0.05,6.63,-90.51,92.58,0.01,0.01,0.21,0.54,-0.48,0.52,-0.46,1.0,25.41,30.03,0.1010399,0.0,42.35948783045976,nan,-71.1019696212121,nan,0.0,0.0,7106.1177,0.0,0.0,5.1,0.0
5450.0,249.0,203.0,202.0,235.0,188.0,nan,-0.88,-7.93,-0.06,6.63,-90.51,92.58,0.01,0.08,0.21,0.54,-0.48,0.52,-0.46,1.0,25.41,30.03,0.1010399,0.0,42.359487902298845,nan,-71.10196967532468,nan,0.0,0.0,7106.1177,0.0,0.0,5.1,0.0
5470.0,274.0,194.0,184.0,219.0,194.0,nan,-0.87,-7.94,-0.08,6.63,-90.51,92.58,-0.06,0.08,0.14,0.54,-0.48,0.52,-0.46,1.0,25.41,30.03,0.1010399,0.0,42.359487974137934,nan,-71.10196972943722,nan,0.0,0.0,7106.1177,0.0,0.0,5.1,0.0
5493.0,199.0,108.0,142.0,229.0,146.0,nan,-0.88,-7.92,-0.08,6.62,-90.51,92.58,-0.06,0.08,0.14,0.54,-0.48,0.52,-0.46,1.0,25.41,30.03,0.1010399,0.0,42.35948804597702,nan,-71.10196978354979,nan,0.0,0.0,7106.1177,0.0,0.0,5.1,0.0
5513.0,188.0,122.0,157.0,285.0,201.0,nan,-0.87,-7.93,-0.07,6.62,-90.52,92.58,-0.06,0.15,0.21,0.54,-0.48,0.52,-0.46,1.0,25.41,30.03,0.1010399,0.0,42.3594881178161,nan,-71.10196983766232,nan,0.0,0.0,7106.1177,0.0,0.0,5.1,0.0
5535.0,215.0,223.0,199.0,271.0,220.0,nan,-0.88,-7.92,-0.05,6.62,-90.51,92.58,0.01,0.01,0.14,0.54,-0.48,0.52,-0.46,1.0,25.41,30.03,0.1010399,0.0,42.3594881178161,nan,-71.10196983766232,nan,0.0,0.0,7106.1177,0.0,0.0,0.0,0.0
5555.0,277.0,278.0,200.0,199.0,168.0,nan,-0.87,-7.93,-0.05,6.63,-90.51,92.58,0.01,0.01,0.21,0.54,-0.48,0.52,-0.46,1.0,25.41,30.03,0.1010399,0.0,42.35948818965517,nan,-71.1019698917749,nan,0.0,0.0,7106.1177,0.0,0.0,5.1,0.0
5578.0,218.0,199.0,182.0,192.0,163.0,nan,-0.86,-7.94,-0.05,6.62,-90.51,92.58,0.01,0.01,0.14,0.54,-0.48,0.52,-0.46,1.0,25.41,30.03,0.1010399,0.0,42.35948833333334,nan,-71.10197000000001,nan,0.0,0.0,7106.1177,0.0,0.0,5.1,0.0
5597.0,232.0,217.0,182.0,197.0,226.0,nan,-0.88,-7.93,-0.07,6.63,-90.51,92.57,-0.06,0.08,0.21,0.54,-0.48,0.52,-0.46,1.0,25.41,30.03,0.1010399,0.0,42.3594882371795,nan,-71.10197000000001,nan,0.0,0.0,7106.1182,1.0,1.0,5.1,0.0
5620.0,292.0,241.0,218.0,243.0,274.0,nan,-0.88,-7.92,-0.06,6.63,-90.51,92.57,0.01,0.08,0.28,0.54,-0.48,0.52,-0.46,1.0,25.41,30.03,0.1010399,0.0,42.35948814102564,nan,-71.10197021367522,nan,0.0,0.0,7106.1182,0.0,0.0,5.1,0.0
5646.0,233.0,220.0,183.0,308.0,257.0,nan,-0.86,-7.94,-0.07,6.63,-90.51,92.57,-0.13,0.08,0.14,0.54,-0.48,0.52,-0.46,1.0,25.41,30.03,0.1010399,0.0,42.3594880448718,nan,-71.1019703205128,nan,0.0,0.0,7106.1182,0.0,0.0,5.1,0.0
5669.0,241.0,216.0,235.0,210.0,183.0,nan,-0.88,-7.93,-0.07,6.62,-90.51,92.57,0.01,0.08,0.14,0.54,-0.48,0.52,-0.46,1.0,25.41,30.03,0.1010399,0.0,42.3594880448718,nan,-71.1019703205128,nan,0.0,0.0,7106.1182,0.0,0.0,0.0,0.0
5689.0,231.0,300.0,236.0,252.0,249.0,nan,-0.86,-7.94,-0.07,6.62,-90.51,92.56,-0.06,0.15,0.21,0.54,-0.48,0.52,-0.46,1.0,25.41,30.03,0.1010399,0.0,42.35948794871795,nan,-71.10197042735044,nan,0.0,0.0,7106.1182,0.0,0.0,5.1,0.0
5712.0,214.0,316.0,293.0,236.0,253.0,nan,-0.88,-7.92,-0.06,6.62,-90.51,92.56,0.01,0.15,0.07,0.54,-0.48,0.52,-0.46,1.0,25.41,30.03,0.1010399,0.0,42.3594878525641,nan,-71.10197053418803,nan,0.0,0.0,7106.1182,0.0,0.0,5.2,0.0
5731.0,268.0,261.0,303.0,303.0,310.0,nan,-0.87,-7.93,-0.06,6.62,-90.51,92.56,0.01,0.08,0.21,0.54,-0.48,0.52,-0.46,1.0,25.41,30.03,0.1010399,0.0,42.35948775641026,nan,-71.10197064102566,nan,0.0,0.0,7106.1182,0.0,0.0,5.2,0.0
5754.0,233.0,253.0,203.0,258.0,218.0,nan,-0.86,-7.93,-0.05,6.62,-90.51,92.56,-0.06,0.08,0.14,0.54,-0.48,0.52,-0.46,1.0,25.41,30.03,0.1010399,0.0,42.35948766025642,nan,-71.10197074786323,nan,0.0,0.0,7106.1182,0.0,0.0,5.2,0.0
5774.0,252.0,215.0,213.0,201.0,127.0,nan,-0.87,-7.94,-0.05,6.62,-90.51,92.56,0.01,0.08,0.21,0.54,-0.48,0.52,-0.46,1.0,25.41,30.03,0.1010399,0.0,42.359487564102565,nan,-71.10197085470087,nan,0.0,0.0,7106.1182,0.0,0.0,5.2,0.0
5796.0,234.0,224.0,197.0,169.0,135.0,nan,-0.87,-7.93,-0.06,6.62,-90.51,92.55,0.01,0.01,0.21,0.54,-0.48,0.52,-0.46,1.0,25.42,30.0,0.101041,0.0,42.35948746794871,nan,-71.10197096153846,nan,0.0,0.0,7106.1182,0.0,0.0,5.2,0.0
5828.0,202.0,200.0,198.0,247.0,186.0,nan,-0.86,-7.93,-0.08,6.62,-90.51,92.55,-0.06,0.01,0.14,0.54,-0.48,0.52,-0.46,1.0,25.42,30.0,0.101041,0.0,42.35948737179487,nan,-71.10197106837606,nan,0.0,0.0,7106.1182,0.0,0.0,5.2,0.0
5848.0,278.0,194.0,244.0,341.0,169.0,nan,-0.88,-7.92,-0.08,6.62,-90.51,92.55,-0.06,0.08,0.21,0.54,-0.48,0.52,-0.46,1.0,25.42,30.0,0.101041,0.0,42.35948737179487,nan,-71.10197106837606,nan,0.0,0.0,7106.1182,0.0,0.0,0.0,0.0
5871.0,191.0,167.0,177.0,303.0,165.0,nan,-0.87,-7.93,-0.09,6.62,-90.52,92.55,-0.06,0.08,0.14,0.54,-0.48,0.52,-0.46,1.0,25.42,30.0,0.101041,0.0,42.35948727564103,nan,-71.10197117521368,nan,0.0,0.0,7106.1182,0.0,0.0,5.2,0.0
5890.0,246.0,208.0,242.0,257.0,186.0,nan,-0.88,-7.93,-0.07,6.62,-90.52,92.55,-0.06,0.08,0.14,0.54,-0.48,0.52,-0.46,1.0,25.42,30.0,0.101041,0.0,42.35948717948718,nan,-71.10197128205128,nan,0.0,0.0,7106.1182,0.0,0.0,5.2,0.0
5913.0,161.0,175.0,208.0,289.0,267.0,nan,-0.87,-7.93,-0.07,6.62,-90.52,92.55,0.01,0.08,0.21,0.54,-0.48,0.52,-0.46,1.0,25.42,30.0,0.101041,0.0,42.35948708333334,nan,-71.10197138888888,nan,0.0,0.0,7106.1182,0.0,0.0,5.2,0.0
